~VERSION INFORMATION
 VERS.               1.20:   CWLS LOG ASCII STANDARD - VERSION 1.20
 WRAP.                 NO:   ONE LINE PER DEPTH STEP
~WELL INFORMATION
#MNEM.UNIT      DATA TYPE    INFORMATION
#----------   ------------   ------------------------------
 STRT.M          630.6096:   START DEPTH
 STOP.M         3133.6272:   STOP DEPTH
 STEP.M            0.1524:   STEP LENGTH
 NULL.          -999.2500:   NO VALUE
 COMP.            COMPANY:   PERTAMINA
 WELL.               WELL:   CMS-004
 WBN .            CMS-004:   WELLBORE
 FLD .              FIELD:   CEMARA SELATAN
 LOC .           LOCATION:   X = + 149636.27  Y = - 719813.7
 PROV.           PROVINCE:   JAWA BARAT
 STAT.              STATE:   INDONESIA
 SRVC.    SERVICE COMPANY:   SCHLUMBERGER
 DATE.            LOGDATE:   11/24/77
 APIN.         API NUMBER:   -
 UWI .  CEMARASELATAN-004:   UNIQUE WELL ID 
~CURVE INFORMATION
#MNEM.UNIT       API CODE    CURVE DESCRIPTION
#----------   ------------   ------------------------------
 DEPT.M                  :
 CALI.inch   60 280 00 00:   Caliper
 GR  .GAPI   60 310 00 00:   Gamma Ray
 SP  .mV     60 010 01 00:   Spontaneous Potential
 ILD .ohmm   05 070 46 00:   Induction Laterolog, Deep
 SN  .ohmm   05 040 16 00:   Short Normal 16"
 NPHI.%      42 890 03 00:   Neu. Porosity, Ss [%]
 RHOB.kg/cm3 42 350 01 00:   Bulk Density
 DRHO.g/cc   42 356 01 00:   Density Correction
 PROX.ohmm   21 270 30 00:   Proximity Log
~PARAMETER INFORMATION
#MNEM.UNIT          VALUE    DESCRIPTION
#----------   ------------   ------------------------------
 EKB .M            0.0000:   Kelly bushing
 EGL .M            0.0000:   Ground level
 EDF .M           10.0000:   Drilling floor
 EPD .M           10.0000:   Permanent datum
 TD  .M         3129.0000:   Total depth
 DF  .      CONGLONGMERAT:   Deepest formation
 PROJ.       SCHLUMBERGER:   Project
 DATE.           11/24/77:   Date logged
 SRFX.M       185028.4000:   Surface X position
 SRFY.M      9281121.0000:   Surface Y position
 STUS.                  3:   1-18 API codes
 SLAT.DECIMAL DE  -6.4963:   Surface Latitude
 SLNG.DECIMAL DE 108.1521:   Surface Longitude
 BLAT.DECIMAL DE   0.0000:   Bottom Latitude
 BLNG.DECIMAL DE   0.0000:   Bottom Longitude
 SCTN.                  0:   Section Number
 NSFT.F            0.0000:   N-S Footage
 EWFT.F            0.0000:   E-F Footage
 BHT .Degf            100:   Bottom Hole Temperature
 MRT .Degf            100:   Max Recorded Temperature
 MST .Degf             87:   Mud Temperature
 RM  .Ohmm            3.0:   Mud Resistivity
 RMB .Degf  2.7 ohmm @100:   Mud BHT Resistivity
 RMC .Ohmm           4.72:   Mud Cake Resistivity
 RMF .Ohmm           1.93:   Mud Filtrate Resistivity
 DFD .G/c3           1.05:   Drilling Fluid Density
 DFV .Sec              43:   Drilling Fluid Viscosity
 DFPH.                  9:   Drilling Fluid pH
 DFL .Ml               14:   Drilling Fluid Loss
 DD  .Mtr          3129.0:   Depth driller
 DL  .Mtr          3129.8:   Depth logger
 BLI .Mtr          3129.5:   Bottom log interval
 TLI .Mtr            2767:   Top log interval
 CSS .Inch          9 5/8:   Casing size
 CTD1.Mtr   9 5/8" @ 1300:   Casing driller 1
 CTL1.Mtr          1299.7:   Casing logger 1
 BS  .Inch          8 5/8:   Bit size
 DFT . Bentonite / Q.Broxin:   Type fluid in hole
 WSS .           Flowline:   Source of sample
 EMT .Degf 0.48 ohmm @ 95:   Rm Meas. temp.
 MFT .Degf 0.31 ohmm @ 80:   Rmf Meas. temp.
 MCST.Degf 0.66 ohmm @ 26:   Rmc Meas. temp.
 MFSS.              Press:   Source Rmf.
 MCSS.              Press:   Source Rmc.
 TCS .HRS              12:   Time Circ. stopped
 LUN .               RS18:   Logging unit number
 LUL .                WJV:   Logging unit location
 ENGI.            M.Akbar:   Recorded By
 WITN.  Wardoyo / Sugipto:   Witnessed by
 RE1 .        ILD (6FF40):   Res. Electrode #1
 RE2 .      SN  (A-16" M):   Res. Electrode #2
 TLAB.Hrs              12:   Time logger at bottom
 DATE.           12/02/77:   Date logged
 DATE.           12/13/77:   Date logged
 DATE.           01/10/77:   Date logged
 DATE.           01/28/78:   Date logged
 BHT .Degf            110:   Bottom Hole Temperature
 BHT .Degf            155:   Bottom Hole Temperature
 BHT .Degf            250:   Bottom Hole Temperature
 BHT .Degf            270:   Bottom Hole Temperature
 MRT .Degf            110:   Max Recorded Temperature
 MRT .Degf            155:   Max Recorded Temperature
 MRT .Degf            250:   Max Recorded Temperature
 MRT .Degf            270:   Max Recorded Temperature
 MST .Degf             80:   Mud Temperature
 MST .Degf             85:   Mud Temperature
 MST .Degf             85:   Mud Temperature
 MST .Degf             95:   Mud Temperature
 RM  .Ohmm           2.05:   Mud Resistivity
 RM  .Ohmm           1.51:   Mud Resistivity
 RM  .Ohmm           0.71:   Mud Resistivity
 RM  .Ohmm           0.48:   Mud Resistivity
 RMB .Degf 1.6 ohmm @ 110:   Mud BHT Resistivity
 RMB .Degf 0.9 ohmm @ 155:   Mud BHT Resistivity
 RMB .Degf 0.24 ohmm @ 250:   Mud BHT Resistivity
 RMB .Degf 0.16 ohmm @ 270:   Mud BHT Resistivity
 RMC .Ohmm           2.12:   Mud Cake Resistivity
 RMC .Ohmm           1.62:   Mud Cake Resistivity
 RMC .Ohmm           1.11:   Mud Cake Resistivity
 RMC .Ohmm 0.66 ohmm @ 26:   Mud Cake Resistivity
 RMF .Ohmm           1.91:   Mud Filtrate Resistivity
 RMF .Ohmm           1.36:   Mud Filtrate Resistivity
 RMF .Ohmm           0.46:   Mud Filtrate Resistivity
 RMF .Ohmm 0.31 ohmm @ 80:   Mud Filtrate Resistivity
 DFD .G/c3           1.15:   Drilling Fluid Density
 DFD .G/c3           1.14:   Drilling Fluid Density
 DFD .G/c3           1.17:   Drilling Fluid Density
 DFD .G/c3           1.23:   Drilling Fluid Density
 DFV .Sec              42:   Drilling Fluid Viscosity
 DFV .Sec              55:   Drilling Fluid Viscosity
 DFV .Sec              65:   Drilling Fluid Viscosity
 DFV .Sec              65:   Drilling Fluid Viscosity
 DFPH.                  9:   Drilling Fluid pH
 DFPH.                  9:   Drilling Fluid pH
 DFPH.                9.5:   Drilling Fluid pH
 DFPH.                9.5:   Drilling Fluid pH
 DFL .Ml               10:   Drilling Fluid Loss
 DFL .Ml              6.5:   Drilling Fluid Loss
 DFL .Ml                5:   Drilling Fluid Loss
 DFL .Ml                5:   Drilling Fluid Loss
 DD  .Mtr             255:   Depth driller
 DD  .Mtr             635:   Depth driller
 DD  .Mtr            1305:   Depth driller
 DD  .Mtr            2798:   Depth driller
 DL  .Mtr             255:   Depth logger
 DL  .Mtr             635:   Depth logger
 DL  .Mtr            1303:   Depth logger
 DL  .Mtr          2799.3:   Depth logger
 BLI .Mtr           254.7:   Bottom log interval
 BLI .Mtr           634.7:   Bottom log interval
 BLI .Mtr            1302:   Bottom log interval
 BLI .Mtr          2799.0:   Bottom log interval
 TLI .Mtr            30.0:   Top log interval
 TLI .Mtr           259.3:   Top log interval
 TLI .Mtr           630.5:   Top log interval
 TLI .Mtr          1299.7:   Top log interval
 CSS .Inch             30:   Casing size
 CSS .Inch             20:   Casing size
 CSS .Inch         12 1/4:   Casing size
 CSS .Inch          9 5/8:   Casing size
 CTD1.Mtr              30:   Casing driller 1
 CTD1.Mtr           259.1:   Casing driller 1
 CTD1.Mtr             630:   Casing driller 1
 CTD1.Mtr            1300:   Casing driller 1
 CTL1.Mtr              30:   Casing logger 1
 CTL1.Mtr           250.5:   Casing logger 1
 CTL1.Mtr           630.5:   Casing logger 1
 CTL1.Mtr          1299.7:   Casing logger 1
 BS  .Inch          9 7/8:   Bit size
 BS  .Inch          9 7/8:   Bit size
 BS  .Inch             12:   Bit size
 BS  .Inch          8 5/8:   Bit size
 DFT .          bentonite:   Type fluid in hole
 DFT .          bentonite:   Type fluid in hole
 DFT .          bentonite:   Type fluid in hole
 DFT .          bentonite:   Type fluid in hole
 WSS .           flowline:   Source of sample
 WSS .           flowline:   Source of sample
 WSS .           flowline:   Source of sample
 WSS .           flowline:   Source of sample
 EMT .Degf  3.0 ohmm @ 87:   Rm Meas. temp.
 EMT .Degf 2.05 ohmm @ 80:   Rm Meas. temp.
 EMT .Degf 1.51 ohmm @ 85:   Rm Meas. temp.
 EMT .Degf 0.71 ohmm @ 85:   Rm Meas. temp.
 MFT .Degf 2.72 ohmm @ 87:   Rmf Meas. temp.
 MFT .Degf 1.91 ohmm @ 80:   Rmf Meas. temp.
 MFT .Degf 1.36 ohmm @ 85:   Rmf Meas. temp.
 MFT .Degf 0.46 ohmm @ 85:   Rmf Meas. temp.
 MCST.Degf 1.93 ohmm @ 87:   Rmc Meas. temp.
 MCST.Degf 2.12 ohmm @ 80:   Rmc Meas. temp.
 MCST.Degf 1.62 ohmm @ 85:   Rmc Meas. temp.
 MCST.Degf 1.11 ohmm @ 85:   Rmc Meas. temp.
 MFSS.                  p:   Source Rmf.
 MFSS.                  p:   Source Rmf.
 MFSS.                  p:   Source Rmf.
 MFSS.                  p:   Source Rmf.
 MCSS.                  p:   Source Rmc.
 MCSS.                  p:   Source Rmc.
 MCSS.                  p:   Source Rmc.
 MCSS.                  p:   Source Rmc.
 TCS .HRS             1.5:   Time Circ. stopped
 TCS .HRS               3:   Time Circ. stopped
 TCS .HRS               4:   Time Circ. stopped
 TCS .HRS               7:   Time Circ. stopped
 LUN .               4618:   Logging unit number
 LUN .               4618:   Logging unit number
 LUN .               4618:   Logging unit number
 LUL .                mjv:   Logging unit location
 LUL .                mjv:   Logging unit location
 LUL .                mjv:   Logging unit location
 LUL .                mjv:   Logging unit location
 WITN.            Sukarna:   Witnessed by
 RE1 .                ILD:   Res. Electrode #1
 RE1 .                ILD:   Res. Electrode #1
 RE1 .                ILD:   Res. Electrode #1
 RE1 .                ILD:   Res. Electrode #1
 RE2 .                 SN:   Res. Electrode #2
 RE2 .                 SN:   Res. Electrode #2
 RE2 .                 SN:   Res. Electrode #2
 RE2 .                 SN:   Res. Electrode #2
 TLAB.Hrs             1.5:   Time logger at bottom
 TLAB.Hrs               3:   Time logger at bottom
 TLAB.Hrs               4:   Time logger at bottom
 TLAB.Hrs               7:   Time logger at bottom
 DGBY.            Sukarna:   Digitized By
 DGBY.            Sukarna:   Digitized By
 DGBY.            Sukarna:   Digitized By
 DGBY.            Sukarna:   Digitized By
 DGBY.            Sukarna:   Digitized By
~A  DEPTH     CALI         GR         SP        ILD         SN       NPHI       RHOB       DRHO       PROX
# ...
 2388.3910     9.7975    37.6983     1.4060    17.2886    14.8891     9.4315     2.7153    -0.0008    42.3041
 2388.5440    10.0784    37.2761     1.5566    16.9496    14.5763     9.1615     2.7149     0.0039    34.3671
 2388.6960    10.3452    36.5600     1.5767    16.1749    14.1212     9.3271     2.7141     0.0414    31.3242
 2388.8480    10.0773    35.8587     1.7637    15.3409    13.5300     9.5744     2.7140     0.0328    33.7297
 2389.0010    10.1629    35.6366     1.9505    14.5672    12.8440     9.7357     2.7140     0.0104    40.0203
 2389.1530    10.2834    34.6425     2.1596    13.9156    12.1452     9.5939     2.7141    -0.0056    25.3552
 2389.3060    10.3338    33.8127     2.4651    13.4656    11.4756     9.4550     2.7142    -0.0014    20.1459
 2389.4580    10.3295    33.3333     2.4616    13.1138    10.8525     9.4620     2.7147     0.0229    16.2968
 2389.6100    10.2580    33.3729     2.4583    12.6298    10.4114     9.7104     2.7151     0.0262    16.8497
 2389.7630    10.0943    33.8135     2.4545    12.2608     9.9642    10.4039     2.7151     0.0094    18.9508
 2389.9150    10.0398    34.4291     2.4518    11.9163     9.5785    10.9084     2.7126     0.0076    17.2196
 2390.0680    10.0438    34.9206     2.4485    11.5031     9.3460    11.3095     2.6990    -0.0052    14.3901
 2390.2200    10.0344    34.9206     2.4452    11.0285     9.1336    11.2624     2.7062    -0.0008    11.5954
 2390.3720     9.9588    34.9205     2.4419    10.7946     8.9743    10.8221     2.7173     0.0058    12.3699
 2390.5250     9.8243    34.9205     2.4385    10.6061     8.8911    10.5252     2.7174     0.0173    11.3644
 2390.6770     9.7081    34.9177     2.4353    10.4205     8.8276    10.2738     2.7174     0.0299     6.5945
 2390.8300     9.7481    34.5484     2.4320    10.2904     8.7647     9.7780     2.7184     0.0068     4.6740
 2390.9820     9.9024    34.1373     2.4287    10.1965     8.7828     9.1879     2.7194     0.0147     3.7048
 2391.1350     9.8065    34.6581     2.4252    10.1241     8.8598     8.9722     2.7195     0.0212    12.1248
 2391.2870     9.5651    36.0282     2.4222    10.2594     9.0159     8.6433     2.7195     0.0119    11.0540
 2391.4390     9.5190    36.0588     2.4189    10.4425     9.2103     8.2889     2.7197     0.0025     9.0643
 2391.5920     9.5116    35.7391     2.4156    10.6437     9.3899     7.9325     2.7205     0.0100     9.4371
 2391.7440     9.5677    35.2934     2.4119    10.9663     9.6403     7.6868     2.7202     0.0023    17.2136
 2391.8960     9.6277    34.6095     2.4090    11.3103    10.0503     7.6169     2.7199    -0.0186    17.9281
 2392.0490     9.6758    34.4764     2.4057    11.6660    10.5391     7.7537     2.7194    -0.0133    21.5509
 2392.2010     9.6506    34.1863     2.4024    11.9327    10.9008     8.0066     2.7191     0.0038    18.8746
 2392.3540     9.5679    35.8603     2.3986    12.1119    11.2563     8.2916     2.7187    -0.0052    24.9666
 2392.5060     9.5373    36.8194     2.2418    12.2197    11.5019     8.5104     2.7183     0.0087    31.1482
 2392.6580     9.5791    37.0931     2.2385    12.2303    11.6392     8.2422     2.7179    -0.0053    21.9368
 2392.8110     9.6152    35.5792     2.2352    12.1921    11.7217     8.0080     2.7179     0.0041    28.6959
 2392.9630     9.7013    31.5891     2.2319    12.1864    11.7210     7.9749     2.7179     0.0148    25.7181
 2393.1150     9.7538    30.5451     2.2285    11.9966    11.6702     8.1105     2.7180     0.0114    13.3494
 2393.2680     9.7117    32.3268     2.2253    11.8486    11.4725     8.4327     2.7180    -0.0034     9.5110
 2393.4200     9.6774    34.6486     2.2221    11.6413    11.2913     8.6949     2.7187     0.0026    12.8440
 2393.5730     9.6323    36.8736     2.2188    11.3531    10.9736     9.0172     2.7180     0.0057    14.9776
 2393.7250     9.5641    36.0588     2.0611    11.0782    10.6350     9.3474     2.7173     0.0160    10.7926
 2393.8780     9.4964    34.5237     2.0581    10.8145    10.3103     9.4278     2.7171    -0.0079    15.0361
 2394.0300     9.3915    34.7866     2.1123    10.4390    10.0890     8.9885     2.7171     0.0001    21.3836
 2394.1820     9.3017    36.4568     2.2056    10.0563     9.9311     8.4835     2.7167     0.0077    18.0481
 2394.3350     9.3000    38.0502     2.3560     9.9849     9.8437     8.2957     2.7164     0.0018    11.9197
 2394.4870     9.3003    38.1205     2.3531    10.0434     9.8593     8.1877     2.7172     0.0110     4.6857
 2394.6400     9.3033    36.9214     2.3498    10.2226     9.9479     8.3611     2.7173     0.0182     6.6530
 2394.7920     9.3204    37.2587     2.3465    10.2748     9.9767     8.7913     2.7173     0.0249     9.5196
 2394.9440     9.3771    38.1166     2.3427    10.1850    10.1210     9.5576     2.7174     0.0394    21.5987
 2395.0970     9.4398    37.3562     2.3400    10.0575    10.2099    10.4217     2.7174    -0.0122    26.5856
 2395.2490     9.5503    36.0468     2.3367    10.1430    10.2326    10.5281     2.7175    -0.0245    27.6714
 2395.4020     9.6576    36.1960     2.3334    10.3493    10.2104    10.4371     2.7170    -0.0285    20.8770
 2395.5540     9.8145    38.1726     2.3301    10.4983    10.0320    10.3265     2.7116    -0.0284     6.0791
 2395.7060    10.0183    41.5362     2.3267    10.4985     9.7705    10.4722     2.7093    -0.0168     4.5395
 2395.8590    10.1835    43.0130     2.3533    10.4585     9.4612    10.9107     2.7057     0.0002     5.7213
 2396.0110    10.1018    43.7909     2.4743    10.1308     9.2485    11.1527     2.7113     0.0084     8.3719
 2396.1640     9.9732    39.4867     2.4710     9.8418     9.0659    11.3833     2.7127     0.0148     6.8214
 2396.3160     9.9303    38.1885     2.4675     9.5348     8.8652    11.0364     2.7128     0.0161    10.2433
 2396.4690     9.9222    38.9673     2.6389     9.4006     8.7479    10.6733     2.7138     0.0160     8.5800
 2396.6210     9.9552    39.9562     2.7694     9.4639     8.7475    11.1112     2.7146     0.0230     6.9019
 2396.7730     9.9758    40.8730     2.8588     9.5693     8.7644    11.7081     2.7148     0.0412    11.3287
 2396.9260     9.8453    40.2409     3.0705     9.6518     8.8413    12.2054     2.7139     0.0102    12.1686
 2397.0780     9.6637    36.0293     3.2329     9.7377     8.9189    12.5603     2.7129    -0.0232    11.7080
 2397.2300     9.5421    36.4050     3.3725     9.7771     9.0621    12.0144     2.7185    -0.0201    13.1737
 2397.3830     9.3533    36.8194     3.2858     9.7078     9.1555    11.1545     2.7199    -0.0059    11.6385
 2397.5350     9.3313    37.7379     3.2113     9.6388     9.3174    10.2485     2.7161    -0.0080    12.4458
 2397.6880     9.3278    37.6574     3.3646     9.6391     9.4351     9.9805     2.7113    -0.0241    15.1634
 2397.8400     9.3441    37.3179     3.5135     9.5965     9.5902    10.0318     2.7122    -0.0103    18.6369
 2397.9920     9.3484    37.2442     3.5843     9.3681     9.6698    10.0919     2.7148     0.0236    15.7225
 2398.1450     9.3301    37.7659     3.6610     9.1509     9.7546    10.1844     2.7143     0.0207    18.3106
 2398.2970     9.3116    39.0967     3.6576     8.9333     9.7954    10.2831     2.7141     0.0078    16.0375
 2398.4500     9.3098    39.6145     3.6544     8.8127     9.7255    10.2163     2.7156     0.0006    13.5951
 2398.6020     9.3102    37.8974     3.6511     8.6612     9.6561    10.0829     2.7170    -0.0074    14.8303
 2398.7540     9.3105    36.8811     3.6478     8.4699     9.6557     9.8710     2.7173    -0.0195     7.2564
 2398.9070     9.3108    38.3057     3.6442     8.2817     9.6150     9.6374     2.7173    -0.0199    10.2278
 2399.0590     9.3187    39.8044     3.7957     8.2090     9.5183     9.4251     2.7174    -0.0160    11.3336
 2399.2120     9.3653    38.1973     3.7920     8.1228     9.5138     9.1976     2.7183     0.0016    15.6365
 2399.3640     9.4167    36.0197     3.7888     8.0078     9.4302     8.8439     2.7194    -0.0049    20.7170
