~VERSION INFORMATION
 VERS.               1.20:   CWLS LOG ASCII STANDARD - VERSION 1.20
 WRAP.                 NO:   ONE LINE PER DEPTH STEP
~WELL INFORMATION
#MNEM.UNIT      DATA TYPE    INFORMATION
#----------   ------------   ------------------------------
 STRT.M          500.1524:   START DEPTH
 STOP.M         2803.2212:   STOP DEPTH
 STEP.M            0.1524:   STEP LENGTH
 NULL.          -999.2500:   NO VALUE
 COMP.            COMPANY:   PERTAMINA
 WELL.               WELL:   CMS-005
 WBN .            CMS-005:   WELLBORE
 FLD .              FIELD:   CEMARA SELATAN
 LOC .           LOCATION:   X = - 15283.31  Y = + 8483.38
 PROV.           PROVINCE:   JAWA BARAT
 STAT.              STATE:   INDONESIA
 SRVC.    SERVICE COMPANY:   SCHLUMBERGER
 DATE.            LOGDATE:   01/24/78
 APIN.         API NUMBER:   -
 UWI .  CEMARASELATAN-005:   UNIQUE WELL ID 
~CURVE INFORMATION
#MNEM.UNIT       API CODE    CURVE DESCRIPTION
#----------   ------------   ------------------------------
 DEPT.M                  :
 CALI.inch   60 280 00 00:   Caliper
 GR  .GAPI   42 310 00 00:   Gamma Ray
 SP  .mV     60 010 01 00:   Spontaneous Potential
 ILD .ohmm   05 070 46 00:   Induction Laterolog, Deep
 SN  .ohmm   05 040 16 00:   Short Normal 16"
 PROX.ohmm   21 270 30 00:   Proximity Log
 NPHI.%      42 890 03 00:   Neu. Porosity, Ss [%]
 RHOB.kg/cm3 42 350 01 00:   Bulk Density
 CBL .mV     81 524 00 00:   Cement Bond Log
 DRHO.kg/m3  42 356 01 00:   Density Correction
~PARAMETER INFORMATION
#MNEM.UNIT          VALUE    DESCRIPTION
#----------   ------------   ------------------------------
 EKB .M            0.0000:   Kelly bushing
 EGL .M            4.7500:   Ground level
 EDF .M           10.0000:   Drilling floor
 EPD .M           10.0000:   Permanent datum
 TD  .M         2793.0000:   Total depth
 DF  .      CONGLONGMERAT:   Deepest formation
 PROJ.       SCHLUMBERGER:   Project
 DATE.           01/24/78:   Date logged
 DD  .Mtr            2793:   Depth driller
 DL  .Mtr          2762.3:   Depth logger
 BLI .Mtr            2762:   Bottom log interval
 TLI .Mtr             500:   Top log interval
 CSS .Inch             7":   Casing size
 CTD1.Mtr     7" @ 2581,7:   Casing driller 1
 CTL1.Mtr          2581,7:   Casing logger 1
 BS  .Inch          6 1/8:   Bit size
 DFT .           Spersene:   Type fluid in hole
 DFD .G/c3           1.18:   Density
 DFV .Sec              58:   Viscosity
 COL .Inch           6-16:   Column depth/dia.
 DFPH.                 10:   pH
 DFL .Ml             2.75:   Fluid loss
 WSS .           Flowline:   Source of sample
 RM  .Ohmm           1.07:   Rm
 EMT .Degf 1.07 ohmm @ 83:   Rm Meas. temp.
 RMF .Ohmm           0.57:   Rmf
 MFT .Degf 0.57 ohmm @ 83:   Rmf Meas. temp.
 RMC .Ohmm           1.78:   Rmc
 MCST.Degf 1.78 ohmm @ 83:   Rmc Meas. temp.
 MFSS.              Press:   Source Rmf.
 MCSS.              Press:   Source Rmc.
 RMB .Degf 0.4 ohmm @ 232:   Rm. at BHT
 BHT .Degf            232:   BHT.
 TCS .Hrs               7:   Time Circ. stopped
 MRT .Degf            232:   Maximum recorded temp.
 LUN .               4618:   Logging unit number
 LUL .                WJV:   Logging unit location
 ENGI.           M. Akbar:   Recorded By
 WITN.           M.Dasuki:   Witnessed by
 RE1 .       ILD  (6FF40):   Res. Electrode #1
 RE2 .      SN   (A-16"M):   Res. Electrode #2
 DATE.           02/16/78:   Date logged
 DATE.           03/13/78:   Date logged
 DD  .Mtr            1260:   Depth driller
 DD  .Mtr            2610:   Depth driller
 DL  .Mtr            1260:   Depth logger
 DL  .Mtr            2610:   Depth logger
 BLI .Mtr            1260:   Bottom log interval
 BLI .Mtr          2605.8:   Bottom log interval
 TLI .Mtr             500:   Top log interval
 TLI .Mtr          1254.5:   Top log interval
 CSS .Inch         13 3/8:   Casing size
 CSS .Inch          9 5/8:   Casing size
 CTD1.Mtr             500:   Casing driller 1
 CTD1.Mtr            1254:   Casing driller 1
 CTL1.Mtr             500:   Casing logger 1
 CTL1.Mtr          1254.5:   Casing logger 1
 BS  .Inch         12 1/4:   Bit size
 BS  .Inch          8 5/8:   Bit size
 DFT .           spersene:   Type fluid in hole
 DFT .           spersene:   Type fluid in hole
 DFD .G/c3           1.12:   Density
 DFD .G/c3           1.18:   Density
 DFV .Sec              47:   Viscosity
 DFV .Sec              58:   Viscosity
 DFPH.                  9:   pH
 DFPH.                 10:   pH
 DFL .Ml              5.5:   Fluid loss
 DFL .Ml             2.75:   Fluid loss
 WSS .           flowline:   Source of sample
 WSS .           flowline:   Source of sample
 RM  .Ohmm           1.19:   Rm
 RM  .Ohmm           1.07:   Rm
 EMT .Degf             80:   Rm Meas. temp.
 EMT .Degf             83:   Rm Meas. temp.
 RMF .Ohmm            0.8:   Rmf
 RMF .Ohmm           0.57:   Rmf
 MFT .Degf             80:   Rmf Meas. temp.
 MFT .Degf             83:   Rmf Meas. temp.
 RMC .Ohmm           1.52:   Rmc
 RMC .Ohmm           1.78:   Rmc
 MCST.Degf             80:   Rmc Meas. temp.
 MCST.Degf             83:   Rmc Meas. temp.
 MFSS.                  p:   Source Rmf.
 MFSS.                  p:   Source Rmf.
 MCSS.                  p:   Source Rmc.
 MCSS.                  p:   Source Rmc.
 RMB .Degf 0.63 ohmm @ 150:   Rm. at BHT
 RMB .Degf 0.4 ohmm @ 232:   Rm. at BHT
 BHT .Degf            150:   BHT.
 BHT .Degf            232:   BHT.
 TCS .Hrs               3:   Time Circ. stopped
 TCS .Hrs               7:   Time Circ. stopped
 MRT .Degf            150:   Maximum recorded temp.
 MRT .Degf            232:   Maximum recorded temp.
 LUN .               4618:   Logging unit number
 LUN .               4618:   Logging unit number
 LUL .                wjv:   Logging unit location
 LUL .                wjv:   Logging unit location
 ENGI.           M. Akbar:   Recorded By
 ENGI.           M. Akbar:   Recorded By
 WITN.            Y. Rais:   Witnessed by
 WITN.          M. Dasuki:   Witnessed by
 RE1 .                ILD:   Res. Electrode #1
 RE1 .                ILD:   Res. Electrode #1
 RE2 .                 SN:   Res. Electrode #2
 RE2 .                 SN:   Res. Electrode #2
 TLAB.hh:mm             3:   Time Logger At Bottom
 TLAB.hh:mm             7:   Time Logger At Bottom
 TLAB.hh:mm             7:   Time Logger At Bottom
 DGBY.            Sukarna:   Digitized By
 DGBY.            Sukarna:   Digitized By
 DGBY.            Sukarna:   Digitized By
~T 1 Tops
D1(1453-1455)                    1453.0
~OTHER INFORMATION
# Bridleless tool, Log was correlated with cs. run no.3 4M too deep compared with run.2
~A  DEPTH     CALI         GR         SP        ILD         SN       PROX       NPHI       RHOB        CBL       DRHO
# ...
 2184.9340    10.3520    62.5504     7.7481     1.4505     1.5288     1.5776    27.1747     2.4258    16.4997    -0.1661
 2185.0870    10.2762    63.4847     7.7461     1.4401     1.5176     1.5443    29.1669     2.4585    16.7699    -0.1605
 2185.2390    10.2778    62.7995     7.8986     1.4196     1.4535     1.5223    29.9090     2.4718    17.1881    -0.1482
 2185.3920    10.3406    61.8829     7.8959     1.3993     1.4223     1.4278    30.4179     2.4804    17.5430    -0.1584
 2185.5440    10.3881    63.7471     7.8937     1.3893     1.3917     1.4177    30.3689     2.4562    16.8879    -0.1723
 2185.6960    10.3581    63.2924     7.8915     1.3695     1.3619     1.3778    30.4602     2.4726    16.5335    -0.1557
 2185.8490    10.3134    65.3882     7.8893     1.3695     1.3518     1.4077    30.6436     2.4827    16.9388    -0.1479
 2186.0010    10.2990    64.4725     8.0417     1.3597     1.3323     1.3779    32.0831     2.4593    17.9675    -0.1561
 2186.1540    10.3314    64.7143     8.0392     1.3404     1.3225     1.4382    32.6847     2.4632    17.9744    -0.1638
 2186.3060    10.3943    65.6510     8.1916     1.3404     1.3221     1.3682    31.7992     2.4601    18.5177    -0.1570
 2186.4580    10.4264    66.3554     8.1889     1.3308     1.3314     1.3016    31.9369     2.4702    19.1675    -0.1578
 2186.6110    10.4584    66.3657     8.1867     1.3308     1.3501     1.3393    31.5626     2.4351    16.8430    -0.1778
 2186.7630    10.4132    65.6764     8.3392     1.3500     1.3498     1.4590    31.1881     2.4804    15.7178    -0.1452
 2186.9160    10.4148    63.8380     8.3370     1.3597     1.3495     1.3781    30.5824     2.4843    16.0062    -0.1421
 2187.0680    10.4160    64.3092     8.4895     1.3794     1.3492     1.5014    30.0690     2.4687    16.7036    -0.1621
 2187.2200    10.4482    60.6179     8.4866     1.4094     1.3587     1.4591    29.6475     2.4835    16.7823    -0.1672
 2187.3730    10.4802    61.3226     8.4844     1.4196     1.3778     1.4696    29.2287     2.4967    16.1885    -0.1514
 2187.5250    10.4969    59.9441     8.3278     1.4505     1.3874     1.5124    28.5756     2.4882    15.7049    -0.1490
 2187.6770    10.4982    60.8885     8.3259     1.4609     1.4071     1.5903    28.4344     2.4740    14.7031    -0.1778
 2187.8300    10.4838    62.9740     8.3238     1.4715     1.4269     1.7319    28.7576     2.4593    15.1559    -0.1940
 2187.9820    10.3617    63.6787     8.3211     1.4821     1.4369     1.5451    28.8954     2.4531    16.2086    -0.1699
 2188.1350    10.3166    62.5317     8.1651     1.4609     1.4571     1.6359    28.5675     2.4663    17.0473    -0.1630
 2188.2870    10.3489    60.9212     8.1629     1.4609     1.4672     1.5017    28.4260     2.4554    17.1372    -0.1700
 2188.4400    10.4118    60.2354     8.1606     1.4609     1.4668     1.6359    28.8887     2.4258    17.5835    -0.1834
 2188.5920    10.4439    60.7108     8.1584     1.4505     1.4770     1.5343    29.2584     2.4312    18.5578    -0.1924
 2188.7440    10.4760    60.0216     8.1562     1.4505     1.4766     1.5344    29.3032     2.4437    19.5340    -0.1892
 2188.8970    10.4619    59.1090     8.1540     1.4401     1.4657     1.5788    29.3006     2.4460    20.4497    -0.1775
 2189.0490    10.4786    59.3535     7.9974     1.4196     1.4653     1.5901    29.2521     2.4499    21.1280    -0.1699
 2189.2020    10.4336    60.0556     7.9951     1.4094     1.4545     1.5454    29.9006     2.4461    22.3618    -0.1733
 2189.3540    10.4041    60.9918     7.9930     1.3794     1.4233     1.5454    30.4097     2.4492    22.2197    -0.1637
 2189.5060    10.4209    61.9304     7.8365     1.3695     1.4127     1.4700    31.5230     2.4617    20.9020    -0.1482
 2189.6590    10.4683    63.0958     7.8342     1.3597     1.3825     1.3788    31.3815     2.4086    21.9846    -0.1649
 2189.8110    10.4387    65.6524     7.8320     1.3404     1.3528     1.4599    30.9610     2.3907    23.4532    -0.1904
 2189.9640    10.3938    65.6627     7.8298     1.3308     1.3333     1.5456    30.8657     2.3938    23.0317    -0.1955
 2190.1160    10.3334    64.0527     7.8276     1.3212     1.3235     1.3888    31.2827     2.4188    23.1026    -0.1855
 2190.2680    10.3190    63.8275     7.6710     1.3308     1.3422     1.3402    31.3735     2.4290    23.7348    -0.1728
 2190.4210    10.3203    62.9159     7.6691     1.3308     1.3419     1.3790    31.3714     2.4554    24.0402    -0.1657
 2190.5730    10.3216    60.1464     7.6671     1.3308     1.3320     1.3988    31.2759     2.4679    23.9019    -0.1753
 2190.7260    10.3229    62.0106     7.6647     1.3404     1.3316     1.3791    30.9025     2.4773    26.2962    -0.1575
 2190.8780    10.2625    59.9365     7.8167     1.3308     1.3313     1.4292    30.4354     2.4648    25.2751    -0.1760
 2191.0310    10.2792    57.6331     7.9690     1.3308     1.3215     1.5132    30.1082     2.4726    22.7843    -0.1941
 2191.1830    10.3729    58.5694     7.9668     1.3212     1.3117     1.4293    30.0135     2.4531    19.7344    -0.1768
 2191.3350    10.3896    60.2001     7.9644     1.3024     1.3114     1.4707    30.5706     2.4687    22.6566    -0.1567
 2191.4880    10.3909    59.2824     8.1171     1.2931     1.3111     1.5025    31.7750     2.4718    23.9781    -0.1648
 2191.6400    10.3765    60.6860     8.1145     1.2747     1.3108     1.4396    32.5639     2.4461    25.0573    -0.1810
 2191.7920    10.3934    63.9358     8.1123     1.2564     1.3010     1.4291    33.8637     2.4414    23.6750    -0.1660
 2191.9450    10.4101    65.1004     8.1100     1.2297     1.2732     1.3122    34.4178     2.4624    21.9178    -0.1234
 2192.0970    10.4423    65.5737     8.2626     1.2122     1.2548     1.3696    34.4626     2.4554    20.4870    -0.1207
 2192.2500    10.4743    65.1211     8.2599     1.1949     1.2279     1.3123    34.3206     2.4523    21.3972    -0.1314
 2192.4020    10.4139    65.3629     8.2577     1.1779     1.2102     1.2307    33.9467     2.4375    20.8974    -0.1433
 2192.5540    10.3533    66.7621     8.4098     1.1779     1.2012     1.2663    33.5252     2.4508    22.5204    -0.1203
 2192.7070    10.3389    66.7724     8.4079     1.1779     1.1924     1.2754    32.9670     2.4773    22.0166    -0.1122
 2192.8590    10.2788    65.8542     8.5601     1.1779     1.2007     1.2574    32.0813     2.5046    19.8975    -0.0763
 2193.0120    10.2644    65.6336     8.5576     1.1779     1.2176     1.2755    31.8473     2.5272    17.4677    -0.0797
 2193.1640    10.2503    66.8034     8.5555     1.1779     1.2087     1.3125    32.3100     2.5092    31.2477    -0.1079
 2193.3160    10.2519    67.7396     8.5535     1.1779     1.2171     1.3409    32.9605     2.4866    20.7489    -0.1228
 2193.4690    10.2685    67.7499     8.5513     1.1779     1.2167     1.3409    33.5606     2.4835    16.2267    -0.1272
 2193.6210    10.2852    66.6029     8.5486     1.1695     1.2164     1.3032    33.9768     2.5022    17.4495    -0.1140
 2193.7740    10.2865    68.0021     7.9292     1.1695     1.2074     1.2940    33.0452     2.4687    17.2733    -0.1466
 2193.9260    10.3185    68.2418     7.9275     1.1695     1.1985     1.3799    32.7642     2.4780    17.5826    -0.1365
 2194.0780    10.2887    66.1678     8.0800     1.1695     1.1897     1.3507    33.1821     2.4975    22.8418    -0.1293
 2194.2310    10.2132    65.2532     8.0773     1.1695     1.1809     1.3998    33.6900     2.4695    17.5386    -0.1405
 2194.3830    10.2453    65.0294     8.0751     1.1695     1.1806     1.4098    33.4550     2.4757    16.3675    -0.1432
 2194.5360    10.2774    64.3479     8.0729     1.1695     1.1803     1.3899    33.3600     2.4562    17.8560    -0.1327
 2194.6880    10.1862    63.4322     8.0707     1.1611     1.1801     1.4200    33.8692     2.4414    17.9851    -0.1476
 2194.8400    10.1564    62.2838     8.0685     1.1695     1.1714     1.3899    34.4722     2.4555    17.9459    -0.1682
 2194.9930    10.1731    61.6011     8.0662     1.1695     1.1711     1.3223    34.9804     2.4804    19.3630    -0.1241
