~VERSION INFORMATION
 VERS.               1.20:   CWLS LOG ASCII STANDARD - VERSION 1.20
 WRAP.                 NO:   ONE LINE PER DEPTH STEP
~WELL INFORMATION
#MNEM.UNIT      DATA TYPE    INFORMATION
#----------   ------------   ------------------------------
 STRT.M          630.6096:   START DEPTH
 STOP.M         3133.6272:   STOP DEPTH
 STEP.M            0.1524:   STEP LENGTH
 NULL.          -999.2500:   NO VALUE
 COMP.            COMPANY:   PERTAMINA
 WELL.               WELL:   CMS-004
 WBN .            CMS-004:   WELLBORE
 FLD .              FIELD:   CEMARA SELATAN
 LOC .           LOCATION:   X = + 149636.27  Y = - 719813.7
 PROV.           PROVINCE:   JAWA BARAT
 STAT.              STATE:   INDONESIA
 SRVC.    SERVICE COMPANY:   SCHLUMBERGER
 DATE.            LOGDATE:   11/24/77
 APIN.         API NUMBER:   -
 UWI .  CEMARASELATAN-004:   UNIQUE WELL ID 
~CURVE INFORMATION
#MNEM.UNIT       API CODE    CURVE DESCRIPTION
#----------   ------------   ------------------------------
 DEPT.M                  :
 CALI.inch   60 280 00 00:   Caliper
 GR  .GAPI   60 310 00 00:   Gamma Ray
 SP  .mV     60 010 01 00:   Spontaneous Potential
 ILD .ohmm   05 070 46 00:   Induction Laterolog, Deep
 SN  .ohmm   05 040 16 00:   Short Normal 16"
 NPHI.%      42 890 03 00:   Neu. Porosity, Ss [%]
 RHOB.kg/cm3 42 350 01 00:   Bulk Density
 DRHO.g/cc   42 356 01 00:   Density Correction
 PROX.ohmm   21 270 30 00:   Proximity Log
~PARAMETER INFORMATION
#MNEM.UNIT          VALUE    DESCRIPTION
#----------   ------------   ------------------------------
 EKB .M            0.0000:   Kelly bushing
 EGL .M            0.0000:   Ground level
 EDF .M           10.0000:   Drilling floor
 EPD .M           10.0000:   Permanent datum
 TD  .M         3129.0000:   Total depth
 DF  .      CONGLONGMERAT:   Deepest formation
 PROJ.       SCHLUMBERGER:   Project
 DATE.           11/24/77:   Date logged
 SRFX.M       185028.4000:   Surface X position
 SRFY.M      9281121.0000:   Surface Y position
 STUS.                  3:   1-18 API codes
 SLAT.DECIMAL DE  -6.4963:   Surface Latitude
 SLNG.DECIMAL DE 108.1521:   Surface Longitude
 BLAT.DECIMAL DE   0.0000:   Bottom Latitude
 BLNG.DECIMAL DE   0.0000:   Bottom Longitude
 SCTN.                  0:   Section Number
 NSFT.F            0.0000:   N-S Footage
 EWFT.F            0.0000:   E-F Footage
 BHT .Degf            100:   Bottom Hole Temperature
 MRT .Degf            100:   Max Recorded Temperature
 MST .Degf             87:   Mud Temperature
 RM  .Ohmm            3.0:   Mud Resistivity
 RMB .Degf  2.7 ohmm @100:   Mud BHT Resistivity
 RMC .Ohmm           4.72:   Mud Cake Resistivity
 RMF .Ohmm           1.93:   Mud Filtrate Resistivity
 DFD .G/c3           1.05:   Drilling Fluid Density
 DFV .Sec              43:   Drilling Fluid Viscosity
 DFPH.                  9:   Drilling Fluid pH
 DFL .Ml               14:   Drilling Fluid Loss
 DD  .Mtr          3129.0:   Depth driller
 DL  .Mtr          3129.8:   Depth logger
 BLI .Mtr          3129.5:   Bottom log interval
 TLI .Mtr            2767:   Top log interval
 CSS .Inch          9 5/8:   Casing size
 CTD1.Mtr   9 5/8" @ 1300:   Casing driller 1
 CTL1.Mtr          1299.7:   Casing logger 1
 BS  .Inch          8 5/8:   Bit size
 DFT . Bentonite / Q.Broxin:   Type fluid in hole
 WSS .           Flowline:   Source of sample
 EMT .Degf 0.48 ohmm @ 95:   Rm Meas. temp.
 MFT .Degf 0.31 ohmm @ 80:   Rmf Meas. temp.
 MCST.Degf 0.66 ohmm @ 26:   Rmc Meas. temp.
 MFSS.              Press:   Source Rmf.
 MCSS.              Press:   Source Rmc.
 TCS .HRS              12:   Time Circ. stopped
 LUN .               RS18:   Logging unit number
 LUL .                WJV:   Logging unit location
 ENGI.            M.Akbar:   Recorded By
 WITN.  Wardoyo / Sugipto:   Witnessed by
 RE1 .        ILD (6FF40):   Res. Electrode #1
 RE2 .      SN  (A-16" M):   Res. Electrode #2
 TLAB.Hrs              12:   Time logger at bottom
 DATE.           12/02/77:   Date logged
 DATE.           12/13/77:   Date logged
 DATE.           01/10/77:   Date logged
 DATE.           01/28/78:   Date logged
 BHT .Degf            110:   Bottom Hole Temperature
 BHT .Degf            155:   Bottom Hole Temperature
 BHT .Degf            250:   Bottom Hole Temperature
 BHT .Degf            270:   Bottom Hole Temperature
 MRT .Degf            110:   Max Recorded Temperature
 MRT .Degf            155:   Max Recorded Temperature
 MRT .Degf            250:   Max Recorded Temperature
 MRT .Degf            270:   Max Recorded Temperature
 MST .Degf             80:   Mud Temperature
 MST .Degf             85:   Mud Temperature
 MST .Degf             85:   Mud Temperature
 MST .Degf             95:   Mud Temperature
 RM  .Ohmm           2.05:   Mud Resistivity
 RM  .Ohmm           1.51:   Mud Resistivity
 RM  .Ohmm           0.71:   Mud Resistivity
 RM  .Ohmm           0.48:   Mud Resistivity
 RMB .Degf 1.6 ohmm @ 110:   Mud BHT Resistivity
 RMB .Degf 0.9 ohmm @ 155:   Mud BHT Resistivity
 RMB .Degf 0.24 ohmm @ 250:   Mud BHT Resistivity
 RMB .Degf 0.16 ohmm @ 270:   Mud BHT Resistivity
 RMC .Ohmm           2.12:   Mud Cake Resistivity
 RMC .Ohmm           1.62:   Mud Cake Resistivity
 RMC .Ohmm           1.11:   Mud Cake Resistivity
 RMC .Ohmm 0.66 ohmm @ 26:   Mud Cake Resistivity
 RMF .Ohmm           1.91:   Mud Filtrate Resistivity
 RMF .Ohmm           1.36:   Mud Filtrate Resistivity
 RMF .Ohmm           0.46:   Mud Filtrate Resistivity
 RMF .Ohmm 0.31 ohmm @ 80:   Mud Filtrate Resistivity
 DFD .G/c3           1.15:   Drilling Fluid Density
 DFD .G/c3           1.14:   Drilling Fluid Density
 DFD .G/c3           1.17:   Drilling Fluid Density
 DFD .G/c3           1.23:   Drilling Fluid Density
 DFV .Sec              42:   Drilling Fluid Viscosity
 DFV .Sec              55:   Drilling Fluid Viscosity
 DFV .Sec              65:   Drilling Fluid Viscosity
 DFV .Sec              65:   Drilling Fluid Viscosity
 DFPH.                  9:   Drilling Fluid pH
 DFPH.                  9:   Drilling Fluid pH
 DFPH.                9.5:   Drilling Fluid pH
 DFPH.                9.5:   Drilling Fluid pH
 DFL .Ml               10:   Drilling Fluid Loss
 DFL .Ml              6.5:   Drilling Fluid Loss
 DFL .Ml                5:   Drilling Fluid Loss
 DFL .Ml                5:   Drilling Fluid Loss
 DD  .Mtr             255:   Depth driller
 DD  .Mtr             635:   Depth driller
 DD  .Mtr            1305:   Depth driller
 DD  .Mtr            2798:   Depth driller
 DL  .Mtr             255:   Depth logger
 DL  .Mtr             635:   Depth logger
 DL  .Mtr            1303:   Depth logger
 DL  .Mtr          2799.3:   Depth logger
 BLI .Mtr           254.7:   Bottom log interval
 BLI .Mtr           634.7:   Bottom log interval
 BLI .Mtr            1302:   Bottom log interval
 BLI .Mtr          2799.0:   Bottom log interval
 TLI .Mtr            30.0:   Top log interval
 TLI .Mtr           259.3:   Top log interval
 TLI .Mtr           630.5:   Top log interval
 TLI .Mtr          1299.7:   Top log interval
 CSS .Inch             30:   Casing size
 CSS .Inch             20:   Casing size
 CSS .Inch         12 1/4:   Casing size
 CSS .Inch          9 5/8:   Casing size
 CTD1.Mtr              30:   Casing driller 1
 CTD1.Mtr           259.1:   Casing driller 1
 CTD1.Mtr             630:   Casing driller 1
 CTD1.Mtr            1300:   Casing driller 1
 CTL1.Mtr              30:   Casing logger 1
 CTL1.Mtr           250.5:   Casing logger 1
 CTL1.Mtr           630.5:   Casing logger 1
 CTL1.Mtr          1299.7:   Casing logger 1
 BS  .Inch          9 7/8:   Bit size
 BS  .Inch          9 7/8:   Bit size
 BS  .Inch             12:   Bit size
 BS  .Inch          8 5/8:   Bit size
 DFT .          bentonite:   Type fluid in hole
 DFT .          bentonite:   Type fluid in hole
 DFT .          bentonite:   Type fluid in hole
 DFT .          bentonite:   Type fluid in hole
 WSS .           flowline:   Source of sample
 WSS .           flowline:   Source of sample
 WSS .           flowline:   Source of sample
 WSS .           flowline:   Source of sample
 EMT .Degf  3.0 ohmm @ 87:   Rm Meas. temp.
 EMT .Degf 2.05 ohmm @ 80:   Rm Meas. temp.
 EMT .Degf 1.51 ohmm @ 85:   Rm Meas. temp.
 EMT .Degf 0.71 ohmm @ 85:   Rm Meas. temp.
 MFT .Degf 2.72 ohmm @ 87:   Rmf Meas. temp.
 MFT .Degf 1.91 ohmm @ 80:   Rmf Meas. temp.
 MFT .Degf 1.36 ohmm @ 85:   Rmf Meas. temp.
 MFT .Degf 0.46 ohmm @ 85:   Rmf Meas. temp.
 MCST.Degf 1.93 ohmm @ 87:   Rmc Meas. temp.
 MCST.Degf 2.12 ohmm @ 80:   Rmc Meas. temp.
 MCST.Degf 1.62 ohmm @ 85:   Rmc Meas. temp.
 MCST.Degf 1.11 ohmm @ 85:   Rmc Meas. temp.
 MFSS.                  p:   Source Rmf.
 MFSS.                  p:   Source Rmf.
 MFSS.                  p:   Source Rmf.
 MFSS.                  p:   Source Rmf.
 MCSS.                  p:   Source Rmc.
 MCSS.                  p:   Source Rmc.
 MCSS.                  p:   Source Rmc.
 MCSS.                  p:   Source Rmc.
 TCS .HRS             1.5:   Time Circ. stopped
 TCS .HRS               3:   Time Circ. stopped
 TCS .HRS               4:   Time Circ. stopped
 TCS .HRS               7:   Time Circ. stopped
 LUN .               4618:   Logging unit number
 LUN .               4618:   Logging unit number
 LUN .               4618:   Logging unit number
 LUL .                mjv:   Logging unit location
 LUL .                mjv:   Logging unit location
 LUL .                mjv:   Logging unit location
 LUL .                mjv:   Logging unit location
 WITN.            Sukarna:   Witnessed by
 RE1 .                ILD:   Res. Electrode #1
 RE1 .                ILD:   Res. Electrode #1
 RE1 .                ILD:   Res. Electrode #1
 RE1 .                ILD:   Res. Electrode #1
 RE2 .                 SN:   Res. Electrode #2
 RE2 .                 SN:   Res. Electrode #2
 RE2 .                 SN:   Res. Electrode #2
 RE2 .                 SN:   Res. Electrode #2
 TLAB.Hrs             1.5:   Time logger at bottom
 TLAB.Hrs               3:   Time logger at bottom
 TLAB.Hrs               4:   Time logger at bottom
 TLAB.Hrs               7:   Time logger at bottom
 DGBY.            Sukarna:   Digitized By
 DGBY.            Sukarna:   Digitized By
 DGBY.            Sukarna:   Digitized By
 DGBY.            Sukarna:   Digitized By
 DGBY.            Sukarna:   Digitized By
~A  DEPTH     CALI         GR         SP        ILD         SN       NPHI       RHOB       DRHO       PROX
# ...
 2877.9000     8.5922    61.8088    21.5041     5.7461     6.1222     7.3914     2.4321     0.0671     7.3416
 2878.0520     8.5508    62.5845    21.3453     5.8158     6.3207     6.8778     2.4171     0.0324     7.6357
 2878.2050     8.6873    63.3948    21.1519     5.9339     6.4947     6.2875     2.4038     0.0086    10.5225
 2878.3570     8.8281    64.3910    21.0337     6.2536     6.4717     5.5165     2.4042     0.0007     9.3795
 2878.5100     8.9227    64.5661    21.0306     6.4415     6.6758     5.3505     2.3926    -0.0017     7.7234
 2878.6620     9.0496    62.7483    21.0274     6.8517     6.9286     5.9859     2.3836     0.0016     7.1490
 2878.8140     9.0771    61.1338    21.3633     6.9776     7.1006     6.4193     2.3718     0.0073     6.1837
 2878.9670     8.9568    59.1915    21.4827     7.3214     7.3260     7.2612     2.3804     0.0153    11.2833
 2879.1190     8.8191    57.0320    21.4796     7.7183     7.4568     7.7376     2.3773     0.0188    19.0085
 2879.2710     8.7425    53.6741    21.6301     8.1370     7.5732     8.3127     2.3607    -0.0018    22.1268
 2879.4240     8.8779    51.4960    21.6272     8.4049     7.6098     9.1004     2.3649     0.0050    11.6676
 2879.5760     9.1001    48.4703    21.5637     8.7368     7.3917    10.8197     2.3739    -0.0132    11.3826
 2879.7290     9.2986    39.5087    21.4671     8.9899     7.3226    13.2276     2.4062    -0.0017    12.4693
 2879.8810     9.4948    32.4481    21.4636     9.0510     7.1994    15.7024     2.4238    -0.0102    18.4485
 2880.0340     9.7548    29.2940    21.6311     9.0451     7.0173    19.8041     2.4526    -0.0073    20.8645
 2880.1860     9.5403    27.6094    21.8185     9.0413     6.8275    24.2499     2.4915     0.0036    11.8724
 2880.3380     9.3831    27.6360    22.0057     8.8180     6.8746    26.2640     2.5163     0.0052     7.1780
 2880.4910     9.3659    28.2538    22.0669     8.6377     6.9147    27.2154     2.5332     0.0154     8.8053
 2880.6430     9.3668    29.0305    22.0724     8.5102     6.9131    27.3310     2.5350     0.0263     8.7392
 2880.7960     9.3529    29.8079    22.2144     8.1738     6.7270    27.4818     2.5290     0.0316     8.0686
 2880.9480     9.3376    30.5268    22.2113     7.8458     6.6220    27.7451     2.5076     0.0040     9.0348
 2881.1000     9.3285    31.0577    22.0538     7.5367     6.5274    26.9383     2.4908     0.0005     9.1163
 2881.2530     9.2501    32.5207    21.8961     7.3738     6.3770    25.7564     2.5130     0.0207     8.4841
 2881.4050     9.3236    34.4480    21.7404     7.2423     6.2874    24.8895     2.4976     0.0447     8.9084
 2881.5580     9.5284    36.7121    21.7373     7.1690     6.1086    24.2082     2.4576     0.0104     9.7339
 2881.7100     9.7306    38.7743    21.8453     7.1946     6.0514    23.8431     2.4406     0.0330     9.2222
 2881.8620     9.5050    41.5975    21.8849     7.5682     6.0237    22.4360     2.4383     0.0820    23.7257
 2882.0150     8.9830    44.5951    22.0361     7.6773     6.0260    20.9672     2.4317     0.1269    22.1534
 2882.1670     9.0304    48.9126    22.0325     7.7893     5.9990    18.5563     2.4325     0.1919     7.6489
 2882.3200     9.2115    51.1042    22.0293     7.8688     5.9733    17.5822     2.4018     0.1415     5.0461
 2882.4720     9.2690    52.5457    22.1798     7.9551     5.9182    16.6800     2.3772     0.0679     4.9747
 2882.6250     9.1334    50.4460    22.1997     7.6993     5.8519    15.8329     2.4128     0.0806     5.1386
 2882.7770     9.0032    48.2212    22.3277     7.3902     5.9281    14.4326     2.4446     0.0918     4.3711
 2882.9290     9.1439    46.9577    22.2284     7.0563     5.9807    13.0508     2.4100     0.0743     4.9845
 2883.0820     9.3584    46.6338    22.1672     6.8694     5.7774    11.5933     2.3536     0.1032     6.4295
 2883.2340     9.2454    48.6797    22.0106     6.5717     5.6690    11.4176     2.3181     0.0616    10.0750
 2883.3860     9.0782    50.1000    22.0075     6.4193     5.5255    11.6804     2.3329     0.0557    14.3681
 2883.5390     8.9597    55.3323    22.0043     6.3096     5.4727    11.6226     2.3339     0.0569    12.0096
 2883.6910     8.8443    58.9684    21.8469     6.1507     5.4234    11.0854     2.3402     0.0337     8.4480
 2883.8440     8.8177    55.9744    21.8442     5.9747     5.3161    10.5496     2.3578     0.0508    10.0685
 2883.9960     8.8983    58.8435    21.8411     5.7666     5.2352    10.2507     2.3416     0.0630     9.5511
 2884.1480     9.1118    61.7230    21.9191     5.5764     5.1502     9.6857     2.3528     0.0870     9.3029
 2884.3010     9.2658    59.9546    21.9887     5.5079     5.1001     8.7816     2.3799     0.1107     9.1881
 2884.4530     9.3338    59.0064    21.9856     5.4710     5.0907     8.6330     2.3682     0.0940     7.9796
 2884.6060     9.3605    57.2123    22.0196     5.4383     5.0533     9.0358     2.3512     0.0779     7.0782
 2884.7580     9.3661    54.1505    22.2068     5.5003     4.9743     9.2296     2.3430     0.0644     7.3396
 2884.9100     9.3699    53.1013    22.1737     5.6329     4.7848     8.8446     2.3411     0.0542    11.6964
 2885.0630     9.3940    56.6402    22.1268     5.9206     4.5885     8.4565     2.3260     0.0170    11.2103
 2885.2150     9.4307    59.4408    22.4609     6.2040     4.4592     8.0015     2.3428     0.0124    13.0512
 2885.3680     9.5031    64.4844    22.6483     6.9882     4.2828     7.3708     2.3678     0.0279     7.7987
 2885.5200     9.6368    67.5482    22.8358     7.5583     4.1435     8.4049     2.3324     0.0225     9.4147
 2885.6720     9.8947    69.6949    23.1911     8.2363     3.9193    10.7542     2.2870     0.0374    16.8103
 2885.8250    10.3756    77.7930    23.3862     7.8512     3.7571    14.0363     2.2700     0.0874    13.0428
 2885.9770    11.0374    85.0021    23.7054     7.1155     3.5496    19.4585     2.2947     0.1860    16.3137
 2886.1300    11.8480    88.5471    23.8926     6.4322     3.3635    23.4505     2.2597     0.2041    20.4004
 2886.2820    10.8146    92.5031    24.1015     5.4308     2.9466    26.2899     2.2125     0.1352    17.2868
 2886.4340    10.2588    92.8573    24.2529     4.7661     2.7080    26.5947     2.3215     0.1066     5.8312
 2886.5870     9.7162    90.7455    24.2495     4.3507     2.5239    26.4926     2.3672     0.1009     2.4598
 2886.7390     9.7619    89.1514    24.2464     4.0612     2.4621    26.0365     2.3295     0.0226     1.5260
 2886.8920     9.8273    87.7502    24.2428     3.8551     2.3490    25.4377     2.3371     0.0104     1.2065
 2887.0440     9.8727    81.9256    24.0863     3.6927     2.2628    24.5444     2.3496     0.0193     1.6043
 2887.1960     9.9295    78.1476    24.0397     3.4292     2.1844    23.6542     2.3216     0.0113     1.3976
 2887.3490     9.9780    76.2520    23.8460     3.2025     2.1478    23.0046     2.2960    -0.0076     1.4768
 2887.5010    10.0525    72.0688    23.6148     3.1158     2.1600    22.1890     2.2876    -0.0012     2.0136
 2887.6540    10.1318    70.6939    23.4584     3.1900     2.2133    21.6954     2.2829    -0.0029     1.8135
 2887.8060    10.1538    72.3205    23.2653     3.2968     2.2599    21.3305     2.2910     0.0141     1.9924
 2887.9580    10.1653    76.9452    23.1444     3.3446     2.3300    20.6969     2.3064    -0.0138     1.8323
 2888.1110    10.1830    79.2088    23.1413     3.2075     2.3607    20.1101     2.3186    -0.0060     1.9763
 2888.2630    10.2084    82.6835    23.1381     3.0877     2.3684    19.2650     2.3318     0.0047     2.0648
 2888.4160    10.2316    84.3327    23.1351     2.9919     2.3692    19.4164     2.3494     0.0243     2.0769
 2888.5680    10.2931    86.4430    23.1974     2.8588     2.3674    19.7334     2.3369     0.0076     2.2654
 2888.7200    10.3272    86.9664    23.3846     2.7829     2.3359    19.3374     2.3374     0.0163     2.1528
 2888.8730    10.3547    88.9018    23.5870     2.7179     2.3273    19.0139     2.3461     0.0079     2.1867
