~VERSION INFORMATION
 VERS.               1.20:   CWLS LOG ASCII STANDARD - VERSION 1.20
 WRAP.                 NO:   ONE LINE PER DEPTH STEP
~WELL INFORMATION
#MNEM.UNIT      DATA TYPE    INFORMATION
#----------   ------------   ------------------------------
 STRT.M          500.1524:   START DEPTH
 STOP.M         2803.2212:   STOP DEPTH
 STEP.M            0.1524:   STEP LENGTH
 NULL.          -999.2500:   NO VALUE
 COMP.            COMPANY:   PERTAMINA
 WELL.               WELL:   CMS-005
 WBN .            CMS-005:   WELLBORE
 FLD .              FIELD:   CEMARA SELATAN
 LOC .           LOCATION:   X = - 15283.31  Y = + 8483.38
 PROV.           PROVINCE:   JAWA BARAT
 STAT.              STATE:   INDONESIA
 SRVC.    SERVICE COMPANY:   SCHLUMBERGER
 DATE.            LOGDATE:   01/24/78
 APIN.         API NUMBER:   -
 UWI .  CEMARASELATAN-005:   UNIQUE WELL ID 
~CURVE INFORMATION
#MNEM.UNIT       API CODE    CURVE DESCRIPTION
#----------   ------------   ------------------------------
 DEPT.M                  :
 CALI.inch   60 280 00 00:   Caliper
 GR  .GAPI   42 310 00 00:   Gamma Ray
 SP  .mV     60 010 01 00:   Spontaneous Potential
 ILD .ohmm   05 070 46 00:   Induction Laterolog, Deep
 SN  .ohmm   05 040 16 00:   Short Normal 16"
 PROX.ohmm   21 270 30 00:   Proximity Log
 NPHI.%      42 890 03 00:   Neu. Porosity, Ss [%]
 RHOB.kg/cm3 42 350 01 00:   Bulk Density
 CBL .mV     81 524 00 00:   Cement Bond Log
 DRHO.kg/m3  42 356 01 00:   Density Correction
~PARAMETER INFORMATION
#MNEM.UNIT          VALUE    DESCRIPTION
#----------   ------------   ------------------------------
 EKB .M            0.0000:   Kelly bushing
 EGL .M            4.7500:   Ground level
 EDF .M           10.0000:   Drilling floor
 EPD .M           10.0000:   Permanent datum
 TD  .M         2793.0000:   Total depth
 DF  .      CONGLONGMERAT:   Deepest formation
 PROJ.       SCHLUMBERGER:   Project
 DATE.           01/24/78:   Date logged
 DD  .Mtr            2793:   Depth driller
 DL  .Mtr          2762.3:   Depth logger
 BLI .Mtr            2762:   Bottom log interval
 TLI .Mtr             500:   Top log interval
 CSS .Inch             7":   Casing size
 CTD1.Mtr     7" @ 2581,7:   Casing driller 1
 CTL1.Mtr          2581,7:   Casing logger 1
 BS  .Inch          6 1/8:   Bit size
 DFT .           Spersene:   Type fluid in hole
 DFD .G/c3           1.18:   Density
 DFV .Sec              58:   Viscosity
 COL .Inch           6-16:   Column depth/dia.
 DFPH.                 10:   pH
 DFL .Ml             2.75:   Fluid loss
 WSS .           Flowline:   Source of sample
 RM  .Ohmm           1.07:   Rm
 EMT .Degf 1.07 ohmm @ 83:   Rm Meas. temp.
 RMF .Ohmm           0.57:   Rmf
 MFT .Degf 0.57 ohmm @ 83:   Rmf Meas. temp.
 RMC .Ohmm           1.78:   Rmc
 MCST.Degf 1.78 ohmm @ 83:   Rmc Meas. temp.
 MFSS.              Press:   Source Rmf.
 MCSS.              Press:   Source Rmc.
 RMB .Degf 0.4 ohmm @ 232:   Rm. at BHT
 BHT .Degf            232:   BHT.
 TCS .Hrs               7:   Time Circ. stopped
 MRT .Degf            232:   Maximum recorded temp.
 LUN .               4618:   Logging unit number
 LUL .                WJV:   Logging unit location
 ENGI.           M. Akbar:   Recorded By
 WITN.           M.Dasuki:   Witnessed by
 RE1 .       ILD  (6FF40):   Res. Electrode #1
 RE2 .      SN   (A-16"M):   Res. Electrode #2
 DATE.           02/16/78:   Date logged
 DATE.           03/13/78:   Date logged
 DD  .Mtr            1260:   Depth driller
 DD  .Mtr            2610:   Depth driller
 DL  .Mtr            1260:   Depth logger
 DL  .Mtr            2610:   Depth logger
 BLI .Mtr            1260:   Bottom log interval
 BLI .Mtr          2605.8:   Bottom log interval
 TLI .Mtr             500:   Top log interval
 TLI .Mtr          1254.5:   Top log interval
 CSS .Inch         13 3/8:   Casing size
 CSS .Inch          9 5/8:   Casing size
 CTD1.Mtr             500:   Casing driller 1
 CTD1.Mtr            1254:   Casing driller 1
 CTL1.Mtr             500:   Casing logger 1
 CTL1.Mtr          1254.5:   Casing logger 1
 BS  .Inch         12 1/4:   Bit size
 BS  .Inch          8 5/8:   Bit size
 DFT .           spersene:   Type fluid in hole
 DFT .           spersene:   Type fluid in hole
 DFD .G/c3           1.12:   Density
 DFD .G/c3           1.18:   Density
 DFV .Sec              47:   Viscosity
 DFV .Sec              58:   Viscosity
 DFPH.                  9:   pH
 DFPH.                 10:   pH
 DFL .Ml              5.5:   Fluid loss
 DFL .Ml             2.75:   Fluid loss
 WSS .           flowline:   Source of sample
 WSS .           flowline:   Source of sample
 RM  .Ohmm           1.19:   Rm
 RM  .Ohmm           1.07:   Rm
 EMT .Degf             80:   Rm Meas. temp.
 EMT .Degf             83:   Rm Meas. temp.
 RMF .Ohmm            0.8:   Rmf
 RMF .Ohmm           0.57:   Rmf
 MFT .Degf             80:   Rmf Meas. temp.
 MFT .Degf             83:   Rmf Meas. temp.
 RMC .Ohmm           1.52:   Rmc
 RMC .Ohmm           1.78:   Rmc
 MCST.Degf             80:   Rmc Meas. temp.
 MCST.Degf             83:   Rmc Meas. temp.
 MFSS.                  p:   Source Rmf.
 MFSS.                  p:   Source Rmf.
 MCSS.                  p:   Source Rmc.
 MCSS.                  p:   Source Rmc.
 RMB .Degf 0.63 ohmm @ 150:   Rm. at BHT
 RMB .Degf 0.4 ohmm @ 232:   Rm. at BHT
 BHT .Degf            150:   BHT.
 BHT .Degf            232:   BHT.
 TCS .Hrs               3:   Time Circ. stopped
 TCS .Hrs               7:   Time Circ. stopped
 MRT .Degf            150:   Maximum recorded temp.
 MRT .Degf            232:   Maximum recorded temp.
 LUN .               4618:   Logging unit number
 LUN .               4618:   Logging unit number
 LUL .                wjv:   Logging unit location
 LUL .                wjv:   Logging unit location
 ENGI.           M. Akbar:   Recorded By
 ENGI.           M. Akbar:   Recorded By
 WITN.            Y. Rais:   Witnessed by
 WITN.          M. Dasuki:   Witnessed by
 RE1 .                ILD:   Res. Electrode #1
 RE1 .                ILD:   Res. Electrode #1
 RE2 .                 SN:   Res. Electrode #2
 RE2 .                 SN:   Res. Electrode #2
 TLAB.hh:mm             3:   Time Logger At Bottom
 TLAB.hh:mm             7:   Time Logger At Bottom
 TLAB.hh:mm             7:   Time Logger At Bottom
 DGBY.            Sukarna:   Digitized By
 DGBY.            Sukarna:   Digitized By
 DGBY.            Sukarna:   Digitized By
~T 1 Tops
D1(1453-1455)                    1453.0
~OTHER INFORMATION
# Bridleless tool, Log was correlated with cs. run no.3 4M too deep compared with run.2
~A  DEPTH     CALI         GR         SP        ILD         SN       PROX       NPHI       RHOB        CBL       DRHO
# ...
 2787.3720     6.7007   108.1701     9.7753     4.7766     6.4107     2.4057    27.8803     2.3899  -999.2500    -0.2000
 2787.5240     6.6543   107.4955     8.9942     4.5047     6.4590     2.3196    22.3680     2.3609  -999.2500    -0.1830
 2787.6770     6.4528   107.2791     7.9026     4.3754     6.4132     2.5668    20.3543     2.3068  -999.2500    -0.1922
 2787.8290     6.1270   107.5313     6.8104     4.3452     6.3218     2.0199    19.1527     2.3190  -999.2500    -0.1851
 2787.9810     5.9565   106.7167     5.8741     4.2520     5.8346     1.9618    18.1905     2.3344  -999.2500    -0.1819
 2788.1340     6.0189   105.5372     6.0284     4.0700     5.3084     2.1709    18.1382     2.3102  -999.2500    -0.2023
 2788.2860     6.1434   103.1973     6.3381     3.8664     4.8638     2.0930    17.8458     2.3191  -999.2500    -0.2085
 2788.4380     6.2058    99.2950     6.1768     3.7556     4.2034     2.5823    17.0735     2.3236  -999.2500    -0.2032
 2788.5910     6.2526    99.3128     4.9323     3.7027     3.7970     2.2169    16.2094     2.3459  -999.2500    -0.1992
 2788.7430     6.2684   100.2537     4.1506     3.5963     3.5822     1.8616    15.8219     2.3394  -999.2500    -0.2031
 2788.8960     6.2687   100.2716     3.5268     3.3671     3.4546     1.4870    15.8662     2.3419  -999.2500    -0.1954
 2789.0480     6.2689   100.0551     2.9020     3.1521     3.2594     1.4441    16.1961     2.3290  -999.2500    -0.1984
 2789.2000     6.2535   101.2507     3.0577     2.8225     3.1431     1.3625    16.4789     2.3062  -999.2500    -0.2100
 2789.3530     6.2228   101.9369     3.5221     2.6232     3.0757     1.7430    16.4266     2.2129  -999.2500    -0.2127
 2789.5050     6.2698   101.7204     3.5164     2.4919     3.0535     1.7940    16.4702     2.1548  -999.2500    -0.2101
 2789.6580     6.3010   103.8188     1.8048     2.4386     2.8191     1.5626    16.5622     2.1420  -999.2500    -0.2189
 2789.8100     6.3479   104.2946     1.9588     2.4399     2.7187     1.5286    16.3662     2.1509  -999.2500    -0.2143
 2789.9620     6.3949   102.2391     2.4243     2.4227     2.7397     1.2842    16.6493     2.1590  -999.2500    -0.2086
 2790.1150     6.4571   103.6415     2.2667     2.4061     2.8834     1.3507    16.9798     2.1615  -999.2500    -0.2108
 2790.2670     6.4574   100.4286     1.7976     2.3545     3.0131     1.3021    16.9266     2.1543  -999.2500    -0.2124
 2790.4200     6.4577   101.3695     1.7958     2.3382     3.0803     1.0398    17.1746     2.1317  -999.2500    -0.2131
 2790.5720     6.4735   101.1566     2.2617     2.3395     3.1493     1.1423    17.3495     2.1067  -999.2500    -0.2139
 2790.7240     6.4737   101.1744     2.4156     2.4107     3.2673     1.7519    17.1044     2.1035  -999.2500    -0.2140
 2790.8770     6.4585   101.1923     2.2577     2.4297     3.4140     1.4400    16.9575     2.1157  -999.2500    -0.2079
 2791.0290     6.4743   102.1348     2.1001     2.4128     3.4650     1.6527    17.0976     2.1545  -999.2500    -0.1906
 2791.1820     6.5249   103.7664     2.2541     2.3609     3.4911     2.0685    17.1402     2.1674  -999.2500    -0.1840
 2791.3340     6.5835   104.7074     2.2523     2.2933     3.4412     1.9233    17.0399     2.2006  -999.2500    -0.1777
 2791.4860     6.5993   104.2584     2.4066     2.3116     3.1989     2.8037    17.1798     2.2208  -999.2500    -0.2007
 2791.6390     6.5840   101.7430     2.2487     2.3297     2.8270     2.2878    17.5107     2.1974  -999.2500    -0.2117
 2791.7910     6.5843    99.9142     1.6239     2.2797     2.7461     2.1113    17.5542     2.2120  -999.2500    -0.2096
 2791.9440     6.5773    99.4639     1.6221     2.2143     2.6872     1.6986    17.0700     2.2258  -999.2500    -0.1993
 2792.0960     6.5383   101.7930     1.7764     2.1352     2.5725     1.7996    16.6823     2.2323  -999.2500    -0.1962
 2792.2480     6.5386   101.3477     1.7738     2.1047     2.4271     1.5676    16.2942     2.2364  -999.2500    -0.1953
 2792.4010     6.5388   100.6713     1.6170     2.1056     2.3751     1.5902    16.0031     2.2469  -999.2500    -0.1867
 2792.5530     6.5236   102.0790     1.6152     2.1066     2.3931     1.6488    15.9038     2.2574  -999.2500    -0.1793
 2792.7060     6.5238   103.2490     1.7696     2.0919     2.3589     1.9191    16.4730     2.2470  -999.2500    -0.1926
 2792.8580     6.4775   104.4207     2.0794     2.0930     2.2913     1.7974    16.3248     2.2341  -999.2500    -0.2007
 2793.0100     6.4778   103.5096     2.2333     2.0940     1.9952     1.7455    16.1289     2.2140  -999.2500    -0.1990
 2793.1630     6.4625   101.2256     1.7638     2.0640     2.0399     1.7076    16.1724     2.1955  -999.2500    -0.1984
 2793.3150     6.4628   100.5476     0.9824     2.0652     1.9960     1.7069    16.7428     2.1882  -999.2500    -0.2040
 2793.4680     6.4631   100.5690     0.5141     2.0661     1.9110     1.7062    16.9305     2.1721  -999.2500    -0.2063
 2793.6200     6.4789   101.5099     0.5123     2.0978     1.8030     1.7055    16.8161     2.1552  -999.2500    -0.2033
 2793.7720     6.4792   101.9932     0.3547     2.0987     1.6762     1.7048    16.4897     2.1375  -999.2500    -0.2052
 2793.9250     6.4639   103.3917     0.5091     2.0537     1.5702     1.7041    16.5810     2.1440  -999.2500    -0.2164
 2794.0770     6.4797   106.1788     0.8191     2.0546     1.4815     1.7034    16.6732     2.1400  -999.2500    -0.2219
 2794.2290     6.4958   105.0321     0.9724     2.0403     1.4603     1.7027    16.4756     2.1312  -999.2500    -0.2191
 2794.3820     6.5113   102.2878     0.9706     2.0444     1.4606     1.7020    16.2812     2.1304  -999.2500    -0.2111
 2794.5340     6.5115   102.0714     0.9688     2.0575     1.4609     1.7013    16.4167     2.1434  -999.2500    -0.2141
 2794.6870     6.5273   102.0928     1.1228     2.0582     1.4506     1.7006    16.2723     2.1523  -999.2500    -0.2164
 2794.8390     6.5276   101.6482     1.1210     2.0592     1.4509     1.6999    16.0763     2.1346  -999.2500    -0.2133
 2794.9920     6.5123   100.0515     1.1192     2.0451     1.4406     1.6992    16.1676     2.1363  -999.2500    -0.2109
 2795.1440     6.5126    97.9924     0.9616     2.0307     1.4200     1.6985    16.3068     2.1412  -999.2500    -0.2172
 2795.2960     6.5284  -999.2500     0.9597     2.0468     1.4204     1.6978    16.4474     2.1428  -999.2500    -0.2214
 2795.4490     6.5287  -999.2500     0.8026     2.0477     1.4207     1.6971    16.5861     2.1421  -999.2500    -0.2233
 2795.6010     6.5290  -999.2500     0.8008     2.0185     1.4524     1.6964    16.5377     2.1397  -999.2500    -0.2174
 2795.7540     6.5137  -999.2500     0.7990     1.9900     1.4527     1.6957    16.0496     2.1462  -999.2500    -0.2134
 2795.9060     6.5140  -999.2500     0.6415     1.9617     1.4530     1.6950    16.3324     2.1406  -999.2500    -0.2180
 2796.0580     6.5143  -999.2500     0.4839     1.9626     1.4640     1.6943    16.9031     2.1309  -999.2500    -0.2164
 2796.2110     6.5145  -999.2500     0.4821     1.9635     1.4643     1.6936    17.1854     2.1407  -999.2500    -0.2157
 2796.3630     6.5148  -999.2500     0.4803     1.9644     1.4754     1.6929    17.2777     2.1286  -999.2500    -0.2196
 2796.5160     6.5151  -999.2500     0.4785     1.9945     1.4865     1.6922    17.2244     2.1335  -999.2500    -0.2234
 2796.6680     6.4998  -999.2500     0.3209     2.0102     1.4652     1.6915    16.9804     2.1368  -999.2500    -0.2218
 2796.8200     6.5156  -999.2500     0.4753     2.0564     1.4656     1.6908    16.7359     2.1312  -999.2500    -0.2181
 2796.9730     6.5159  -999.2500     0.4731     2.1983     1.4552     1.6901    16.3491     2.1401  -999.2500    -0.2173
 2797.1250     6.5162  -999.2500     0.6274     2.4208     1.4449     1.6894    15.8174     2.1337  -999.2500    -0.2119
 2797.2780     6.5008  -999.2500     0.6253     2.4219     1.4453     1.6887    15.4304     2.1418  -999.2500    -0.2055
 2797.4300     6.4856  -999.2500     0.6235     2.4590     1.4246     1.6881  -999.2500     2.1410  -999.2500    -0.2045
