~VERSION INFORMATION
 VERS.               1.20:   CWLS LOG ASCII STANDARD - VERSION 1.20
 WRAP.                 NO:   ONE LINE PER DEPTH STEP
~WELL INFORMATION
#MNEM.UNIT      DATA TYPE    INFORMATION
#----------   ------------   ------------------------------
 STRT.M          630.6096:   START DEPTH
 STOP.M         3133.6272:   STOP DEPTH
 STEP.M            0.1524:   STEP LENGTH
 NULL.          -999.2500:   NO VALUE
 COMP.            COMPANY:   PERTAMINA
 WELL.               WELL:   CMS-004
 WBN .            CMS-004:   WELLBORE
 FLD .              FIELD:   CEMARA SELATAN
 LOC .           LOCATION:   X = + 149636.27  Y = - 719813.7
 PROV.           PROVINCE:   JAWA BARAT
 STAT.              STATE:   INDONESIA
 SRVC.    SERVICE COMPANY:   SCHLUMBERGER
 DATE.            LOGDATE:   11/24/77
 APIN.         API NUMBER:   -
 UWI .  CEMARASELATAN-004:   UNIQUE WELL ID 
~CURVE INFORMATION
#MNEM.UNIT       API CODE    CURVE DESCRIPTION
#----------   ------------   ------------------------------
 DEPT.M                  :
 CALI.inch   60 280 00 00:   Caliper
 GR  .GAPI   60 310 00 00:   Gamma Ray
 SP  .mV     60 010 01 00:   Spontaneous Potential
 ILD .ohmm   05 070 46 00:   Induction Laterolog, Deep
 SN  .ohmm   05 040 16 00:   Short Normal 16"
 NPHI.%      42 890 03 00:   Neu. Porosity, Ss [%]
 RHOB.kg/cm3 42 350 01 00:   Bulk Density
 DRHO.g/cc   42 356 01 00:   Density Correction
 PROX.ohmm   21 270 30 00:   Proximity Log
~PARAMETER INFORMATION
#MNEM.UNIT          VALUE    DESCRIPTION
#----------   ------------   ------------------------------
 EKB .M            0.0000:   Kelly bushing
 EGL .M            0.0000:   Ground level
 EDF .M           10.0000:   Drilling floor
 EPD .M           10.0000:   Permanent datum
 TD  .M         3129.0000:   Total depth
 DF  .      CONGLONGMERAT:   Deepest formation
 PROJ.       SCHLUMBERGER:   Project
 DATE.           11/24/77:   Date logged
 SRFX.M       185028.4000:   Surface X position
 SRFY.M      9281121.0000:   Surface Y position
 STUS.                  3:   1-18 API codes
 SLAT.DECIMAL DE  -6.4963:   Surface Latitude
 SLNG.DECIMAL DE 108.1521:   Surface Longitude
 BLAT.DECIMAL DE   0.0000:   Bottom Latitude
 BLNG.DECIMAL DE   0.0000:   Bottom Longitude
 SCTN.                  0:   Section Number
 NSFT.F            0.0000:   N-S Footage
 EWFT.F            0.0000:   E-F Footage
 BHT .Degf            100:   Bottom Hole Temperature
 MRT .Degf            100:   Max Recorded Temperature
 MST .Degf             87:   Mud Temperature
 RM  .Ohmm            3.0:   Mud Resistivity
 RMB .Degf  2.7 ohmm @100:   Mud BHT Resistivity
 RMC .Ohmm           4.72:   Mud Cake Resistivity
 RMF .Ohmm           1.93:   Mud Filtrate Resistivity
 DFD .G/c3           1.05:   Drilling Fluid Density
 DFV .Sec              43:   Drilling Fluid Viscosity
 DFPH.                  9:   Drilling Fluid pH
 DFL .Ml               14:   Drilling Fluid Loss
 DD  .Mtr          3129.0:   Depth driller
 DL  .Mtr          3129.8:   Depth logger
 BLI .Mtr          3129.5:   Bottom log interval
 TLI .Mtr            2767:   Top log interval
 CSS .Inch          9 5/8:   Casing size
 CTD1.Mtr   9 5/8" @ 1300:   Casing driller 1
 CTL1.Mtr          1299.7:   Casing logger 1
 BS  .Inch          8 5/8:   Bit size
 DFT . Bentonite / Q.Broxin:   Type fluid in hole
 WSS .           Flowline:   Source of sample
 EMT .Degf 0.48 ohmm @ 95:   Rm Meas. temp.
 MFT .Degf 0.31 ohmm @ 80:   Rmf Meas. temp.
 MCST.Degf 0.66 ohmm @ 26:   Rmc Meas. temp.
 MFSS.              Press:   Source Rmf.
 MCSS.              Press:   Source Rmc.
 TCS .HRS              12:   Time Circ. stopped
 LUN .               RS18:   Logging unit number
 LUL .                WJV:   Logging unit location
 ENGI.            M.Akbar:   Recorded By
 WITN.  Wardoyo / Sugipto:   Witnessed by
 RE1 .        ILD (6FF40):   Res. Electrode #1
 RE2 .      SN  (A-16" M):   Res. Electrode #2
 TLAB.Hrs              12:   Time logger at bottom
 DATE.           12/02/77:   Date logged
 DATE.           12/13/77:   Date logged
 DATE.           01/10/77:   Date logged
 DATE.           01/28/78:   Date logged
 BHT .Degf            110:   Bottom Hole Temperature
 BHT .Degf            155:   Bottom Hole Temperature
 BHT .Degf            250:   Bottom Hole Temperature
 BHT .Degf            270:   Bottom Hole Temperature
 MRT .Degf            110:   Max Recorded Temperature
 MRT .Degf            155:   Max Recorded Temperature
 MRT .Degf            250:   Max Recorded Temperature
 MRT .Degf            270:   Max Recorded Temperature
 MST .Degf             80:   Mud Temperature
 MST .Degf             85:   Mud Temperature
 MST .Degf             85:   Mud Temperature
 MST .Degf             95:   Mud Temperature
 RM  .Ohmm           2.05:   Mud Resistivity
 RM  .Ohmm           1.51:   Mud Resistivity
 RM  .Ohmm           0.71:   Mud Resistivity
 RM  .Ohmm           0.48:   Mud Resistivity
 RMB .Degf 1.6 ohmm @ 110:   Mud BHT Resistivity
 RMB .Degf 0.9 ohmm @ 155:   Mud BHT Resistivity
 RMB .Degf 0.24 ohmm @ 250:   Mud BHT Resistivity
 RMB .Degf 0.16 ohmm @ 270:   Mud BHT Resistivity
 RMC .Ohmm           2.12:   Mud Cake Resistivity
 RMC .Ohmm           1.62:   Mud Cake Resistivity
 RMC .Ohmm           1.11:   Mud Cake Resistivity
 RMC .Ohmm 0.66 ohmm @ 26:   Mud Cake Resistivity
 RMF .Ohmm           1.91:   Mud Filtrate Resistivity
 RMF .Ohmm           1.36:   Mud Filtrate Resistivity
 RMF .Ohmm           0.46:   Mud Filtrate Resistivity
 RMF .Ohmm 0.31 ohmm @ 80:   Mud Filtrate Resistivity
 DFD .G/c3           1.15:   Drilling Fluid Density
 DFD .G/c3           1.14:   Drilling Fluid Density
 DFD .G/c3           1.17:   Drilling Fluid Density
 DFD .G/c3           1.23:   Drilling Fluid Density
 DFV .Sec              42:   Drilling Fluid Viscosity
 DFV .Sec              55:   Drilling Fluid Viscosity
 DFV .Sec              65:   Drilling Fluid Viscosity
 DFV .Sec              65:   Drilling Fluid Viscosity
 DFPH.                  9:   Drilling Fluid pH
 DFPH.                  9:   Drilling Fluid pH
 DFPH.                9.5:   Drilling Fluid pH
 DFPH.                9.5:   Drilling Fluid pH
 DFL .Ml               10:   Drilling Fluid Loss
 DFL .Ml              6.5:   Drilling Fluid Loss
 DFL .Ml                5:   Drilling Fluid Loss
 DFL .Ml                5:   Drilling Fluid Loss
 DD  .Mtr             255:   Depth driller
 DD  .Mtr             635:   Depth driller
 DD  .Mtr            1305:   Depth driller
 DD  .Mtr            2798:   Depth driller
 DL  .Mtr             255:   Depth logger
 DL  .Mtr             635:   Depth logger
 DL  .Mtr            1303:   Depth logger
 DL  .Mtr          2799.3:   Depth logger
 BLI .Mtr           254.7:   Bottom log interval
 BLI .Mtr           634.7:   Bottom log interval
 BLI .Mtr            1302:   Bottom log interval
 BLI .Mtr          2799.0:   Bottom log interval
 TLI .Mtr            30.0:   Top log interval
 TLI .Mtr           259.3:   Top log interval
 TLI .Mtr           630.5:   Top log interval
 TLI .Mtr          1299.7:   Top log interval
 CSS .Inch             30:   Casing size
 CSS .Inch             20:   Casing size
 CSS .Inch         12 1/4:   Casing size
 CSS .Inch          9 5/8:   Casing size
 CTD1.Mtr              30:   Casing driller 1
 CTD1.Mtr           259.1:   Casing driller 1
 CTD1.Mtr             630:   Casing driller 1
 CTD1.Mtr            1300:   Casing driller 1
 CTL1.Mtr              30:   Casing logger 1
 CTL1.Mtr           250.5:   Casing logger 1
 CTL1.Mtr           630.5:   Casing logger 1
 CTL1.Mtr          1299.7:   Casing logger 1
 BS  .Inch          9 7/8:   Bit size
 BS  .Inch          9 7/8:   Bit size
 BS  .Inch             12:   Bit size
 BS  .Inch          8 5/8:   Bit size
 DFT .          bentonite:   Type fluid in hole
 DFT .          bentonite:   Type fluid in hole
 DFT .          bentonite:   Type fluid in hole
 DFT .          bentonite:   Type fluid in hole
 WSS .           flowline:   Source of sample
 WSS .           flowline:   Source of sample
 WSS .           flowline:   Source of sample
 WSS .           flowline:   Source of sample
 EMT .Degf  3.0 ohmm @ 87:   Rm Meas. temp.
 EMT .Degf 2.05 ohmm @ 80:   Rm Meas. temp.
 EMT .Degf 1.51 ohmm @ 85:   Rm Meas. temp.
 EMT .Degf 0.71 ohmm @ 85:   Rm Meas. temp.
 MFT .Degf 2.72 ohmm @ 87:   Rmf Meas. temp.
 MFT .Degf 1.91 ohmm @ 80:   Rmf Meas. temp.
 MFT .Degf 1.36 ohmm @ 85:   Rmf Meas. temp.
 MFT .Degf 0.46 ohmm @ 85:   Rmf Meas. temp.
 MCST.Degf 1.93 ohmm @ 87:   Rmc Meas. temp.
 MCST.Degf 2.12 ohmm @ 80:   Rmc Meas. temp.
 MCST.Degf 1.62 ohmm @ 85:   Rmc Meas. temp.
 MCST.Degf 1.11 ohmm @ 85:   Rmc Meas. temp.
 MFSS.                  p:   Source Rmf.
 MFSS.                  p:   Source Rmf.
 MFSS.                  p:   Source Rmf.
 MFSS.                  p:   Source Rmf.
 MCSS.                  p:   Source Rmc.
 MCSS.                  p:   Source Rmc.
 MCSS.                  p:   Source Rmc.
 MCSS.                  p:   Source Rmc.
 TCS .HRS             1.5:   Time Circ. stopped
 TCS .HRS               3:   Time Circ. stopped
 TCS .HRS               4:   Time Circ. stopped
 TCS .HRS               7:   Time Circ. stopped
 LUN .               4618:   Logging unit number
 LUN .               4618:   Logging unit number
 LUN .               4618:   Logging unit number
 LUL .                mjv:   Logging unit location
 LUL .                mjv:   Logging unit location
 LUL .                mjv:   Logging unit location
 LUL .                mjv:   Logging unit location
 WITN.            Sukarna:   Witnessed by
 RE1 .                ILD:   Res. Electrode #1
 RE1 .                ILD:   Res. Electrode #1
 RE1 .                ILD:   Res. Electrode #1
 RE1 .                ILD:   Res. Electrode #1
 RE2 .                 SN:   Res. Electrode #2
 RE2 .                 SN:   Res. Electrode #2
 RE2 .                 SN:   Res. Electrode #2
 RE2 .                 SN:   Res. Electrode #2
 TLAB.Hrs             1.5:   Time logger at bottom
 TLAB.Hrs               3:   Time logger at bottom
 TLAB.Hrs               4:   Time logger at bottom
 TLAB.Hrs               7:   Time logger at bottom
 DGBY.            Sukarna:   Digitized By
 DGBY.            Sukarna:   Digitized By
 DGBY.            Sukarna:   Digitized By
 DGBY.            Sukarna:   Digitized By
 DGBY.            Sukarna:   Digitized By
~A  DEPTH     CALI         GR         SP        ILD         SN       NPHI       RHOB       DRHO       PROX
# ...
 2154.7620    10.4953    72.6774     3.9171     1.7997    12.1683    19.7123     2.4299     0.0205     2.4394
 2154.9140    10.2970    55.4245     3.6738     2.3521    13.1367    12.4180     2.4954     0.0276    13.1592
 2155.0670    10.0375    39.7747     3.1401     3.2996    13.4260     9.3875     2.5880     0.0211    14.5187
 2155.2190     9.9815    42.1337     2.5742     3.6428    13.6386    10.7265     2.5482     0.0023    11.9859
 2155.3720     9.9865    49.3218     2.0082     4.0529    13.6611    13.3766     2.5046     0.0063    11.3995
 2155.5240    10.0220    54.7065     1.6918     4.1758    13.4002    16.5240     2.4712     0.0284    19.0489
 2155.6770    10.0649    67.8616     1.7289     3.0317    12.8615    21.4477     2.4166     0.0712    23.7361
 2155.8290    10.0808    78.8673     2.1654     2.1822    12.0729    28.9194     2.3438     0.1082    19.1003
 2155.9810    10.0849    95.1286     2.8275     1.7893    11.1566    36.6450     2.2611     0.1521     1.5611
 2156.1340    10.5535    93.3086     3.5500     1.5316    10.3573    39.3518     2.1713     0.1335     1.2126
 2156.2860    10.2338    89.6694     4.0300     1.3272     9.4761    39.6823     2.1380     0.1457     1.1880
 2156.4380    11.4918    85.3601     4.3248     1.1913     8.6356    38.8954     2.1874     0.1816     0.8824
 2156.5910    12.3008    73.6087     4.2482     1.1746     7.6860    37.3700     2.2319     0.1470     0.8155
 2156.7430    11.3492    60.2136     3.8721     1.2214     6.8557    32.6410     2.3220     0.1424     1.0464
 2156.8960     9.5862    45.5309     3.2606     1.3235     6.3206    28.2633     2.4354     0.1684     2.3815
 2157.0480     9.4245    32.9800     1.1961     1.4986     6.3926    22.8956     2.4329     0.1323     5.2956
 2157.2000     9.4668    27.0686    -1.7201     1.7743     6.6808    19.5133     2.4383     0.1004     4.3953
 2157.3530     9.4672    24.9381    -4.7510     2.3624     7.0112    19.4687     2.4338     0.0882     5.9393
 2157.5050     9.3193    24.2801    -7.7844     3.3693     7.4439    21.1783     2.4283     0.0670     5.1176
 2157.6580     9.1595    24.3040    -9.7369     4.4089     7.8464    16.2163     2.4793     0.0863     4.9820
 2157.8100     9.0941    24.9607   -11.5680     4.9843     8.2182    12.4498     2.4868     0.0882     7.6882
 2157.9620     9.1183    26.1012   -13.0752     5.7096     8.3732    10.3197     2.4949     0.0736     8.6671
 2158.1150     9.1494    25.6205   -14.0675     6.8001     8.2236     9.5592     2.5036     0.0633    10.9680
 2158.2670     9.1770    24.0018   -14.2359     8.4517     7.8749     8.4644     2.5114     0.0468    13.6414
 2158.4200     9.2140    22.6595   -14.3137     9.7895     7.3942     7.1439     2.5145     0.0385    14.8677
 2158.5720     9.2756    21.3347   -14.0298    12.4116     6.8237     5.6533     2.5501     0.0614    10.8464
 2158.7240     9.3063    22.0248   -13.4382    14.1906     6.1316     5.2263     2.6017     0.0734    33.7011
 2158.8770     9.3140    22.8461   -12.9474    15.8036     5.3696     5.1262     2.6087     0.0760    27.3947
 2159.0290     9.2985    22.5668   -12.3286    18.4271     4.6108     5.3943     2.6197     0.1015    54.8044
 2159.1820     9.2949    22.8046   -11.5645    21.2316     3.9852     5.7413     2.5917     0.1054    25.6367
 2159.3340     9.2951    25.2330   -10.6583    22.7785     3.5563     6.5853     2.5845     0.0922    96.5928
 2159.4860     9.2953    28.9138   -10.0393    23.1192     3.0632     7.7303     2.5643     0.0688   100.5980
 2159.6390     9.3621    34.1020    -9.2765    19.6700     2.7089     8.6149     2.5470     0.0357    29.2608
 2159.7910     9.4846    40.2411    -8.3689    12.3568     2.6764     9.7660     2.5338     0.0338    39.9847
 2159.9440     9.5669    50.3754    -7.2260     5.8908     2.7074    11.7493     2.5082     0.0284    66.9924
 2160.0960     9.6350    62.9146    -6.0322     3.1821     2.8309    16.0033     2.4638     0.0189    18.1348
 2160.2480     9.7811    66.6723    -4.9141     2.4656     3.1075    24.6718     2.4323     0.0685     5.3843
 2160.4010     9.8711    73.3781    -3.5795     2.2908     3.7595    32.1146     2.4028     0.1484     1.1265
 2160.5530     9.9496    68.9017    -2.3470     2.2120     4.7849    35.6929     2.3783     0.1631     0.8457
 2160.7060     9.9139    58.9267    -1.1018     2.1192     6.3966    34.3166     2.3111     0.1230     1.9174
 2160.8580     9.8014    41.1834    -1.9026     1.9922     8.7717    25.5597     2.3035     0.1245     5.3151
 2161.0100     9.7296    29.8601    -4.0186     1.9365    10.3162    19.7029     2.4096     0.1211     7.0576
 2161.1630     9.6998    24.0271    -6.9447     1.9850    11.8758    15.5559     2.4961     0.0892     6.2734
 2161.3150     9.7309    26.4128   -10.4571     2.2492    12.6876    14.3516     2.5019     0.0773     5.7819
 2161.4680     9.7615    30.2454   -12.5422     2.8594    13.5335    13.0321     2.4871     0.0639     5.9751
 2161.6200     9.8182    32.3360   -13.9695     4.3127    13.9316    11.9603     2.4924     0.0495     8.0101
 2161.7720     9.8151    33.1029   -14.3695     6.0704    14.4297    10.8692     2.5312     0.0843    10.7736
 2161.9250     9.7974    31.1556   -14.2825     7.5146    14.8936     9.5825     2.5362     0.0782     8.5044
 2162.0770     9.7763    27.9563   -14.1233     8.4316    15.1347     8.7866     2.5196     0.0715     9.5042
 2162.2290     9.7421    24.2465   -13.7023     8.8158    15.1655     8.0096     2.5009     0.0617    12.6295
 2162.3820     9.7179    22.0366   -13.1290     9.4628    14.7700     6.9359     2.5219     0.0721    12.2582
 2162.5340     9.7576    23.0356   -12.3366    10.4651    14.2214     6.1464     2.5668     0.0971    28.5594
 2162.6870     9.8141    23.8955   -11.4996    11.9745    13.4896     5.1222     2.5783     0.0892    14.7909
 2162.8390     9.8548    25.1361   -10.3714    15.7350    12.5192     3.7804     2.6052     0.0557    38.9234
 2162.9920     9.8948    26.9241    -9.0395    19.9164    11.6434     2.8256     2.6139     0.0268    58.0696
 2163.1440     9.9323    28.4150    -7.6066    21.5034    10.5287     3.1357     2.6173     0.0220    74.3436
 2163.2960     9.9556    31.2324    -5.9548    21.7601     9.4725     3.7362     2.6274     0.0386    84.7497
 2163.4490     9.9639    35.7690    -4.2543    19.0997     8.4099     4.7221     2.6124     0.0153    43.1243
 2163.6010     9.9708    44.4528    -2.7338    14.9678     7.8171     5.8263     2.5955    -0.0002    46.9679
 2163.7540     9.9705    55.7565    -1.3035     9.9904     7.3398     8.0618     2.5704     0.0186    30.0338
 2163.9060     9.9295    61.7703     0.2045     4.3718     6.9167    11.3092     2.5345     0.0631    10.9539
 2164.0580    10.0468    77.4918     1.0323     3.3090     6.6201    17.2615     2.4834     0.1306     3.1494
 2164.2110    10.4380    90.0847     2.0330     2.5718     6.3751    25.0883     2.4296     0.1932     1.8299
 2164.3630    10.8174   103.1563     3.1749     1.8559     6.2226    33.9019     2.2819     0.1879     1.7278
 2164.5160    11.2900   106.6787     4.3668     1.5492     6.1529    36.7355     2.2551     0.1566     1.6362
 2164.6680    11.4590   108.1984     4.8356     1.3453     6.1826    38.7662     2.2652     0.1360     1.8460
 2164.8200    11.1223   108.0359     5.1803     1.1571     6.4214    38.9542     2.2852     0.1471     1.8850
 2164.9730    11.1775   106.8907     5.0743     1.0270     7.0132    38.6602     2.3246     0.1707     1.4486
 2165.1250    11.2152   105.0949     4.5079     0.9429     7.7013    38.8275     2.3020     0.1622     1.5809
 2165.2780    10.8734   102.8970     4.0775     0.9149     8.3690    39.6374     2.2588     0.1299     1.5617
 2165.4300    10.6757    92.3391     4.1109     0.9970     8.6559    39.2024     2.2646     0.1150     1.2778
 2165.5830    10.6731    75.5965     4.3045     1.1135     8.4980    36.7217     2.2821     0.1361     0.9628
 2165.7350    10.6930    70.2277     4.4980     1.2466     7.7323    31.6645     2.3255     0.1533     1.0036
