~VERSION INFORMATION
 VERS.               1.20:   CWLS LOG ASCII STANDARD - VERSION 1.20
 WRAP.                 NO:   ONE LINE PER DEPTH STEP
~WELL INFORMATION
#MNEM.UNIT      DATA TYPE    INFORMATION
#----------   ------------   ------------------------------
 STRT.M          500.1524:   START DEPTH
 STOP.M         2803.2212:   STOP DEPTH
 STEP.M            0.1524:   STEP LENGTH
 NULL.          -999.2500:   NO VALUE
 COMP.            COMPANY:   PERTAMINA
 WELL.               WELL:   CMS-005
 WBN .            CMS-005:   WELLBORE
 FLD .              FIELD:   CEMARA SELATAN
 LOC .           LOCATION:   X = - 15283.31  Y = + 8483.38
 PROV.           PROVINCE:   JAWA BARAT
 STAT.              STATE:   INDONESIA
 SRVC.    SERVICE COMPANY:   SCHLUMBERGER
 DATE.            LOGDATE:   01/24/78
 APIN.         API NUMBER:   -
 UWI .  CEMARASELATAN-005:   UNIQUE WELL ID 
~CURVE INFORMATION
#MNEM.UNIT       API CODE    CURVE DESCRIPTION
#----------   ------------   ------------------------------
 DEPT.M                  :
 CALI.inch   60 280 00 00:   Caliper
 GR  .GAPI   42 310 00 00:   Gamma Ray
 SP  .mV     60 010 01 00:   Spontaneous Potential
 ILD .ohmm   05 070 46 00:   Induction Laterolog, Deep
 SN  .ohmm   05 040 16 00:   Short Normal 16"
 PROX.ohmm   21 270 30 00:   Proximity Log
 NPHI.%      42 890 03 00:   Neu. Porosity, Ss [%]
 RHOB.kg/cm3 42 350 01 00:   Bulk Density
 CBL .mV     81 524 00 00:   Cement Bond Log
 DRHO.kg/m3  42 356 01 00:   Density Correction
~PARAMETER INFORMATION
#MNEM.UNIT          VALUE    DESCRIPTION
#----------   ------------   ------------------------------
 EKB .M            0.0000:   Kelly bushing
 EGL .M            4.7500:   Ground level
 EDF .M           10.0000:   Drilling floor
 EPD .M           10.0000:   Permanent datum
 TD  .M         2793.0000:   Total depth
 DF  .      CONGLONGMERAT:   Deepest formation
 PROJ.       SCHLUMBERGER:   Project
 DATE.           01/24/78:   Date logged
 DD  .Mtr            2793:   Depth driller
 DL  .Mtr          2762.3:   Depth logger
 BLI .Mtr            2762:   Bottom log interval
 TLI .Mtr             500:   Top log interval
 CSS .Inch             7":   Casing size
 CTD1.Mtr     7" @ 2581,7:   Casing driller 1
 CTL1.Mtr          2581,7:   Casing logger 1
 BS  .Inch          6 1/8:   Bit size
 DFT .           Spersene:   Type fluid in hole
 DFD .G/c3           1.18:   Density
 DFV .Sec              58:   Viscosity
 COL .Inch           6-16:   Column depth/dia.
 DFPH.                 10:   pH
 DFL .Ml             2.75:   Fluid loss
 WSS .           Flowline:   Source of sample
 RM  .Ohmm           1.07:   Rm
 EMT .Degf 1.07 ohmm @ 83:   Rm Meas. temp.
 RMF .Ohmm           0.57:   Rmf
 MFT .Degf 0.57 ohmm @ 83:   Rmf Meas. temp.
 RMC .Ohmm           1.78:   Rmc
 MCST.Degf 1.78 ohmm @ 83:   Rmc Meas. temp.
 MFSS.              Press:   Source Rmf.
 MCSS.              Press:   Source Rmc.
 RMB .Degf 0.4 ohmm @ 232:   Rm. at BHT
 BHT .Degf            232:   BHT.
 TCS .Hrs               7:   Time Circ. stopped
 MRT .Degf            232:   Maximum recorded temp.
 LUN .               4618:   Logging unit number
 LUL .                WJV:   Logging unit location
 ENGI.           M. Akbar:   Recorded By
 WITN.           M.Dasuki:   Witnessed by
 RE1 .       ILD  (6FF40):   Res. Electrode #1
 RE2 .      SN   (A-16"M):   Res. Electrode #2
 DATE.           02/16/78:   Date logged
 DATE.           03/13/78:   Date logged
 DD  .Mtr            1260:   Depth driller
 DD  .Mtr            2610:   Depth driller
 DL  .Mtr            1260:   Depth logger
 DL  .Mtr            2610:   Depth logger
 BLI .Mtr            1260:   Bottom log interval
 BLI .Mtr          2605.8:   Bottom log interval
 TLI .Mtr             500:   Top log interval
 TLI .Mtr          1254.5:   Top log interval
 CSS .Inch         13 3/8:   Casing size
 CSS .Inch          9 5/8:   Casing size
 CTD1.Mtr             500:   Casing driller 1
 CTD1.Mtr            1254:   Casing driller 1
 CTL1.Mtr             500:   Casing logger 1
 CTL1.Mtr          1254.5:   Casing logger 1
 BS  .Inch         12 1/4:   Bit size
 BS  .Inch          8 5/8:   Bit size
 DFT .           spersene:   Type fluid in hole
 DFT .           spersene:   Type fluid in hole
 DFD .G/c3           1.12:   Density
 DFD .G/c3           1.18:   Density
 DFV .Sec              47:   Viscosity
 DFV .Sec              58:   Viscosity
 DFPH.                  9:   pH
 DFPH.                 10:   pH
 DFL .Ml              5.5:   Fluid loss
 DFL .Ml             2.75:   Fluid loss
 WSS .           flowline:   Source of sample
 WSS .           flowline:   Source of sample
 RM  .Ohmm           1.19:   Rm
 RM  .Ohmm           1.07:   Rm
 EMT .Degf             80:   Rm Meas. temp.
 EMT .Degf             83:   Rm Meas. temp.
 RMF .Ohmm            0.8:   Rmf
 RMF .Ohmm           0.57:   Rmf
 MFT .Degf             80:   Rmf Meas. temp.
 MFT .Degf             83:   Rmf Meas. temp.
 RMC .Ohmm           1.52:   Rmc
 RMC .Ohmm           1.78:   Rmc
 MCST.Degf             80:   Rmc Meas. temp.
 MCST.Degf             83:   Rmc Meas. temp.
 MFSS.                  p:   Source Rmf.
 MFSS.                  p:   Source Rmf.
 MCSS.                  p:   Source Rmc.
 MCSS.                  p:   Source Rmc.
 RMB .Degf 0.63 ohmm @ 150:   Rm. at BHT
 RMB .Degf 0.4 ohmm @ 232:   Rm. at BHT
 BHT .Degf            150:   BHT.
 BHT .Degf            232:   BHT.
 TCS .Hrs               3:   Time Circ. stopped
 TCS .Hrs               7:   Time Circ. stopped
 MRT .Degf            150:   Maximum recorded temp.
 MRT .Degf            232:   Maximum recorded temp.
 LUN .               4618:   Logging unit number
 LUN .               4618:   Logging unit number
 LUL .                wjv:   Logging unit location
 LUL .                wjv:   Logging unit location
 ENGI.           M. Akbar:   Recorded By
 ENGI.           M. Akbar:   Recorded By
 WITN.            Y. Rais:   Witnessed by
 WITN.          M. Dasuki:   Witnessed by
 RE1 .                ILD:   Res. Electrode #1
 RE1 .                ILD:   Res. Electrode #1
 RE2 .                 SN:   Res. Electrode #2
 RE2 .                 SN:   Res. Electrode #2
 TLAB.hh:mm             3:   Time Logger At Bottom
 TLAB.hh:mm             7:   Time Logger At Bottom
 TLAB.hh:mm             7:   Time Logger At Bottom
 DGBY.            Sukarna:   Digitized By
 DGBY.            Sukarna:   Digitized By
 DGBY.            Sukarna:   Digitized By
~T 1 Tops
D1(1453-1455)                    1453.0
~OTHER INFORMATION
# Bridleless tool, Log was correlated with cs. run no.3 4M too deep compared with run.2
~A  DEPTH     CALI         GR         SP        ILD         SN       PROX       NPHI       RHOB        CBL       DRHO
# ...
 2031.7720     8.2873    19.0960   -36.4137    34.1057    24.1198   237.3820     3.8449     2.5781    21.2963    -0.2060
 2031.9250     8.3808    19.3334   -36.4094    35.1068    24.4691   109.8778     4.1701     2.5601    20.4276    -0.2034
 2032.0770     8.4280    19.1067   -36.4051    36.1402    25.1826    22.8731     5.0535     2.5258    20.7611    -0.2078
 2032.2300     8.4902    18.6522   -36.5560    36.1509    25.7311    44.1024     5.4712     2.5289    22.0568    -0.2069
 2032.3820     8.5063    16.3440   -36.7060    36.4222    25.9189    68.6488     5.3315     2.5507    22.2124    -0.1895
 2032.5340     8.4149    17.0455   -36.8568    36.9609    26.4842    22.0825     4.7730     2.5694    22.0593    -0.1815
 2032.6870     8.4002    17.2831   -37.1595    37.5031    26.6770   100.9460     4.4019     2.5694    23.9403    -0.1858
 2032.8390     8.4476    16.5926   -37.1552    38.6086    27.4551    58.2870     4.2158     2.5881    23.8697    -0.2039
 2032.9920     8.4946    15.6733   -37.3061    39.7434    28.0529   116.4625     4.1228     2.5920    22.5348    -0.2078
 2033.1440     8.5108    15.6812   -37.3010    40.6207    28.8702    32.7150     4.0298     2.5756    21.7561    -0.2053
 2033.2960     8.5271    16.6137   -37.4518    41.5196    29.5008    68.3420     3.9367     2.5537    21.7160    -0.2064
 2033.4490     8.5434    16.3888   -37.4467    42.4336    29.9281   114.8658     3.9366     2.5436    21.0426    -0.2040
 2033.6010     8.5131    16.1640   -37.5972    44.0004    30.3634    66.2636     4.0305     2.5342    20.1300    -0.2025
 2033.7540     8.4679    16.1706   -37.7473    45.2925    30.8029    27.3890     4.7265     2.5186    19.9511    -0.2124
 2033.9060     8.4843    16.8716   -37.8985    45.9611    31.4745    37.2287     4.9587     2.5131    20.6347    -0.2207
 2034.0580     8.5161    17.3425   -38.0493    46.6395    32.3941    92.2676     4.4921     2.5398    21.9858    -0.2155
 2034.2110     8.5629    17.8107   -38.3520    46.6533    33.3353   139.3866     3.8431     2.6012    24.1441    -0.1980
 2034.3630     8.6100    18.2803   -38.6574    46.3306    34.3076    87.0285     3.2387     2.6114    25.4433    -0.1918
 2034.5160     8.6109    18.2869   -38.8072    47.0173    35.3061    60.9472     3.0992     2.5840    23.9372    -0.1986
 2034.6680     8.6271    17.8304   -38.8020    49.1015    36.5957    17.1204     3.2385     2.5692    24.8673    -0.1925
 2034.8200     8.6280    17.3708   -38.7972    50.5487    37.6642   145.1101     3.3314     2.5747    24.2500    -0.1958
 2034.9730     8.5980    16.2234   -38.6388    51.2927    38.4829   335.4797     3.0059     2.6074    25.2749    -0.1974
 2035.1250     8.5526    15.3018   -38.6348    51.3078    39.6049   395.3674     2.5407     2.6230    26.5752    -0.1970
 2035.2780     8.4611    14.6149   -38.6305    51.3200    40.1793   233.2347     2.2621     2.5980    27.2730    -0.1997
 2035.4300     8.4620    14.6215   -38.6262    51.3352    40.7628   166.8175     2.1690     2.6105    25.5902    -0.1827
 2035.5820     8.5090    15.7877   -38.6219    50.2563    41.0601    86.4450     2.3555     2.6237    25.3867    -0.1657
 2035.7350     8.5253    16.7180   -38.6176    50.2712    40.7713    43.3304     2.6336     2.6042    26.7363    -0.1699
 2035.8870     8.5262    17.1876   -38.6142    50.2860    39.9111    52.9199     2.9129     2.6011    25.7037    -0.1740
 2036.0400     8.5424    16.4997   -38.6099    49.9382    39.6308    39.7871     3.2840     2.6252    27.2047    -0.1626
 2036.1920     8.5585    15.5804   -38.6056    48.8915    39.0726   165.7689     3.6092     2.6135    25.7438    -0.1711
 2036.3440     8.5438    15.5882   -38.6013    47.1791    38.7974    49.6535     3.5162     2.6353    19.1267    -0.1652
 2036.4970     8.4832    16.0566   -38.5970    46.1874    38.5258   112.8067     3.6090     2.6228    19.8549    -0.1633
 2036.6490     8.4685    15.8292   -38.5337    45.5415    37.9835   258.1178     3.7949     2.6135    20.9407    -0.1580
 2036.8020     8.4695    14.6809   -38.2794    44.5853    37.4490   116.1107     3.9341     2.5861    19.3962    -0.1927
 2036.9540     8.4548    14.9190   -37.9668    43.9628    37.4533   107.3587     4.0270     2.5658    22.8017    -0.2071
 2037.1060     8.5175    15.8529   -37.9620    43.9794    37.4577    61.8972     4.4923     2.5463    16.5336    -0.1932
 2037.2590     8.5338    16.3210   -37.8039    44.3083    37.4620    29.5247     4.7238     2.5377    23.9268    -0.1952
 2037.4110     8.5346    16.3276   -37.7996    43.6893    37.1980    37.3892     4.9563     2.5299    22.7434    -0.1937
 2037.5640     8.5045    14.9453   -37.7953    43.3900    36.6754    54.1598     5.0954     2.5416    22.3355    -0.1854
 2037.7160     8.4900    14.7191   -37.9462    43.4003    36.6797    51.1637     4.9558     2.5665    23.8929    -0.1929
 2037.8680     8.4756    15.1887   -37.9406    42.1789    36.4217   267.8373     4.8158     2.5697    24.5134    -0.1947
 2038.0210     8.5073    14.9638   -37.7824    40.9998    36.4268   132.1917     4.5838     2.5930    22.4367    -0.2092
 2038.1730     8.4770    14.2760   -37.7784    40.4269    36.4310   201.5888     4.3041     2.5977    20.2306    -0.2000
 2038.3260     8.4010    14.2826   -37.4660    40.1500    36.4352   322.5854     3.7470     2.6008    17.3203    -0.1852
 2038.4780     8.4326    14.5207   -37.3074    39.8746    36.4395   110.6524     3.1892     2.5976    16.0058    -0.1824
 2038.6300     8.4799    14.7611   -37.1479    39.8888    36.4444    57.4093     2.6768     2.5961    15.7285    -0.1853
 2038.7830     8.5422    15.6913   -36.8358    39.9006    36.7086    93.9381     2.2595     2.6101    16.0222    -0.1783
 2038.9350     8.5739    16.1619   -36.6771    39.9124    36.7131   119.1024     1.4691     2.6226    17.7910    -0.1883
 2039.0880     8.5438    17.3248   -36.5183    39.6363    36.9807   344.2626     1.2368     2.6381    15.7025    -0.1954
 2039.2400     8.4986    17.7944   -36.5143    39.0851    37.2504   367.1287     1.1902     2.6420    17.9985    -0.1861
 2039.3920     8.3762    18.0325   -36.5096    38.5364    37.2547   208.9868     1.1900     2.6358    18.5256    -0.1922
 2039.5450     8.3770    16.8817   -36.3513    37.4596    36.7291   649.9000     1.1435     2.6342    17.1782    -0.1961
 2039.6970     8.4087    15.7304   -36.1927    36.4082    35.9537   380.5573     1.0038     2.6194    17.5665    -0.1940
 2039.8500     8.4404    15.2745   -36.3436    34.8853    35.1955   290.3086     0.9574     2.6201    17.2403    -0.1869
 2040.0020     8.5183    15.0480   -36.3384    33.6647    33.7208   734.1317     0.8643     2.6380    16.9557    -0.1786
 2040.1540     8.5964    14.1213   -36.4893    31.7903    32.0736   949.1790     0.9576     2.6544    17.4168    -0.1653
 2040.3070     8.6739    12.9697   -36.4850    29.3885    29.8683   367.5669     1.1429     2.6567    18.7338    -0.1594
 2040.4590     8.7210    12.7409   -36.4805    25.4569    27.6087   397.6776     1.5624     2.6388    19.0447    -0.1715
 2040.6120     8.7373    14.8281   -36.3221    19.3914    25.1638   424.0659     2.4905     2.6278    18.2533    -0.1746
 2040.7640     8.6919    16.4518   -36.3175    13.8422    22.1272   168.9778     5.6507     2.5639    17.6391    -0.1782
 2040.9160     8.5535    17.3822   -36.3131     9.5216    19.5884    92.6437     8.6325     2.5052    16.8052    -0.1807
 2041.0690     8.3085    17.8472   -36.1549     5.1063    16.2737    22.9313    11.5994     2.4648    15.6747    -0.1692
 2041.2210     8.1701    18.5450   -36.1503     4.4236    12.9426     7.3212    15.4664     2.3797    14.6547    -0.1959
 2041.3740     7.8479    18.0853   -36.1463     3.8066    10.4480     5.5066    21.3125     2.3516    15.4695    -0.2051
 2041.5260     7.8178    16.9311   -36.2963     3.2282     7.4665     6.1735    24.3798     2.3540    16.2698    -0.1902
 2041.6780     7.8342    16.7023   -36.4480     2.6977     5.7297     7.2236    25.2628     2.3476    15.9627    -0.1798
 2041.8310     7.8195    16.9370   -36.7507     2.3722     5.1124     4.9502    25.3091     2.3282    15.1708    -0.1832
