~Version Information
VERS  .          2.0                              :CWLS Log Ascii Standard - Version 2.0
WRAP  .          NO                               :One line per depth step
~Well Information Block
#MNEM.UNIT       Data Type                        Information
#---------       ---------                        -------------------------------
STRT  .M         1250.29000                       :START DEPTH
STOP  .M         2514.44800                       :STOP DEPTH
STEP  .M          0.15240                         :INCREMENT
NULL  .          -999.25                          :NULL DATA VALUE
COMP  .          PERTAMINA                        :COMPANY
WELL  .          CMS-008A                         :WELL
WBN   .          CMS-008A                         :WELLBORE
FLD   .          CEMARA SELATAN                   :FIELD
LOC   .                                           :LOCATION
PROV  .          INDONESIA                        :PROVINCE
STAT  .          INDONESIA                        :STATE
CNTY  .                                           :COUNTY
CTRY  .                                           :COUNTRY
DATE  .                                           :DATE
UWI   .          CEMARASELATAN-CMS-008A           :UNIQUE WELL UWI
LIC   .                                           :LICENSE NUMBER
API   .                                           :API NUMBER
SRVC  .                                           :SERVICE COMPANY
~Parameter Information Block
#MNEM.UNIT       Value                            Description
#---------       ---------                        -------------
LONG  .DEG       108.170925                       :Well Surface Location
LATI  .DEG       -6.422847                        :Well Surface Location
XWELL .M         187032.710000                    :X-coordinate of Well Head
YWELL .M         9289187.741000                   :Y-coordinate of Well Head
~Curve Information Block
#MNEM.UNIT       API Code            Curve    Description
#--------        --------------      -----    -------------------
DEPT  .M                             :0       Index
KGAS  .MD                            :1       Permeability to Gas           
KINT  .MD                            :2       Intrinsic Permeability        
KOIL  .MD                            :3       Permeability to Oil           
KWTR  .MD                            :4       Permeability to Water         
PHIT  .V/V                           :5       Total Porosity_ includes all forms of porosity, including that occupied by bound fluids, and is independent of rock and fluid materials and of environmental effects
PHTT  .V/V                           :6       Theoretical PHIT Value        
PIGE  .V/V                           :7       Effective Porosity Less Irreducible Water
PIGN  .V/V                           :8       Effective Porosity, VISO, VPAR, and Bound Water Removed
RHGA  .G/C3                          :9       Apparent Grain Density        
SUWI  .V/V                           :10      Non-Clay Water Intergranular Water Saturation for Undisturbed Zone
VCLC  .V/V                           :11      Volume of Calcite Relative to Total Volume
VCOA  .V/V                           :12      Volume of Coal Relative to Total Volume
VDOL  .V/V                           :13      Volume of Dolomite Relative to Total Volume
VFEL  .V/V                           :14      Volume of Feldspar Relative to Total Volume
VILL  .V/V                           :15      Volume of Illite (dry) Relative to Total Volume
VMHY  .V/V                           :16      Volume of Moved Hydrocarbon Relative to Total Volume
VORT  .V/V                           :17      Volume of Orthoclase Relative to Total Volume
VQUA  .V/V                           :18      Volume of Quartz Relative to Total Volume
VUGA  .V/V                           :19      Volume of Gas in Undisturbed Zone
VUOI  .V/V                           :20      Volume of Oil in Undisturbed Zone
VUWA  .V/V                           :21      Volume of Water in Undisturbed Zone
VXBW  .V/V                           :22      Volume of Bound Water in Flushed Zone
VXGA  .V/V                           :23      Volume of Gas in Flushed Zone 
VXOI  .V/V                           :24      Volume of Oil in Flushed Zone 
VXWA  .V/V                           :25      Volume of Water in Flushed Zone
~Ascii Data Section
# ...
   1837.03000       0.00100       0.01000       0.00100       0.01000       0.04830       0.04485       0.04830       0.04830       2.71000       1.00000       0.95169       0.00000       0.00000       0.00000       0.00001      -0.02428       0.00000       0.00000       0.00000       0.00000       0.04830       0.00000       0.02301       0.00127       0.02402 
   1837.18240       0.00100       0.01000       0.00100       0.01000       0.03836       0.03633       0.03819       0.03819       2.71027       1.00000       0.95989       0.00000       0.00000       0.00000       0.00175      -0.01570       0.00000       0.00000       0.00000       0.00000       0.03819       0.00016       0.01517       0.00053       0.02249 
   1837.33480       0.00100       0.01000       0.00100       0.01000       0.03719       0.03574       0.03689       0.03689       2.71049       1.00000       0.95965       0.00000       0.00000       0.00000       0.00316      -0.01293       0.00000       0.00000       0.00000       0.00000       0.03689       0.00030       0.01267       0.00026       0.02396 
   1837.48720       0.00100       0.01000       0.00100       0.01000       0.04933       0.04670       0.04928       0.04928       2.71007       1.00000       0.95020       0.00000       0.00000       0.00000       0.00048      -0.01876       0.00000       0.00000       0.00000       0.00000       0.04928       0.00004       0.01798       0.00078       0.03053 
   1837.63960       0.00100       0.01000       0.00100       0.01000       0.04603       0.04485       0.04538       0.04538       2.71110       1.00000       0.94695       0.00000       0.00000       0.00000       0.00702      -0.01500       0.00000       0.00000       0.00000       0.00000       0.04538       0.00066       0.01454       0.00046       0.03037 
   1837.79200       0.00100       0.01000       0.00100       0.01000       0.05071       0.05003       0.04969       0.04969       2.71171       1.00000       0.93839       0.00000       0.00000       0.00000       0.01090      -0.01542       0.00000       0.00000       0.00000       0.00000       0.04969       0.00102       0.01495       0.00047       0.03427 
   1837.94440       0.00100       0.01267       0.00100       0.01267       0.06394       0.06246       0.06301       0.06301       2.71158       1.00000       0.92613       0.00000       0.00000       0.00000       0.00992      -0.02026       0.00000       0.00000       0.00000       0.00000       0.06301       0.00093       0.01937       0.00089       0.04276 
   1838.09680       0.00100       0.01436       0.00100       0.01436       0.06909       0.06829       0.06766       0.06766       2.71245       1.00000       0.91562       0.00000       0.00000       0.00000       0.01529      -0.02085       0.00000       0.00000       0.00000       0.00000       0.06766       0.00143       0.01992       0.00093       0.04682 
   1838.24920       0.00100       0.01335       0.00100       0.01335       0.06972       0.07030       0.06761       0.06761       2.71361       1.00000       0.90782       0.00000       0.00000       0.00000       0.02247      -0.01826       0.00000       0.00000       0.00000       0.00000       0.06761       0.00211       0.01754       0.00071       0.04936 
   1838.40160       0.00100       0.01342       0.00100       0.01342       0.07159       0.07347       0.06889       0.06889       2.71465       1.00000       0.89952       0.00000       0.00000       0.00000       0.02889      -0.01552       0.00000       0.00000       0.00000       0.00000       0.06889       0.00271       0.01503       0.00049       0.05337 
   1838.55400       0.00100       0.01931       0.00100       0.01931       0.07964       0.08182       0.07661       0.07661       2.71525       1.00000       0.88797       0.00000       0.00000       0.00000       0.03239      -0.01696       0.00000       0.00000       0.00000       0.00000       0.07661       0.00303       0.01634       0.00062       0.05965 
   1838.70640       0.00100       0.02160       0.00100       0.02160       0.08490       0.08824       0.08104       0.08104       2.71673       1.00000       0.87383       0.00000       0.00000       0.00000       0.04126      -0.01777       0.00000       0.00000       0.00000       0.00000       0.08104       0.00387       0.01706       0.00070       0.06327 
   1838.85880       0.00100       0.01958       0.00100       0.01958       0.08669       0.09201       0.08165       0.08165       2.71879       1.00000       0.85952       0.00000       0.00000       0.00000       0.05379      -0.01640       0.00000       0.00000       0.00000       0.00000       0.08165       0.00504       0.01577       0.00063       0.06525 
   1839.01120       0.00100       0.01922       0.00100       0.01922       0.08898       0.09550       0.08316       0.08316       2.72017       1.00000       0.84894       0.00000       0.00000       0.00000       0.06208      -0.01627       0.00000       0.00000       0.00000       0.00000       0.08316       0.00582       0.01562       0.00065       0.06689 
   1839.16360       0.00100       0.01977       0.00100       0.01977       0.09173       0.09901       0.08531       0.08531       2.72126       1.00000       0.83978       0.00000       0.00000       0.00000       0.06849      -0.01748       0.00000       0.00000       0.00000       0.00000       0.08531       0.00642       0.01672       0.00076       0.06783 
   1839.31600       0.00100       0.01724       0.00100       0.01724       0.09070       0.09885       0.08366       0.08366       2.72232       1.00000       0.83426       0.00000       0.00000       0.00000       0.07505      -0.01791       0.00000       0.00000       0.00000       0.00000       0.08366       0.00703       0.01714       0.00077       0.06576 
   1839.46840       0.00100       0.01700       0.00100       0.01700       0.09148       0.09986       0.08414       0.08414       2.72287       1.00000       0.83022       0.00000       0.00000       0.00000       0.07830      -0.01958       0.00000       0.00000       0.00000       0.00000       0.08414       0.00734       0.01869       0.00089       0.06457 
   1839.62080       0.00100       0.01540       0.00100       0.01540       0.08988       0.09858       0.08235       0.08235       2.72319       1.00000       0.82974       0.00000       0.00000       0.00000       0.08038      -0.01946       0.00000       0.00000       0.00000       0.00000       0.08235       0.00753       0.01859       0.00086       0.06290 
   1839.77320       0.00100       0.01337       0.00100       0.01337       0.08712       0.09613       0.07948       0.07948       2.72333       1.00000       0.83136       0.00000       0.00000       0.00000       0.08153      -0.01829       0.00000       0.00000       0.00000       0.00000       0.07948       0.00764       0.01754       0.00076       0.06118 
   1839.92560       0.00100       0.01227       0.00100       0.01227       0.08451       0.09340       0.07710       0.07710       2.72289       1.00000       0.83644       0.00000       0.00000       0.00000       0.07905      -0.01663       0.00000       0.00000       0.00000       0.00000       0.07710       0.00741       0.01601       0.00061       0.06048 
   1840.07800       0.00100       0.01278       0.00100       0.01278       0.08160       0.08927       0.07535       0.07535       2.72084       1.00000       0.85170       0.00000       0.00000       0.00000       0.06670      -0.01271       0.00000       0.00000       0.00000       0.00000       0.07535       0.00625       0.01239       0.00032       0.06264 
   1840.23040       0.00100       0.01465       0.00100       0.01465       0.08149       0.08798       0.07614       0.07614       2.71928       1.00000       0.86144       0.00000       0.00000       0.00000       0.05708      -0.01133       0.00000       0.00000       0.00000       0.00000       0.07614       0.00535       0.01110       0.00022       0.06481 
