~VERSION INFORMATION
 VERS.               1.20:   CWLS LOG ASCII STANDARD - VERSION 1.20
 WRAP.                 NO:   ONE LINE PER DEPTH STEP
~WELL INFORMATION
#MNEM.UNIT      DATA TYPE    INFORMATION
#----------   ------------   ------------------------------
 STRT.M          630.6096:   START DEPTH
 STOP.M         3133.6272:   STOP DEPTH
 STEP.M            0.1524:   STEP LENGTH
 NULL.          -999.2500:   NO VALUE
 COMP.            COMPANY:   PERTAMINA
 WELL.               WELL:   CMS-004
 WBN .            CMS-004:   WELLBORE
 FLD .              FIELD:   CEMARA SELATAN
 LOC .           LOCATION:   X = + 149636.27  Y = - 719813.7
 PROV.           PROVINCE:   JAWA BARAT
 STAT.              STATE:   INDONESIA
 SRVC.    SERVICE COMPANY:   SCHLUMBERGER
 DATE.            LOGDATE:   11/24/77
 APIN.         API NUMBER:   -
 UWI .  CEMARASELATAN-004:   UNIQUE WELL ID 
~CURVE INFORMATION
#MNEM.UNIT       API CODE    CURVE DESCRIPTION
#----------   ------------   ------------------------------
 DEPT.M                  :
 CALI.inch   60 280 00 00:   Caliper
 GR  .GAPI   60 310 00 00:   Gamma Ray
 SP  .mV     60 010 01 00:   Spontaneous Potential
 ILD .ohmm   05 070 46 00:   Induction Laterolog, Deep
 SN  .ohmm   05 040 16 00:   Short Normal 16"
 NPHI.%      42 890 03 00:   Neu. Porosity, Ss [%]
 RHOB.kg/cm3 42 350 01 00:   Bulk Density
 DRHO.g/cc   42 356 01 00:   Density Correction
 PROX.ohmm   21 270 30 00:   Proximity Log
~PARAMETER INFORMATION
#MNEM.UNIT          VALUE    DESCRIPTION
#----------   ------------   ------------------------------
 EKB .M            0.0000:   Kelly bushing
 EGL .M            0.0000:   Ground level
 EDF .M           10.0000:   Drilling floor
 EPD .M           10.0000:   Permanent datum
 TD  .M         3129.0000:   Total depth
 DF  .      CONGLONGMERAT:   Deepest formation
 PROJ.       SCHLUMBERGER:   Project
 DATE.           11/24/77:   Date logged
 SRFX.M       185028.4000:   Surface X position
 SRFY.M      9281121.0000:   Surface Y position
 STUS.                  3:   1-18 API codes
 SLAT.DECIMAL DE  -6.4963:   Surface Latitude
 SLNG.DECIMAL DE 108.1521:   Surface Longitude
 BLAT.DECIMAL DE   0.0000:   Bottom Latitude
 BLNG.DECIMAL DE   0.0000:   Bottom Longitude
 SCTN.                  0:   Section Number
 NSFT.F            0.0000:   N-S Footage
 EWFT.F            0.0000:   E-F Footage
 BHT .Degf            100:   Bottom Hole Temperature
 MRT .Degf            100:   Max Recorded Temperature
 MST .Degf             87:   Mud Temperature
 RM  .Ohmm            3.0:   Mud Resistivity
 RMB .Degf  2.7 ohmm @100:   Mud BHT Resistivity
 RMC .Ohmm           4.72:   Mud Cake Resistivity
 RMF .Ohmm           1.93:   Mud Filtrate Resistivity
 DFD .G/c3           1.05:   Drilling Fluid Density
 DFV .Sec              43:   Drilling Fluid Viscosity
 DFPH.                  9:   Drilling Fluid pH
 DFL .Ml               14:   Drilling Fluid Loss
 DD  .Mtr          3129.0:   Depth driller
 DL  .Mtr          3129.8:   Depth logger
 BLI .Mtr          3129.5:   Bottom log interval
 TLI .Mtr            2767:   Top log interval
 CSS .Inch          9 5/8:   Casing size
 CTD1.Mtr   9 5/8" @ 1300:   Casing driller 1
 CTL1.Mtr          1299.7:   Casing logger 1
 BS  .Inch          8 5/8:   Bit size
 DFT . Bentonite / Q.Broxin:   Type fluid in hole
 WSS .           Flowline:   Source of sample
 EMT .Degf 0.48 ohmm @ 95:   Rm Meas. temp.
 MFT .Degf 0.31 ohmm @ 80:   Rmf Meas. temp.
 MCST.Degf 0.66 ohmm @ 26:   Rmc Meas. temp.
 MFSS.              Press:   Source Rmf.
 MCSS.              Press:   Source Rmc.
 TCS .HRS              12:   Time Circ. stopped
 LUN .               RS18:   Logging unit number
 LUL .                WJV:   Logging unit location
 ENGI.            M.Akbar:   Recorded By
 WITN.  Wardoyo / Sugipto:   Witnessed by
 RE1 .        ILD (6FF40):   Res. Electrode #1
 RE2 .      SN  (A-16" M):   Res. Electrode #2
 TLAB.Hrs              12:   Time logger at bottom
 DATE.           12/02/77:   Date logged
 DATE.           12/13/77:   Date logged
 DATE.           01/10/77:   Date logged
 DATE.           01/28/78:   Date logged
 BHT .Degf            110:   Bottom Hole Temperature
 BHT .Degf            155:   Bottom Hole Temperature
 BHT .Degf            250:   Bottom Hole Temperature
 BHT .Degf            270:   Bottom Hole Temperature
 MRT .Degf            110:   Max Recorded Temperature
 MRT .Degf            155:   Max Recorded Temperature
 MRT .Degf            250:   Max Recorded Temperature
 MRT .Degf            270:   Max Recorded Temperature
 MST .Degf             80:   Mud Temperature
 MST .Degf             85:   Mud Temperature
 MST .Degf             85:   Mud Temperature
 MST .Degf             95:   Mud Temperature
 RM  .Ohmm           2.05:   Mud Resistivity
 RM  .Ohmm           1.51:   Mud Resistivity
 RM  .Ohmm           0.71:   Mud Resistivity
 RM  .Ohmm           0.48:   Mud Resistivity
 RMB .Degf 1.6 ohmm @ 110:   Mud BHT Resistivity
 RMB .Degf 0.9 ohmm @ 155:   Mud BHT Resistivity
 RMB .Degf 0.24 ohmm @ 250:   Mud BHT Resistivity
 RMB .Degf 0.16 ohmm @ 270:   Mud BHT Resistivity
 RMC .Ohmm           2.12:   Mud Cake Resistivity
 RMC .Ohmm           1.62:   Mud Cake Resistivity
 RMC .Ohmm           1.11:   Mud Cake Resistivity
 RMC .Ohmm 0.66 ohmm @ 26:   Mud Cake Resistivity
 RMF .Ohmm           1.91:   Mud Filtrate Resistivity
 RMF .Ohmm           1.36:   Mud Filtrate Resistivity
 RMF .Ohmm           0.46:   Mud Filtrate Resistivity
 RMF .Ohmm 0.31 ohmm @ 80:   Mud Filtrate Resistivity
 DFD .G/c3           1.15:   Drilling Fluid Density
 DFD .G/c3           1.14:   Drilling Fluid Density
 DFD .G/c3           1.17:   Drilling Fluid Density
 DFD .G/c3           1.23:   Drilling Fluid Density
 DFV .Sec              42:   Drilling Fluid Viscosity
 DFV .Sec              55:   Drilling Fluid Viscosity
 DFV .Sec              65:   Drilling Fluid Viscosity
 DFV .Sec              65:   Drilling Fluid Viscosity
 DFPH.                  9:   Drilling Fluid pH
 DFPH.                  9:   Drilling Fluid pH
 DFPH.                9.5:   Drilling Fluid pH
 DFPH.                9.5:   Drilling Fluid pH
 DFL .Ml               10:   Drilling Fluid Loss
 DFL .Ml              6.5:   Drilling Fluid Loss
 DFL .Ml                5:   Drilling Fluid Loss
 DFL .Ml                5:   Drilling Fluid Loss
 DD  .Mtr             255:   Depth driller
 DD  .Mtr             635:   Depth driller
 DD  .Mtr            1305:   Depth driller
 DD  .Mtr            2798:   Depth driller
 DL  .Mtr             255:   Depth logger
 DL  .Mtr             635:   Depth logger
 DL  .Mtr            1303:   Depth logger
 DL  .Mtr          2799.3:   Depth logger
 BLI .Mtr           254.7:   Bottom log interval
 BLI .Mtr           634.7:   Bottom log interval
 BLI .Mtr            1302:   Bottom log interval
 BLI .Mtr          2799.0:   Bottom log interval
 TLI .Mtr            30.0:   Top log interval
 TLI .Mtr           259.3:   Top log interval
 TLI .Mtr           630.5:   Top log interval
 TLI .Mtr          1299.7:   Top log interval
 CSS .Inch             30:   Casing size
 CSS .Inch             20:   Casing size
 CSS .Inch         12 1/4:   Casing size
 CSS .Inch          9 5/8:   Casing size
 CTD1.Mtr              30:   Casing driller 1
 CTD1.Mtr           259.1:   Casing driller 1
 CTD1.Mtr             630:   Casing driller 1
 CTD1.Mtr            1300:   Casing driller 1
 CTL1.Mtr              30:   Casing logger 1
 CTL1.Mtr           250.5:   Casing logger 1
 CTL1.Mtr           630.5:   Casing logger 1
 CTL1.Mtr          1299.7:   Casing logger 1
 BS  .Inch          9 7/8:   Bit size
 BS  .Inch          9 7/8:   Bit size
 BS  .Inch             12:   Bit size
 BS  .Inch          8 5/8:   Bit size
 DFT .          bentonite:   Type fluid in hole
 DFT .          bentonite:   Type fluid in hole
 DFT .          bentonite:   Type fluid in hole
 DFT .          bentonite:   Type fluid in hole
 WSS .           flowline:   Source of sample
 WSS .           flowline:   Source of sample
 WSS .           flowline:   Source of sample
 WSS .           flowline:   Source of sample
 EMT .Degf  3.0 ohmm @ 87:   Rm Meas. temp.
 EMT .Degf 2.05 ohmm @ 80:   Rm Meas. temp.
 EMT .Degf 1.51 ohmm @ 85:   Rm Meas. temp.
 EMT .Degf 0.71 ohmm @ 85:   Rm Meas. temp.
 MFT .Degf 2.72 ohmm @ 87:   Rmf Meas. temp.
 MFT .Degf 1.91 ohmm @ 80:   Rmf Meas. temp.
 MFT .Degf 1.36 ohmm @ 85:   Rmf Meas. temp.
 MFT .Degf 0.46 ohmm @ 85:   Rmf Meas. temp.
 MCST.Degf 1.93 ohmm @ 87:   Rmc Meas. temp.
 MCST.Degf 2.12 ohmm @ 80:   Rmc Meas. temp.
 MCST.Degf 1.62 ohmm @ 85:   Rmc Meas. temp.
 MCST.Degf 1.11 ohmm @ 85:   Rmc Meas. temp.
 MFSS.                  p:   Source Rmf.
 MFSS.                  p:   Source Rmf.
 MFSS.                  p:   Source Rmf.
 MFSS.                  p:   Source Rmf.
 MCSS.                  p:   Source Rmc.
 MCSS.                  p:   Source Rmc.
 MCSS.                  p:   Source Rmc.
 MCSS.                  p:   Source Rmc.
 TCS .HRS             1.5:   Time Circ. stopped
 TCS .HRS               3:   Time Circ. stopped
 TCS .HRS               4:   Time Circ. stopped
 TCS .HRS               7:   Time Circ. stopped
 LUN .               4618:   Logging unit number
 LUN .               4618:   Logging unit number
 LUN .               4618:   Logging unit number
 LUL .                mjv:   Logging unit location
 LUL .                mjv:   Logging unit location
 LUL .                mjv:   Logging unit location
 LUL .                mjv:   Logging unit location
 WITN.            Sukarna:   Witnessed by
 RE1 .                ILD:   Res. Electrode #1
 RE1 .                ILD:   Res. Electrode #1
 RE1 .                ILD:   Res. Electrode #1
 RE1 .                ILD:   Res. Electrode #1
 RE2 .                 SN:   Res. Electrode #2
 RE2 .                 SN:   Res. Electrode #2
 RE2 .                 SN:   Res. Electrode #2
 RE2 .                 SN:   Res. Electrode #2
 TLAB.Hrs             1.5:   Time logger at bottom
 TLAB.Hrs               3:   Time logger at bottom
 TLAB.Hrs               4:   Time logger at bottom
 TLAB.Hrs               7:   Time logger at bottom
 DGBY.            Sukarna:   Digitized By
 DGBY.            Sukarna:   Digitized By
 DGBY.            Sukarna:   Digitized By
 DGBY.            Sukarna:   Digitized By
 DGBY.            Sukarna:   Digitized By
~A  DEPTH     CALI         GR         SP        ILD         SN       NPHI       RHOB       DRHO       PROX
# ...
 2032.3850    11.8045    83.8199     4.8676     0.7408     0.9684    42.8065     2.2345     0.1132     0.9991
 2032.5370    11.9761    80.8995     4.8691     0.7236     0.9515    42.5543     2.2155     0.0831     1.0903
 2032.6900    12.1393    80.2128     5.0314     0.7177     0.9395    42.9078     2.2352     0.1036     1.2936
 2032.8420    12.0728    82.3524     5.1787     0.7177     0.9241    43.1251     2.2627     0.1409     1.1172
 2032.9940    12.0553    84.0445     5.1800     0.7169     0.9090    42.7584     2.2449     0.1403     0.9597
 2033.1470    12.2885    82.6359     5.1813     0.7125     0.8931    41.8081     2.2203     0.1340     1.0292
 2033.2990    12.0537    80.5927     5.1826     0.7124     0.8854    40.8572     2.2228     0.1257     1.0517
 2033.4520    11.6337    81.0416     5.1512     0.7124     0.8853    39.8600     2.2514     0.1314     0.9555
 2033.6040    11.5632    79.8373     5.0316     0.7178     0.8859    39.5410     2.2749     0.1307     1.0125
 2033.7560    11.6970    80.9244     4.9288     0.7258     0.8959    39.8968     2.3318     0.1421     1.0524
 2033.9090    11.8304    81.9013     4.8806     0.7387     0.9117    40.1154     2.3759     0.1311     0.9488
 2034.0610    12.0621    83.2074     4.8819     0.7594     0.9303    39.6559     2.3323     0.0962     0.9450
 2034.2140    12.1416    83.8286     4.8832     0.7705     0.9509    39.3362     2.3199     0.0838     1.0235
 2034.3660    11.9844    84.3310     4.9780     0.7842     0.9658    39.2029     2.3274     0.0904     1.0917
 2034.5180    12.0769    84.2473     5.0396     0.7981     0.9742    39.6531     2.3192     0.0832     0.9461
 2034.6710    11.9861    83.7518     5.0407     0.8080     0.9706    40.4988     2.3218     0.0950     1.0027
 2034.8230    11.8122    86.7237     4.9950     0.8153     0.9705    39.9389     2.3141     0.0915     1.0341
 2034.9760    11.6054    89.1558     4.8897     0.8211     0.9537    39.0393     2.2956     0.0867     0.9604
 2035.1280    11.6588    89.4284     4.7376     0.8185     0.9402    39.0980     2.2746     0.0747     1.0249
 2035.2800    11.5114    89.1775     4.7387     0.8074     0.9273    39.8488     2.2848     0.1083     1.0775
 2035.4330    11.4351    88.0144     4.5137     0.7865     0.9167    40.6884     2.2727     0.0940     0.9784
 2035.5850    11.2624    86.4953     4.2084     0.7667     0.9167    40.6662     2.2540     0.1013     0.9417
 2035.7380    11.1649    83.9919     4.1282     0.7421     0.9193    40.4772     2.2773     0.0898     0.9614
 2035.8900    11.2664    80.3801     4.7440     0.7226     0.9359    40.5138     2.2858     0.0680     0.9080
 2036.0420    11.3692    78.7671     4.9245     0.7209     0.9497    39.8506     2.3068     0.1108     0.9470
 2036.1950    11.4529    80.0532     5.0537     0.7221     0.9640    39.0475     2.2913     0.1122     0.9686
 2036.3470    11.4936    82.8756     5.0550     0.7335     0.9700    37.8324     2.2975     0.1364     0.9217
 2036.5000    11.5024    84.3565     5.0565     0.7597     0.9700    36.7826     2.3059     0.1523     0.8279
 2036.6520    11.4306    81.9347     5.0725     0.8030     0.9768    35.8007     2.2676     0.1137     0.9306
 2036.8040    11.3547    79.1024     5.2125     0.8578     0.9857    34.4827     2.2329     0.0510     1.0214
 2036.9570    11.2978    75.6890     5.2138     0.9428     1.0345    32.4820     2.2645     0.0123     1.1356
 2037.1090    11.2391    72.6261     5.0617     1.0536     1.1484    30.3841     2.3253     0.0140     1.6975
 2037.2620    10.8949    70.9640     4.9050     1.1524     1.5390    26.9593     2.3399     0.0378     1.7553
 2037.4140    10.9256    73.0261     4.7569     1.2232     1.5500    25.1206     2.3255     0.0691     4.7001
 2037.5660    11.2950    76.5034     4.6067     1.2425     1.4587    25.9005     2.3533     0.1759     1.4711
 2037.7190    11.4940    78.9507     4.3409     1.2456     1.2995    28.7578     2.2929     0.1617     1.0727
 2037.8710    11.7894    82.3720     4.3000     1.2287     1.1354    33.3172     2.2240     0.1753     0.9075
 2038.0240    11.6267    84.2510     4.3013     1.1800     1.0189    36.3877     2.1950     0.1500     0.7939
 2038.1760    11.4048    85.0264     4.3026     1.1002     0.9589    38.3814     2.1828     0.1319     0.8435
 2038.3280    11.4409    82.3692     4.3039     0.9527     0.9563    37.8078     2.2438     0.1335     0.9045
 2038.4810    11.4675    78.7922     4.3053     0.7801     0.9853    36.8680     2.2972     0.1583     0.9401
 2038.6330    11.3472    78.9679     4.3065     0.6569     1.0043    36.7002     2.2869     0.1182     0.9188
 2038.7860    11.1634    80.2862     4.2534     0.6138     0.9937    35.8904     2.2856     0.1192     0.8453
 2038.9380    11.0942    81.9589     4.1555     0.5861     0.9570    35.9191     2.3244     0.1491     0.8360
 2039.0900    11.0978    84.1796     4.1570     0.5707     0.9158    36.1579     2.3359     0.1502     0.7868
 2039.2430    11.2175    86.3370     4.1502     0.5493     0.8772    36.8180     2.3128     0.1242     0.7625
 2039.3950    11.2759    94.4434     4.0058     0.5257     0.8522    37.7704     2.3210     0.0977     0.7375
 2039.5480    11.2587    95.3935     4.0071     0.5013     0.8502    37.7641     2.3032     0.0964     0.6423
 2039.7000    11.2073    92.5212     4.0084     0.5005     0.8720    37.2925     2.3082     0.1199     0.5448
 2039.8520    11.1344    87.8281     4.0097     0.5410     0.9218    36.2633     2.3267     0.0868     0.6706
 2040.0050    11.0730    80.4354     3.7914     0.6200     1.0126    34.8531     2.3091     0.0086     2.0912
 2040.1570    11.0135    73.7095     2.9329     0.7330     1.2248    30.9986     2.3350    -0.0022     4.7829
 2040.3100    10.9312    59.8547     0.7085     0.9277     1.6333    24.7345     2.3713     0.0146     5.6410
 2040.4620    10.7608    54.3371    -3.0511     1.1850     2.4434    19.6685     2.4014     0.0605     4.6749
 2040.6140    10.6390    57.7780    -5.4236     1.6134     4.0410    18.3148     2.4135     0.1041     4.8486
 2040.7670    10.5416    62.4804    -7.3734     2.4512     6.0642    19.2457     2.4298     0.1011   167.9945
 2040.9190    10.4803    56.6434   -10.3938     5.0552     7.5635    15.7314     2.4472     0.0745   266.9522
 2041.0720    10.1217    53.2701   -13.9521     9.9364     8.8765    12.0884     2.4822     0.0402    11.4807
 2041.2240     9.9646    54.9959   -15.2499    13.6381     9.8219     9.7203     2.5022     0.0270    35.0845
 2041.3760     9.7749    56.7741   -16.3369    13.9325    10.2063     9.6918     2.4953     0.0167    63.1012
 2041.5290     9.6665    56.6822   -17.4481    13.0222    10.4229     9.5990     2.4705     0.0026    18.9741
 2041.6810     9.5444    56.0224   -18.8624    11.6391    10.5143     9.9768     2.4238     0.0136    56.3337
 2041.8340     9.4055    57.0300   -19.7865    10.1015    10.5431     9.7796     2.4226     0.0441    61.8596
 2041.9860     9.2185    59.4619   -20.5792     9.1802    10.3768     9.5777     2.4450     0.0702     7.1321
 2042.1380     9.1858    57.3368   -21.4523     8.1058    10.1067    10.1314     2.4368     0.1023     8.0350
 2042.2910     9.3194    54.6942   -22.3165     7.1513     9.8815    10.8225     2.4340     0.0763     6.0766
 2042.4430     9.4732    55.9757   -23.0035     6.4735     9.6105    10.9039     2.4188     0.0634    37.8310
 2042.5960     9.6739    57.6262   -23.5409     6.0824     9.4745    10.3777     2.4344     0.0828    41.0966
 2042.7480     9.7797    60.2412   -24.1078     5.9443     9.5266     9.5161     2.4656     0.0774     6.6745
 2042.9000     9.8289    62.5151   -24.5770     5.9103     9.7806     8.6190     2.4410     0.0579     7.2800
 2043.0530     9.8004    58.0089   -25.1488     5.9673     9.9371     8.4939     2.3805     0.0715    13.1615
 2043.2050     9.6298    55.3687   -25.4854     6.1680     9.8851     8.9891     2.3655     0.1063    46.7232
 2043.3580     9.1816    60.8350   -25.8118     6.4931     9.7450    10.0657     2.3597     0.0978    31.0176
