~Version Information
VERS  .          2.0                              :CWLS Log Ascii Standard - Version 2.0
WRAP  .          NO                               :One line per depth step
~Well Information Block
#MNEM.UNIT       Data Type                        Information
#---------       ---------                        -------------------------------
STRT  .M         1250.29000                       :START DEPTH
STOP  .M         2514.44800                       :STOP DEPTH
STEP  .M          0.15240                         :INCREMENT
NULL  .          -999.25                          :NULL DATA VALUE
COMP  .          PERTAMINA                        :COMPANY
WELL  .          CMS-008A                         :WELL
WBN   .          CMS-008A                         :WELLBORE
FLD   .          CEMARA SELATAN                   :FIELD
LOC   .                                           :LOCATION
PROV  .          INDONESIA                        :PROVINCE
STAT  .          INDONESIA                        :STATE
CNTY  .                                           :COUNTY
CTRY  .                                           :COUNTRY
DATE  .                                           :DATE
UWI   .          CEMARASELATAN-CMS-008A           :UNIQUE WELL UWI
LIC   .                                           :LICENSE NUMBER
API   .                                           :API NUMBER
SRVC  .                                           :SERVICE COMPANY
~Parameter Information Block
#MNEM.UNIT       Value                            Description
#---------       ---------                        -------------
LONG  .DEG       108.170925                       :Well Surface Location
LATI  .DEG       -6.422847                        :Well Surface Location
XWELL .M         187032.710000                    :X-coordinate of Well Head
YWELL .M         9289187.741000                   :Y-coordinate of Well Head
~Curve Information Block
#MNEM.UNIT       API Code            Curve    Description
#--------        --------------      -----    -------------------
DEPT  .M                             :0       Index
KGAS  .MD                            :1       Permeability to Gas           
KINT  .MD                            :2       Intrinsic Permeability        
KOIL  .MD                            :3       Permeability to Oil           
KWTR  .MD                            :4       Permeability to Water         
PHIT  .V/V                           :5       Total Porosity_ includes all forms of porosity, including that occupied by bound fluids, and is independent of rock and fluid materials and of environmental effects
PHTT  .V/V                           :6       Theoretical PHIT Value        
PIGE  .V/V                           :7       Effective Porosity Less Irreducible Water
PIGN  .V/V                           :8       Effective Porosity, VISO, VPAR, and Bound Water Removed
RHGA  .G/C3                          :9       Apparent Grain Density        
SUWI  .V/V                           :10      Non-Clay Water Intergranular Water Saturation for Undisturbed Zone
VCLC  .V/V                           :11      Volume of Calcite Relative to Total Volume
VCOA  .V/V                           :12      Volume of Coal Relative to Total Volume
VDOL  .V/V                           :13      Volume of Dolomite Relative to Total Volume
VFEL  .V/V                           :14      Volume of Feldspar Relative to Total Volume
VILL  .V/V                           :15      Volume of Illite (dry) Relative to Total Volume
VMHY  .V/V                           :16      Volume of Moved Hydrocarbon Relative to Total Volume
VORT  .V/V                           :17      Volume of Orthoclase Relative to Total Volume
VQUA  .V/V                           :18      Volume of Quartz Relative to Total Volume
VUGA  .V/V                           :19      Volume of Gas in Undisturbed Zone
VUOI  .V/V                           :20      Volume of Oil in Undisturbed Zone
VUWA  .V/V                           :21      Volume of Water in Undisturbed Zone
VXBW  .V/V                           :22      Volume of Bound Water in Flushed Zone
VXGA  .V/V                           :23      Volume of Gas in Flushed Zone 
VXOI  .V/V                           :24      Volume of Oil in Flushed Zone 
VXWA  .V/V                           :25      Volume of Water in Flushed Zone
~Ascii Data Section
# ...
   1501.75000       0.00100       0.01000       0.00100       0.01000       0.27446       0.31216       0.17563       0.17563       2.78775       1.00000       0.00000       0.00000       0.00000       0.00000       0.53240       0.00000       0.00000       0.19314       0.00000       0.00000       0.17563       0.09883       0.00000       0.00000       0.17563 
   1501.90240       0.00100       0.01000       0.00100       0.01000       0.26931       0.30676       0.17115       0.17115       2.78586       1.00000       0.00000       0.00000       0.00000       0.00000       0.52882       0.00000       0.00000       0.20187       0.00000       0.00000       0.17115       0.09816       0.00000       0.00000       0.17115 
   1502.05480       0.00100       0.01000       0.00100       0.01000       0.26605       0.30314       0.16883       0.16883       2.78396       1.00000       0.00000       0.00000       0.00000       0.00000       0.52374       0.00000       0.00000       0.21021       0.00000       0.00000       0.16883       0.09722       0.00000       0.00000       0.16883 
   1502.20720       0.00100       0.01000       0.00100       0.01000       0.25947       0.29825       0.15784       0.15784       2.78879       1.00000       0.00000       0.00000       0.00000       0.00000       0.54752       0.00000       0.00000       0.19301       0.00000       0.00000       0.15784       0.10164       0.00000       0.00000       0.15784 
   1502.35960       0.00100       0.01000       0.00100       0.01000       0.25609       0.29567       0.15234       0.15234       2.79104       1.00000       0.00000       0.00000       0.00000       0.00000       0.55891       0.00000       0.00000       0.18501       0.00000       0.00000       0.15234       0.10375       0.00000       0.00000       0.15234 
   1502.51200       0.00100       0.01000       0.00100       0.01000       0.25769       0.29584       0.15769       0.15769       2.78623       1.00000       0.00000       0.00000       0.00000       0.00000       0.53871       0.00000       0.00000       0.20360       0.00000       0.00000       0.15769       0.10000       0.00000       0.00000       0.15769 
   1502.66440       0.00100       0.01000       0.00100       0.01000       0.25334       0.29103       0.15455       0.15455       2.78380       1.00000       0.00000       0.00000       0.00000       0.00000       0.53218       0.00000       0.00000       0.21447       0.00000       0.00000       0.15455       0.09879       0.00000       0.00000       0.15455 
   1502.81680       0.00100       0.01000       0.00100       0.01000       0.25325       0.29011       0.15666       0.15666       2.78082       1.00000       0.00000       0.00000       0.00000       0.00000       0.52038       0.00000       0.00000       0.22637       0.00000       0.00000       0.15666       0.09660       0.00000       0.00000       0.15666 
   1502.96920       0.00100       0.01000       0.00100       0.01000       0.24583       0.28265       0.14931       0.14931       2.77942       1.00000       0.00000       0.00000       0.00000       0.00000       0.51994       0.00000       0.00000       0.23423       0.00000       0.00000       0.14931       0.09652       0.00000       0.00000       0.14931 
   1503.12160       0.00100       0.01096       0.00100       0.01096       0.24178       0.27580       0.15261       0.15261       2.76893       1.00000       0.00000       0.00000       0.00000       0.00000       0.48034       0.00000       0.00000       0.27788       0.00000       0.00000       0.15261       0.08916       0.00000       0.00000       0.15261 
   1503.27400       0.00100       0.01623       0.00100       0.01623       0.23808       0.27039       0.15338       0.15338       2.76243       1.00000       0.00000       0.00000       0.00000       0.00000       0.45629       0.00000       0.00000       0.30563       0.00000       0.00000       0.15338       0.08470       0.00000       0.00000       0.15338 
   1503.42640       0.00100       0.02036       0.00100       0.02036       0.23078       0.26208       0.14874       0.14874       2.75787       1.00000       0.00000       0.00000       0.00000       0.00000       0.44197       0.00000       0.00000       0.32725       0.00000       0.00000       0.14874       0.08204       0.00000       0.00000       0.14874 
   1503.57880       0.00100       0.01520       0.00100       0.01520       0.22792       0.26001       0.14383       0.14383       2.76014       1.00000       0.00000       0.00000       0.00000       0.00000       0.45300       0.00000       0.00000       0.31908       0.00000       0.00000       0.14383       0.08409       0.00000       0.00000       0.14383 
   1503.73120       0.00100       0.01196       0.00100       0.01196       0.22964       0.26251       0.14350       0.14350       2.76308       1.00000       0.00000       0.00000       0.00000       0.00000       0.46403       0.00000       0.00000       0.30633       0.00000       0.00000       0.14350       0.08614       0.00000       0.00000       0.14350 
   1503.88360       0.00100       0.01363       0.00100       0.01363       0.23454       0.26722       0.14890       0.14890       2.76315       1.00000       0.00000       0.00000       0.00000       0.00000       0.46136       0.00000       0.00000       0.30410       0.00000       0.00000       0.14890       0.08564       0.00000       0.00000       0.14890 
   1504.03600       0.00100       0.01198       0.00100       0.01198       0.23505       0.26814       0.14832       0.14832       2.76465       1.00000       0.00000       0.00000       0.00000       0.00000       0.46720       0.00000       0.00000       0.29775       0.00000       0.00000       0.14832       0.08673       0.00000       0.00000       0.14832 
   1504.18840       0.00100       0.01661       0.00100       0.01661       0.24011       0.27244       0.15540       0.15540       2.76274       1.00000       0.00000       0.00000       0.00000       0.00000       0.45638       0.00000       0.00000       0.30350       0.00000       0.00000       0.15540       0.08472       0.00000       0.00000       0.15540 
   1504.34080       0.00100       0.02058       0.00100       0.02058       0.24201       0.27374       0.15885       0.15885       2.76095       1.00000       0.00000       0.00000       0.00000       0.00000       0.44799       0.00000       0.00000       0.31000       0.00000       0.00000       0.15885       0.08316       0.00000       0.00000       0.15885 
   1504.49320       0.00100       0.02244       0.00100       0.02244       0.23789       0.26919       0.15586       0.15586       2.75886       1.00000       0.00000       0.00000       0.00000       0.00000       0.44194       0.00000       0.00000       0.32016       0.00000       0.00000       0.15586       0.08204       0.00000       0.00000       0.15586 
   1504.64560       0.00100       0.01626       0.00100       0.01626       0.22418       0.25588       0.14108       0.14108       2.75831       1.00000       0.00000       0.00000       0.00000       0.00000       0.44764       0.00000       0.00000       0.32819       0.00000       0.00000       0.14108       0.08309       0.00000       0.00000       0.14108 
   1504.79800       0.00100       0.02128       0.00100       0.02128       0.22515       0.25609       0.14408       0.14408       2.75582       1.00000       0.00000       0.00000       0.00000       0.00000       0.43677       0.00000       0.00000       0.33808       0.00000       0.00000       0.14408       0.08108       0.00000       0.00000       0.14408 
   1504.95040       0.00100       0.01539       0.00100       0.01539       0.22409       0.25597       0.14053       0.14053       2.75890       1.00000       0.00000       0.00000       0.00000       0.00000       0.45012       0.00000       0.00000       0.32579       0.00000       0.00000       0.14053       0.08356       0.00000       0.00000       0.14053 
