~VERSION INFORMATION
 VERS.               1.20:   CWLS LOG ASCII STANDARD - VERSION 1.20
 WRAP.                 NO:   ONE LINE PER DEPTH STEP
~WELL INFORMATION
#MNEM.UNIT      DATA TYPE    INFORMATION
#----------   ------------   ------------------------------
 STRT.M          500.1524:   START DEPTH
 STOP.M         2803.2212:   STOP DEPTH
 STEP.M            0.1524:   STEP LENGTH
 NULL.          -999.2500:   NO VALUE
 COMP.            COMPANY:   PERTAMINA
 WELL.               WELL:   CMS-005
 WBN .            CMS-005:   WELLBORE
 FLD .              FIELD:   CEMARA SELATAN
 LOC .           LOCATION:   X = - 15283.31  Y = + 8483.38
 PROV.           PROVINCE:   JAWA BARAT
 STAT.              STATE:   INDONESIA
 SRVC.    SERVICE COMPANY:   SCHLUMBERGER
 DATE.            LOGDATE:   01/24/78
 APIN.         API NUMBER:   -
 UWI .  CEMARASELATAN-005:   UNIQUE WELL ID 
~CURVE INFORMATION
#MNEM.UNIT       API CODE    CURVE DESCRIPTION
#----------   ------------   ------------------------------
 DEPT.M                  :
 CALI.inch   60 280 00 00:   Caliper
 GR  .GAPI   42 310 00 00:   Gamma Ray
 SP  .mV     60 010 01 00:   Spontaneous Potential
 ILD .ohmm   05 070 46 00:   Induction Laterolog, Deep
 SN  .ohmm   05 040 16 00:   Short Normal 16"
 PROX.ohmm   21 270 30 00:   Proximity Log
 NPHI.%      42 890 03 00:   Neu. Porosity, Ss [%]
 RHOB.kg/cm3 42 350 01 00:   Bulk Density
 CBL .mV     81 524 00 00:   Cement Bond Log
 DRHO.kg/m3  42 356 01 00:   Density Correction
~PARAMETER INFORMATION
#MNEM.UNIT          VALUE    DESCRIPTION
#----------   ------------   ------------------------------
 EKB .M            0.0000:   Kelly bushing
 EGL .M            4.7500:   Ground level
 EDF .M           10.0000:   Drilling floor
 EPD .M           10.0000:   Permanent datum
 TD  .M         2793.0000:   Total depth
 DF  .      CONGLONGMERAT:   Deepest formation
 PROJ.       SCHLUMBERGER:   Project
 DATE.           01/24/78:   Date logged
 DD  .Mtr            2793:   Depth driller
 DL  .Mtr          2762.3:   Depth logger
 BLI .Mtr            2762:   Bottom log interval
 TLI .Mtr             500:   Top log interval
 CSS .Inch             7":   Casing size
 CTD1.Mtr     7" @ 2581,7:   Casing driller 1
 CTL1.Mtr          2581,7:   Casing logger 1
 BS  .Inch          6 1/8:   Bit size
 DFT .           Spersene:   Type fluid in hole
 DFD .G/c3           1.18:   Density
 DFV .Sec              58:   Viscosity
 COL .Inch           6-16:   Column depth/dia.
 DFPH.                 10:   pH
 DFL .Ml             2.75:   Fluid loss
 WSS .           Flowline:   Source of sample
 RM  .Ohmm           1.07:   Rm
 EMT .Degf 1.07 ohmm @ 83:   Rm Meas. temp.
 RMF .Ohmm           0.57:   Rmf
 MFT .Degf 0.57 ohmm @ 83:   Rmf Meas. temp.
 RMC .Ohmm           1.78:   Rmc
 MCST.Degf 1.78 ohmm @ 83:   Rmc Meas. temp.
 MFSS.              Press:   Source Rmf.
 MCSS.              Press:   Source Rmc.
 RMB .Degf 0.4 ohmm @ 232:   Rm. at BHT
 BHT .Degf            232:   BHT.
 TCS .Hrs               7:   Time Circ. stopped
 MRT .Degf            232:   Maximum recorded temp.
 LUN .               4618:   Logging unit number
 LUL .                WJV:   Logging unit location
 ENGI.           M. Akbar:   Recorded By
 WITN.           M.Dasuki:   Witnessed by
 RE1 .       ILD  (6FF40):   Res. Electrode #1
 RE2 .      SN   (A-16"M):   Res. Electrode #2
 DATE.           02/16/78:   Date logged
 DATE.           03/13/78:   Date logged
 DD  .Mtr            1260:   Depth driller
 DD  .Mtr            2610:   Depth driller
 DL  .Mtr            1260:   Depth logger
 DL  .Mtr            2610:   Depth logger
 BLI .Mtr            1260:   Bottom log interval
 BLI .Mtr          2605.8:   Bottom log interval
 TLI .Mtr             500:   Top log interval
 TLI .Mtr          1254.5:   Top log interval
 CSS .Inch         13 3/8:   Casing size
 CSS .Inch          9 5/8:   Casing size
 CTD1.Mtr             500:   Casing driller 1
 CTD1.Mtr            1254:   Casing driller 1
 CTL1.Mtr             500:   Casing logger 1
 CTL1.Mtr          1254.5:   Casing logger 1
 BS  .Inch         12 1/4:   Bit size
 BS  .Inch          8 5/8:   Bit size
 DFT .           spersene:   Type fluid in hole
 DFT .           spersene:   Type fluid in hole
 DFD .G/c3           1.12:   Density
 DFD .G/c3           1.18:   Density
 DFV .Sec              47:   Viscosity
 DFV .Sec              58:   Viscosity
 DFPH.                  9:   pH
 DFPH.                 10:   pH
 DFL .Ml              5.5:   Fluid loss
 DFL .Ml             2.75:   Fluid loss
 WSS .           flowline:   Source of sample
 WSS .           flowline:   Source of sample
 RM  .Ohmm           1.19:   Rm
 RM  .Ohmm           1.07:   Rm
 EMT .Degf             80:   Rm Meas. temp.
 EMT .Degf             83:   Rm Meas. temp.
 RMF .Ohmm            0.8:   Rmf
 RMF .Ohmm           0.57:   Rmf
 MFT .Degf             80:   Rmf Meas. temp.
 MFT .Degf             83:   Rmf Meas. temp.
 RMC .Ohmm           1.52:   Rmc
 RMC .Ohmm           1.78:   Rmc
 MCST.Degf             80:   Rmc Meas. temp.
 MCST.Degf             83:   Rmc Meas. temp.
 MFSS.                  p:   Source Rmf.
 MFSS.                  p:   Source Rmf.
 MCSS.                  p:   Source Rmc.
 MCSS.                  p:   Source Rmc.
 RMB .Degf 0.63 ohmm @ 150:   Rm. at BHT
 RMB .Degf 0.4 ohmm @ 232:   Rm. at BHT
 BHT .Degf            150:   BHT.
 BHT .Degf            232:   BHT.
 TCS .Hrs               3:   Time Circ. stopped
 TCS .Hrs               7:   Time Circ. stopped
 MRT .Degf            150:   Maximum recorded temp.
 MRT .Degf            232:   Maximum recorded temp.
 LUN .               4618:   Logging unit number
 LUN .               4618:   Logging unit number
 LUL .                wjv:   Logging unit location
 LUL .                wjv:   Logging unit location
 ENGI.           M. Akbar:   Recorded By
 ENGI.           M. Akbar:   Recorded By
 WITN.            Y. Rais:   Witnessed by
 WITN.          M. Dasuki:   Witnessed by
 RE1 .                ILD:   Res. Electrode #1
 RE1 .                ILD:   Res. Electrode #1
 RE2 .                 SN:   Res. Electrode #2
 RE2 .                 SN:   Res. Electrode #2
 TLAB.hh:mm             3:   Time Logger At Bottom
 TLAB.hh:mm             7:   Time Logger At Bottom
 TLAB.hh:mm             7:   Time Logger At Bottom
 DGBY.            Sukarna:   Digitized By
 DGBY.            Sukarna:   Digitized By
 DGBY.            Sukarna:   Digitized By
~T 1 Tops
D1(1453-1455)                    1453.0
~OTHER INFORMATION
# Bridleless tool, Log was correlated with cs. run no.3 4M too deep compared with run.2
~A  DEPTH     CALI         GR         SP        ILD         SN       PROX       NPHI       RHOB        CBL       DRHO
# ...
  816.6870    15.0846  -999.2500   -27.6570     0.5456     0.5745     0.8792  -999.2500  -999.2500  -999.2500  -999.2500
  816.8400    15.0386  -999.2500   -28.1166     0.5418     0.6040     0.7205  -999.2500  -999.2500  -999.2500  -999.2500
  816.9920    15.0079  -999.2500   -28.4205     0.5381     0.6172     0.7573  -999.2500  -999.2500  -999.2500  -999.2500
  817.1440    15.0236  -999.2500   -28.4144     0.5382     0.6174     0.7627  -999.2500  -999.2500  -999.2500  -999.2500
  817.2970    15.0392  -999.2500   -28.5648     0.5344     0.6002     0.7309  -999.2500  -999.2500  -999.2500  -999.2500
  817.4490    15.0394  -999.2500   -28.7145     0.5269     0.5711     0.7573  -999.2500  -999.2500  -999.2500  -999.2500
  817.6020    15.0241  -999.2500   -28.8637     0.5233     0.5632     0.7848  -999.2500  -999.2500  -999.2500  -999.2500
  817.7540    15.0398  -999.2500   -28.8575     0.5234     0.5593     0.7793  -999.2500  -999.2500  -999.2500  -999.2500
  817.9060    15.0710  -999.2500   -28.6977     0.5235     0.5675     0.7628  -999.2500  -999.2500  -999.2500  -999.2500
  818.0590    15.1481  -999.2500   -28.2301     0.5198     0.5758     0.7628  -999.2500  -999.2500  -999.2500  -999.2500
  818.2110    15.1328  -999.2500   -28.0704     0.5126     0.5842     0.7793  -999.2500  -999.2500  -999.2500  -999.2500
  818.3640    15.1176  -999.2500   -28.0652     0.5090     0.5844     0.7629  -999.2500  -999.2500  -999.2500  -999.2500
  818.5160    15.1024  -999.2500   -27.9055     0.5055     0.5804     0.7521  -999.2500  -999.2500  -999.2500  -999.2500
  818.6680    15.0872  -999.2500   -27.9004     0.5056     0.5805     0.7055  -999.2500  -999.2500  -999.2500  -999.2500
  818.8210    15.0874  -999.2500   -28.8226     0.5057     0.5848     0.7259  -999.2500  -999.2500  -999.2500  -999.2500
  818.9730    15.0720  -999.2500   -29.2822     0.5021     0.5767     0.8019  -999.2500  -999.2500  -999.2500  -999.2500
  819.1260    15.0261  -999.2500   -28.5033     0.5058     0.5647     0.7685  -999.2500  -999.2500  -999.2500  -999.2500
  819.2780    14.9647  -999.2500   -28.0344     0.5096     0.5568     0.7851  -999.2500  -999.2500  -999.2500  -999.2500
  819.4300    14.9341  -999.2500   -27.8748     0.5096     0.5530     0.7260  -999.2500  -999.2500  -999.2500  -999.2500
  819.5830    14.9189  -999.2500   -28.3333     0.5134     0.5492     0.8078  -999.2500  -999.2500  -999.2500  -999.2500
  819.7350    15.0117  -999.2500   -28.4838     0.5246     0.5533     0.8252  -999.2500  -999.2500  -999.2500  -999.2500
  819.8880    15.1042  -999.2500   -28.1695     0.5284     0.5574     0.8078  -999.2500  -999.2500  -999.2500  -999.2500
  820.0400    15.1352  -999.2500   -28.6291     0.5399     0.5737     0.8798  -999.2500  -999.2500  -999.2500  -999.2500
  820.1920    15.0738  -999.2500   -28.6225     0.5518     0.6076     0.8371  -999.2500  -999.2500  -999.2500  -999.2500
  820.3450    15.0740  -999.2500   -28.4632     0.5718     0.6342     0.8552  -999.2500  -999.2500  -999.2500  -999.2500
  820.4970    15.1513  -999.2500   -28.1490     0.5885     0.6435     0.8431  -999.2500  -999.2500  -999.2500  -999.2500
  820.6500    15.2131  -999.2500   -28.2994     0.6056     0.6436     0.8552  -999.2500  -999.2500  -999.2500  -999.2500
  820.8020    15.2133  -999.2500   -28.2933     0.6058     0.6392     0.8195  -999.2500  -999.2500  -999.2500  -999.2500
  820.9540    15.1980  -999.2500   -28.1332     0.5888     0.6303     0.8313  -999.2500  -999.2500  -999.2500  -999.2500
  821.1070    15.1983  -999.2500   -27.9739     0.5723     0.6216     0.7853  -999.2500  -999.2500  -999.2500  -999.2500
  821.2590    15.2140  -999.2500   -27.8142     0.5563     0.6043     0.7910  -999.2500  -999.2500  -999.2500  -999.2500
  821.4120    15.2604  -999.2500   -27.8091     0.5485     0.5791     0.7526  -999.2500  -999.2500  -999.2500  -999.2500
  821.5640    15.3221  -999.2500   -27.9595     0.5447     0.5590     0.7367  -999.2500  -999.2500  -999.2500  -999.2500
  821.7160    15.3377  -999.2500   -28.1090     0.5410     0.5551     0.7580  -999.2500  -999.2500  -999.2500  -999.2500
  821.8690    15.3225  -999.2500   -27.7937     0.5372     0.5513     0.7315  -999.2500  -999.2500  -999.2500  -999.2500
  822.0210    15.2764  -999.2500   -27.3249     0.5259     0.5515     0.7420  -999.2500  -999.2500  -999.2500  -999.2500
  822.1740    15.2612  -999.2500   -27.4763     0.5149     0.5477     0.7368  -999.2500  -999.2500  -999.2500  -999.2500
  822.3260    15.2615  -999.2500   -27.9349     0.5077     0.5401     0.7213  -999.2500  -999.2500  -999.2500  -999.2500
  822.4780    15.2308  -999.2500   -27.7727     0.4935     0.5326     0.7421  -999.2500  -999.2500  -999.2500  -999.2500
  822.6310    15.2465  -999.2500   -27.1508     0.4797     0.5327     0.7369  -999.2500  -999.2500  -999.2500  -999.2500
  822.7830    15.2621  -999.2500   -27.3015     0.4696     0.5329     0.7475  -999.2500  -999.2500  -999.2500  -999.2500
  822.9360    15.2777  -999.2500   -27.4507     0.4597     0.5330     0.7112  -999.2500  -999.2500  -999.2500  -999.2500
  823.0880    15.2933  -999.2500   -27.4445     0.4598     0.5332     0.7062  -999.2500  -999.2500  -999.2500  -999.2500
  823.2400    15.3089  -999.2500   -27.7495     0.4566     0.5295     0.7318  -999.2500  -999.2500  -999.2500  -999.2500
  823.3930    15.2783  -999.2500   -27.7434     0.4567     0.5297     0.7214  -999.2500  -999.2500  -999.2500  -999.2500
  823.5450    15.2785  -999.2500   -27.7379     0.4568     0.5298     0.7476  -999.2500  -999.2500  -999.2500  -999.2500
  823.6980    15.2633  -999.2500   -27.4240     0.4569     0.5337     0.7062  -999.2500  -999.2500  -999.2500  -999.2500
  823.8500    15.2635  -999.2500   -27.2643     0.4602     0.5339     0.7583  -999.2500  -999.2500  -999.2500  -999.2500
  824.0020    15.2791  -999.2500   -27.4149     0.4669     0.5340     0.7370  -999.2500  -999.2500  -999.2500  -999.2500
  824.1550    15.2793  -999.2500   -27.8733     0.4737     0.5341     0.7164  -999.2500  -999.2500  -999.2500  -999.2500
  824.3070    15.2795  -999.2500   -28.1773     0.4806     0.5343     0.7320  -999.2500  -999.2500  -999.2500  -999.2500
  824.4600    15.2489  -999.2500   -27.8631     0.4911     0.5421     0.7748  -999.2500  -999.2500  -999.2500  -999.2500
  824.6120    15.2182  -999.2500   -27.7034     0.5054     0.5461     0.8559  -999.2500  -999.2500  -999.2500  -999.2500
  824.7640    15.2184  -999.2500   -27.3887     0.5239     0.5623     0.8744  -999.2500  -999.2500  -999.2500  -999.2500
  824.9170    15.2032  -999.2500   -27.2294     0.5429     0.6168     0.8807  -999.2500  -999.2500  -999.2500  -999.2500
  825.0690    15.2266  -999.2500   -27.9322     0.5588     0.6673     0.8142  -999.2500  -999.2500  -999.2500  -999.2500
  825.2220    15.2727  -999.2500   -27.9731     0.5629     0.6722     0.6916  -999.2500  -999.2500  -999.2500  -999.2500
  825.3740    15.2726  -999.2500   -28.0141     0.5590     0.6489     0.7321  -999.2500  -999.2500  -999.2500  -999.2500
  825.5260    15.2263  -999.2500   -28.0552     0.5551     0.6130     0.7218  -999.2500  -999.2500  -999.2500  -999.2500
  825.6790    15.2263  -999.2500   -28.0961     0.5396     0.5792     0.7269  -999.2500  -999.2500  -999.2500  -999.2500
  825.8310    15.2108  -999.2500   -28.1373     0.5097     0.5631     0.7167  -999.2500  -999.2500  -999.2500  -999.2500
  825.9840    15.2108  -999.2500   -28.1782     0.4954     0.5632     0.7270  -999.2500  -999.2500  -999.2500  -999.2500
  826.1360    15.1799  -999.2500   -28.2192     0.4920     0.5756     0.7066  -999.2500  -999.2500  -999.2500  -999.2500
  826.2880    15.1491  -999.2500   -28.2603     0.4886     0.5840     0.7271  -999.2500  -999.2500  -999.2500  -999.2500
  826.4410    15.1644  -999.2500   -28.3012     0.5029     0.5841     0.7587  -999.2500  -999.2500  -999.2500  -999.2500
  826.5930    15.1490  -999.2500   -28.3422     0.5175     0.5843     0.7067  -999.2500  -999.2500  -999.2500  -999.2500
  826.7460    15.1335  -999.2500   -28.3833     0.5326     0.5802     0.7481  -999.2500  -999.2500  -999.2500  -999.2500
