~Version Information
VERS  .          2.0                              :CWLS Log Ascii Standard - Version 2.0
WRAP  .          NO                               :One line per depth step
~Well Information Block
#MNEM.UNIT       Data Type                        Information
#---------       ---------                        -------------------------------
STRT  .M         501.09100                        :START DEPTH
STOP  .M         2801.87400                       :STOP DEPTH
STEP  .M          0.15240                         :INCREMENT
NULL  .          -999.25                          :NULL DATA VALUE
COMP  .          PERTAMINA                        :COMPANY
WELL  .          CMS-005                          :WELL
WBN   .          CMS-005                          :WELLBORE
FLD   .          CEMARA SELATAN                   :FIELD
LOC   .                                           :LOCATION
PROV  .          INDONESIA                        :PROVINCE
STAT  .          INDONESIA                        :STATE
CNTY  .                                           :COUNTY
CTRY  .                                           :COUNTRY
DATE  .                                           :DATE
UWI   .          CEMARASELATAN-005                :UNIQUE WELL UWI
LIC   .                                           :LICENSE NUMBER
API   .                                           :API NUMBER
SRVC  .                                           :SERVICE COMPANY
~Parameter Information Block
#MNEM.UNIT       Value                            Description
#---------       ---------                        -------------
LONG  .DEG       108.170923                       :Well Surface Location
LATI  .DEG       -6.423032                        :Well Surface Location
XWELL .M         187032.670000                    :X-coordinate of Well Head
YWELL .M         9289167.261000                   :Y-coordinate of Well Head
~Curve Information Block
#MNEM.UNIT       API Code            Curve    Description
#--------        --------------      -----    -------------------
DEPT  .M                             :0       Index
KGAS  .MD                            :1       Permeability to Gas           
KINT  .MD                            :2       Intrinsic Permeability        
KOIL  .MD                            :3       Permeability to Oil           
KWTR  .MD                            :4       Permeability to Water         
PHIT  .V/V                           :5       Total Porosity_ includes all forms of porosity, including that occupied by bound fluids, and is independent of rock and fluid materials and of environmental effects
PHTT  .V/V                           :6       Theoretical PHIT Value        
PIGE  .V/V                           :7       Effective Porosity Less Irreducible Water
PIGN  .V/V                           :8       Effective Porosity, VISO, VPAR, and Bound Water Removed
SUWI  .V/V                           :9       Non-Clay Water Intergranular Water Saturation for Undisturbed Zone
VILL  .V/V                           :10      Volume of Illite (dry) Relative to Total Volume
~Ascii Data Section
# ...
   1459.99180       0.01149       0.53779       0.00100       0.01000       0.26203       0.28443       0.20419       0.20419       0.97864       0.31635 
   1460.14420       0.00100       0.08477       0.00100       0.08477       0.26346       0.29233       0.19115       0.19115       1.00000       0.39546 
   1460.29660       0.00100       0.02536       0.00100       0.02536       0.26987       0.30268       0.18768       0.18768       1.00000       0.44951 
   1460.44900       0.00100       0.01442       0.00100       0.01442       0.27876       0.31356       0.19161       0.19161       1.00000       0.47666 
   1460.60140       0.00100       0.01144       0.00100       0.01144       0.28011       0.31566       0.19108       0.19108       1.00000       0.48694 
   1460.75380       0.00100       0.01414       0.00100       0.01414       0.27616       0.31095       0.18901       0.18901       1.00000       0.47664 
   1460.90620       0.00100       0.03969       0.00100       0.03969       0.28315       0.31490       0.20362       0.20362       1.00000       0.43495 
   1461.05860       0.00100       0.04346       0.00100       0.04346       0.27359       0.30483       0.19535       0.19535       1.00000       0.42790 
   1461.21100       0.00100       0.04048       0.00100       0.04048       0.26403       0.29522       0.18591       0.18591       1.00000       0.42725 
   1461.36340       0.00100       0.04016       0.00100       0.04016       0.25671       0.28769       0.17910       0.17910       1.00000       0.42443 
   1461.51580       0.00100       0.02702       0.00100       0.02702       0.24783       0.27974       0.16788       0.16788       1.00000       0.43721 
   1461.66820       0.00100       0.02112       0.00100       0.02112       0.24127       0.27327       0.16111       0.16111       1.00000       0.43838 
   1461.82060       0.00100       0.01610       0.00100       0.01610       0.23956       0.27075       0.16146       0.16146       1.00000       0.42717 
   1461.97300       0.00100       0.01000       0.00100       0.01000       0.23131       0.26164       0.15536       0.15536       1.00000       0.41538 
   1462.12540       0.00100       0.01000       0.00100       0.01000       0.23424       0.26414       0.15935       0.15935       1.00000       0.40959 
   1462.27780       0.00100       0.01000       0.00100       0.01000       0.22921       0.25730       0.15881       0.15881       1.00000       0.38502 
   1462.43020       0.00100       0.01053       0.00100       0.01053       0.21426       0.23741       0.15614       0.15614       1.00000       0.31786 
   1462.58260       0.00100       0.01336       0.00100       0.01336       0.18951       0.20918       0.14026       0.14026       1.00000       0.26935 
   1462.73500       0.00100       0.02848       0.00100       0.02848       0.17214       0.18681       0.13539       0.13539       1.00000       0.20097 
   1462.88740       0.00100       0.27424       0.00100       0.27424       0.16645       0.17579       0.14306       0.14306       1.00000       0.12793 
   1463.03980       0.00100       0.66934       0.00100       0.66934       0.17204       0.18022       0.15153       0.15153       1.00000       0.11213 
   1463.19220       0.02243       1.33618       0.00100       0.32467       0.18084       0.18826       0.16127       0.16127       0.92688       0.10706 
   1463.34460       0.37956       2.41042       0.00100       0.01000       0.19606       0.20338       0.17513       0.17513       0.81062       0.11447 
   1463.49700       0.70018       3.36936       0.00100       0.01000       0.20567       0.21347       0.18295       0.18295       0.77677       0.12429 
   1463.64940       1.27653       6.71056       0.00100       0.04208       0.21527       0.22272       0.19300       0.19300       0.75855       0.12182 
   1463.80180       0.65342       6.63361       0.00100       0.37332       0.21205       0.21990       0.18960       0.18960       0.81281       0.12278 
   1463.95420       0.03801       3.66475       0.00100       1.38246       0.19462       0.20355       0.17114       0.17114       0.92178       0.12845 
   1464.10660       0.00100       1.90454       0.00100       1.90454       0.18095       0.19128       0.15498       0.15498       1.00000       0.14204 
   1464.25900       0.00100       3.15698       0.00100       2.83295       0.18419       0.19452       0.15806       0.15806       0.98934       0.14295 
   1464.41140       0.01580       4.17668       0.00100       2.24399       0.19001       0.20042       0.16305       0.16305       0.94037       0.14747 
   1464.56380       0.04533       1.99762       0.00100       0.43613       0.19213       0.20417       0.16073       0.16073       0.91051       0.17174 
   1464.71620       0.00100       0.08904       0.00100       0.08904       0.17272       0.18943       0.13068       0.13068       1.00000       0.22993 
   1464.86860       0.00100       0.09431       0.00100       0.09431       0.16209       0.17790       0.12248       0.12248       1.00000       0.21667 
   1465.02100       0.00100       0.36633       0.00100       0.36633       0.15938       0.17198       0.12782       0.12782       1.00000       0.17261 
   1465.17340       0.00100       1.99040       0.00100       1.99040       0.16931       0.17912       0.14476       0.14476       1.00000       0.13429 
   1465.32580       0.00100       8.46712       0.00100       8.46712       0.18303       0.19153       0.16176       0.16176       1.00000       0.11635 
   1465.47820       0.00100       3.87969       0.00100       3.87969       0.18916       0.20140       0.15851       0.15851       1.00000       0.16764 
   1465.63060       0.00100       3.59467       0.00100       3.59467       0.22244       0.23786       0.18358       0.18358       1.00000       0.21253 
   1465.78300       0.00100       0.58536       0.00100       0.58536       0.23162       0.25281       0.17838       0.17838       1.00000       0.29117 
   1465.93540       0.00100       0.07437       0.00100       0.07437       0.23173       0.25667       0.16903       0.16903       1.00000       0.34290 
   1466.08780       0.00100       0.04578       0.00100       0.04578       0.23243       0.25816       0.16779       0.16779       1.00000       0.35352 
   1466.24020       0.00100       0.07441       0.00100       0.07441       0.23692       0.26124       0.17574       0.17574       1.00000       0.33455 
   1466.39260       0.00100       0.02478       0.00100       0.02478       0.22651       0.25122       0.16432       0.16432       1.00000       0.34015 
   1466.54500       0.00100       0.02009       0.00100       0.02009       0.21340       0.23573       0.15721       0.15721       1.00000       0.30732 
   1466.69740       0.00100       0.03041       0.00100       0.03041       0.19796       0.21665       0.15098       0.15098       1.00000       0.25698 
   1466.84980       0.00100       0.09723       0.00100       0.09723       0.17695       0.19094       0.14191       0.14191       1.00000       0.19164 
   1467.00220       0.00100       0.40801       0.00100       0.40801       0.16635       0.17628       0.14149       0.14149       1.00000       0.13600 
   1467.15460       0.00100       4.02572       0.00100       4.02572       0.16768       0.17302       0.15431       0.15431       1.00000       0.07315 
   1467.30700       0.00100      35.51830       0.00100      35.51830       0.18161       0.18455       0.17426       0.17426       1.00000       0.04022 
   1467.45940       0.00100      38.94849       0.00100      38.94849       0.20746       0.21473       0.18924       0.18924       1.00000       0.09966 
   1467.61180       0.00100      24.95612       0.00100      24.95612       0.23868       0.24837       0.21284       0.21284       1.00000       0.14131 
   1467.76420       0.00100       4.54816       0.00100       4.54816       0.25516       0.27083       0.21442       0.21442       1.00000       0.22281 
