~Version Information
VERS  .          2.0                              :CWLS Log Ascii Standard - Version 2.0
WRAP  .          NO                               :One line per depth step
~Well Information Block
#MNEM.UNIT       Data Type                        Information
#---------       ---------                        -------------------------------
STRT  .M         501.09100                        :START DEPTH
STOP  .M         2801.87400                       :STOP DEPTH
STEP  .M          0.15240                         :INCREMENT
NULL  .          -999.25                          :NULL DATA VALUE
COMP  .          PERTAMINA                        :COMPANY
WELL  .          CMS-005                          :WELL
WBN   .          CMS-005                          :WELLBORE
FLD   .          CEMARA SELATAN                   :FIELD
LOC   .                                           :LOCATION
PROV  .          INDONESIA                        :PROVINCE
STAT  .          INDONESIA                        :STATE
CNTY  .                                           :COUNTY
CTRY  .                                           :COUNTRY
DATE  .                                           :DATE
UWI   .          CEMARASELATAN-005                :UNIQUE WELL UWI
LIC   .                                           :LICENSE NUMBER
API   .                                           :API NUMBER
SRVC  .                                           :SERVICE COMPANY
~Parameter Information Block
#MNEM.UNIT       Value                            Description
#---------       ---------                        -------------
LONG  .DEG       108.170923                       :Well Surface Location
LATI  .DEG       -6.423032                        :Well Surface Location
XWELL .M         187032.670000                    :X-coordinate of Well Head
YWELL .M         9289167.261000                   :Y-coordinate of Well Head
~Curve Information Block
#MNEM.UNIT       API Code            Curve    Description
#--------        --------------      -----    -------------------
DEPT  .M                             :0       Index
KGAS  .MD                            :1       Permeability to Gas           
KINT  .MD                            :2       Intrinsic Permeability        
KOIL  .MD                            :3       Permeability to Oil           
KWTR  .MD                            :4       Permeability to Water         
PHIT  .V/V                           :5       Total Porosity_ includes all forms of porosity, including that occupied by bound fluids, and is independent of rock and fluid materials and of environmental effects
PHTT  .V/V                           :6       Theoretical PHIT Value        
PIGE  .V/V                           :7       Effective Porosity Less Irreducible Water
PIGN  .V/V                           :8       Effective Porosity, VISO, VPAR, and Bound Water Removed
SUWI  .V/V                           :9       Non-Clay Water Intergranular Water Saturation for Undisturbed Zone
VILL  .V/V                           :10      Volume of Illite (dry) Relative to Total Volume
~Ascii Data Section
# ...
   2585.31340       0.00100       0.14541       0.00100       0.14541       0.15966       0.20093       0.12760       0.12760       1.00000       0.31930 
   2585.46580       0.00100       0.08834       0.00100       0.08834       0.16382       0.20956       0.12893       0.12893       1.00000       0.34752 
   2585.61820       0.00100       0.12254       0.00100       0.12254       0.18368       0.23005       0.14848       0.14848       1.00000       0.35070 
   2585.77060       0.00100       0.11839       0.00100       0.11839       0.19761       0.24667       0.16112       0.16112       1.00000       0.36349 
   2585.92300       0.00100       0.12063       0.00100       0.12063       0.20945       0.25992       0.17222       0.17222       1.00000       0.37091 
   2586.07540       0.00100       0.15001       0.00100       0.15001       0.21755       0.26701       0.18082       0.18082       1.00000       0.36578 
   2586.22780       0.00100       0.27613       0.00100       0.27613       0.22476       0.26909       0.19048       0.19048       1.00000       0.34157 
   2586.38020       0.00100       0.51847       0.00100       0.51847       0.23034       0.27115       0.19866       0.19866       1.00000       0.31562 
   2586.53260       0.00173       0.69150       0.00100       0.01000       0.23832       0.27862       0.20752       0.20752       0.99750       0.30680 
   2586.68500       0.00100       0.55440       0.00100       0.55440       0.23205       0.27386       0.20058       0.20058       1.00000       0.31349 
   2586.83740       0.00100       0.85891       0.00100       0.85891       0.22913       0.26826       0.19984       0.19984       1.00000       0.29172 
   2586.98980       0.00100       1.17687       0.00100       1.17687       0.22520       0.26283       0.19760       0.19760       1.00000       0.27491 
   2587.14220       0.00100       2.11756       0.00100       2.11756       0.24236       0.27592       0.21781       0.21781       1.00000       0.24447 
   2587.29460       0.03700       6.42375       0.00100       2.61825       0.25746       0.28677       0.23569       0.23569       0.95053       0.21692 
   2587.44700       0.15725       3.62121       0.00100       0.18746       0.25581       0.28762       0.23158       0.23158       0.91961       0.24136 
   2587.59940       0.15913       1.63676       0.00100       0.01000       0.24934       0.28512       0.22188       0.22188       0.90277       0.27350 
   2587.75180       0.00100       0.43509       0.00100       0.43509       0.22867       0.27231       0.19627       0.19627       1.00000       0.32275 
   2587.90420       0.00486       0.36358       0.00100       0.01000       0.22307       0.26736       0.19016       0.19016       0.98664       0.32778 
   2588.05660       0.00100       0.38480       0.00100       0.38480       0.21045       0.25316       0.17862       0.17862       1.00000       0.31708 
   2588.20900       0.00670       0.70760       0.00100       0.09652       0.20390       0.24136       0.17539       0.17539       0.97344       0.28405 
   2588.36140       0.00100       1.22310       0.00100       1.22310       0.18492       0.21641       0.16050       0.16050       1.00000       0.24324 
   2588.51380       0.00100       2.17384       0.00100       2.17384       0.17388       0.20073       0.15318       0.15318       1.00000       0.20621 
   2588.66620       0.00100       3.57966       0.00100       3.57966       0.16435       0.18760       0.14695       0.14695       1.00000       0.17334 
   2588.81860       0.00100       3.49041       0.00100       3.49041       0.16113       0.18468       0.14396       0.14396       1.00000       0.17108 
   2588.97100       0.00100       2.80037       0.00100       2.80037       0.16109       0.18604       0.14289       0.14289       1.00000       0.18130 
   2589.12340       0.00100       3.13267       0.00100       3.13267       0.16550       0.19036       0.14735       0.14735       1.00000       0.18075 
   2589.27580       0.00100       2.32115       0.00100       2.32115       0.16273       0.18914       0.14348       0.14348       1.00000       0.19183 
   2589.42820       0.00100       1.02810       0.00100       1.02810       0.15082       0.18065       0.12906       0.12906       1.00000       0.21673 
   2589.58060       0.00100       0.43441       0.00100       0.43441       0.13900       0.17220       0.11463       0.11463       1.00000       0.24270 
   2589.73300       0.00100       0.17596       0.00100       0.17596       0.13080       0.16766       0.10327       0.10327       1.00000       0.27418 
   2589.88540       0.00100       0.11823       0.00100       0.11823       0.13373       0.17344       0.10390       0.10390       1.00000       0.29714 
   2590.03780       0.00100       0.03890       0.00100       0.03890       0.12376       0.16887       0.09014       0.09014       1.00000       0.33488 
   2590.19020       0.00100       0.01918       0.00100       0.01918       0.11937       0.16816       0.08314       0.08314       1.00000       0.36097 
   2590.34260       0.00100       0.01623       0.00100       0.01623       0.11790       0.16774       0.08113       0.08113       1.00000       0.36629 
   2590.49500       0.00100       0.02281       0.00100       0.02281       0.12566       0.17505       0.08921       0.08921       1.00000       0.36311 
   2590.64740       0.00100       0.01253       0.00100       0.01253       0.12617       0.18012       0.08679       0.08679       1.00000       0.39228 
   2590.79980       0.00100       0.01000       0.00100       0.01000       0.12923       0.18914       0.08553       0.08553       1.00000       0.43529 
   2590.95220       0.00100       0.01000       0.00100       0.01000       0.14307       0.20718       0.09630       0.09630       1.00000       0.46586 
   2591.10460       0.00100       0.01819       0.00100       0.01819       0.17264       0.23214       0.12924       0.12924       1.00000       0.43235 
   2591.25700       0.00100       0.01468       0.00100       0.01468       0.17325       0.23426       0.12875       0.12875       1.00000       0.44329 
   2591.40940       0.00100       0.01709       0.00100       0.01709       0.17783       0.23841       0.13364       0.13364       1.00000       0.44017 
   2591.56180       0.00100       0.04331       0.00100       0.04331       0.19417       0.25044       0.15313       0.15313       1.00000       0.40887 
   2591.71420       0.00100       0.05711       0.00100       0.05711       0.20140       0.25658       0.16115       0.16115       1.00000       0.40093 
   2591.86660       0.00100       0.02997       0.00100       0.02997       0.19413       0.25283       0.15131       0.15131       1.00000       0.42651 
   2592.01900       0.00100       0.01000       0.00100       0.01000       0.18116       0.24322       0.13588       0.13588       1.00000       0.45097 
   2592.17140       0.00100       0.01000       0.00100       0.01000       0.19174       0.25217       0.14766       0.14766       1.00000       0.43907 
   2592.32380       0.00100       0.01000       0.00100       0.01000       0.19465       0.26089       0.14633       0.14633       1.00000       0.48130 
   2592.47620       0.00100       0.01000       0.00100       0.01000       0.18345       0.25043       0.13460       0.13460       1.00000       0.48667 
   2592.62860       0.00100       0.01000       0.00100       0.01000       0.17328       0.24121       0.12373       0.12373       1.00000       0.49361 
   2592.78100       0.00100       0.01000       0.00100       0.01000       0.17286       0.24251       0.12205       0.12205       1.00000       0.50609 
   2592.93340       0.00100       0.01000       0.00100       0.01000       0.17802       0.25001       0.12551       0.12551       1.00000       0.52310 
   2593.08580       0.00100       0.01000       0.00100       0.01000       0.18214       0.25924       0.12591       0.12591       1.00000       0.56019 
