~VERSION INFORMATION
 VERS.               1.20:   CWLS LOG ASCII STANDARD - VERSION 1.20
 WRAP.                 NO:   ONE LINE PER DEPTH STEP
~WELL INFORMATION
#MNEM.UNIT      DATA TYPE    INFORMATION
#----------   ------------   ------------------------------
 STRT.M          630.6096:   START DEPTH
 STOP.M         3133.6272:   STOP DEPTH
 STEP.M            0.1524:   STEP LENGTH
 NULL.          -999.2500:   NO VALUE
 COMP.            COMPANY:   PERTAMINA
 WELL.               WELL:   CMS-004
 WBN .            CMS-004:   WELLBORE
 FLD .              FIELD:   CEMARA SELATAN
 LOC .           LOCATION:   X = + 149636.27  Y = - 719813.7
 PROV.           PROVINCE:   JAWA BARAT
 STAT.              STATE:   INDONESIA
 SRVC.    SERVICE COMPANY:   SCHLUMBERGER
 DATE.            LOGDATE:   11/24/77
 APIN.         API NUMBER:   -
 UWI .  CEMARASELATAN-004:   UNIQUE WELL ID 
~CURVE INFORMATION
#MNEM.UNIT       API CODE    CURVE DESCRIPTION
#----------   ------------   ------------------------------
 DEPT.M                  :
 CALI.inch   60 280 00 00:   Caliper
 GR  .GAPI   60 310 00 00:   Gamma Ray
 SP  .mV     60 010 01 00:   Spontaneous Potential
 ILD .ohmm   05 070 46 00:   Induction Laterolog, Deep
 SN  .ohmm   05 040 16 00:   Short Normal 16"
 NPHI.%      42 890 03 00:   Neu. Porosity, Ss [%]
 RHOB.kg/cm3 42 350 01 00:   Bulk Density
 DRHO.g/cc   42 356 01 00:   Density Correction
 PROX.ohmm   21 270 30 00:   Proximity Log
~PARAMETER INFORMATION
#MNEM.UNIT          VALUE    DESCRIPTION
#----------   ------------   ------------------------------
 EKB .M            0.0000:   Kelly bushing
 EGL .M            0.0000:   Ground level
 EDF .M           10.0000:   Drilling floor
 EPD .M           10.0000:   Permanent datum
 TD  .M         3129.0000:   Total depth
 DF  .      CONGLONGMERAT:   Deepest formation
 PROJ.       SCHLUMBERGER:   Project
 DATE.           11/24/77:   Date logged
 SRFX.M       185028.4000:   Surface X position
 SRFY.M      9281121.0000:   Surface Y position
 STUS.                  3:   1-18 API codes
 SLAT.DECIMAL DE  -6.4963:   Surface Latitude
 SLNG.DECIMAL DE 108.1521:   Surface Longitude
 BLAT.DECIMAL DE   0.0000:   Bottom Latitude
 BLNG.DECIMAL DE   0.0000:   Bottom Longitude
 SCTN.                  0:   Section Number
 NSFT.F            0.0000:   N-S Footage
 EWFT.F            0.0000:   E-F Footage
 BHT .Degf            100:   Bottom Hole Temperature
 MRT .Degf            100:   Max Recorded Temperature
 MST .Degf             87:   Mud Temperature
 RM  .Ohmm            3.0:   Mud Resistivity
 RMB .Degf  2.7 ohmm @100:   Mud BHT Resistivity
 RMC .Ohmm           4.72:   Mud Cake Resistivity
 RMF .Ohmm           1.93:   Mud Filtrate Resistivity
 DFD .G/c3           1.05:   Drilling Fluid Density
 DFV .Sec              43:   Drilling Fluid Viscosity
 DFPH.                  9:   Drilling Fluid pH
 DFL .Ml               14:   Drilling Fluid Loss
 DD  .Mtr          3129.0:   Depth driller
 DL  .Mtr          3129.8:   Depth logger
 BLI .Mtr          3129.5:   Bottom log interval
 TLI .Mtr            2767:   Top log interval
 CSS .Inch          9 5/8:   Casing size
 CTD1.Mtr   9 5/8" @ 1300:   Casing driller 1
 CTL1.Mtr          1299.7:   Casing logger 1
 BS  .Inch          8 5/8:   Bit size
 DFT . Bentonite / Q.Broxin:   Type fluid in hole
 WSS .           Flowline:   Source of sample
 EMT .Degf 0.48 ohmm @ 95:   Rm Meas. temp.
 MFT .Degf 0.31 ohmm @ 80:   Rmf Meas. temp.
 MCST.Degf 0.66 ohmm @ 26:   Rmc Meas. temp.
 MFSS.              Press:   Source Rmf.
 MCSS.              Press:   Source Rmc.
 TCS .HRS              12:   Time Circ. stopped
 LUN .               RS18:   Logging unit number
 LUL .                WJV:   Logging unit location
 ENGI.            M.Akbar:   Recorded By
 WITN.  Wardoyo / Sugipto:   Witnessed by
 RE1 .        ILD (6FF40):   Res. Electrode #1
 RE2 .      SN  (A-16" M):   Res. Electrode #2
 TLAB.Hrs              12:   Time logger at bottom
 DATE.           12/02/77:   Date logged
 DATE.           12/13/77:   Date logged
 DATE.           01/10/77:   Date logged
 DATE.           01/28/78:   Date logged
 BHT .Degf            110:   Bottom Hole Temperature
 BHT .Degf            155:   Bottom Hole Temperature
 BHT .Degf            250:   Bottom Hole Temperature
 BHT .Degf            270:   Bottom Hole Temperature
 MRT .Degf            110:   Max Recorded Temperature
 MRT .Degf            155:   Max Recorded Temperature
 MRT .Degf            250:   Max Recorded Temperature
 MRT .Degf            270:   Max Recorded Temperature
 MST .Degf             80:   Mud Temperature
 MST .Degf             85:   Mud Temperature
 MST .Degf             85:   Mud Temperature
 MST .Degf             95:   Mud Temperature
 RM  .Ohmm           2.05:   Mud Resistivity
 RM  .Ohmm           1.51:   Mud Resistivity
 RM  .Ohmm           0.71:   Mud Resistivity
 RM  .Ohmm           0.48:   Mud Resistivity
 RMB .Degf 1.6 ohmm @ 110:   Mud BHT Resistivity
 RMB .Degf 0.9 ohmm @ 155:   Mud BHT Resistivity
 RMB .Degf 0.24 ohmm @ 250:   Mud BHT Resistivity
 RMB .Degf 0.16 ohmm @ 270:   Mud BHT Resistivity
 RMC .Ohmm           2.12:   Mud Cake Resistivity
 RMC .Ohmm           1.62:   Mud Cake Resistivity
 RMC .Ohmm           1.11:   Mud Cake Resistivity
 RMC .Ohmm 0.66 ohmm @ 26:   Mud Cake Resistivity
 RMF .Ohmm           1.91:   Mud Filtrate Resistivity
 RMF .Ohmm           1.36:   Mud Filtrate Resistivity
 RMF .Ohmm           0.46:   Mud Filtrate Resistivity
 RMF .Ohmm 0.31 ohmm @ 80:   Mud Filtrate Resistivity
 DFD .G/c3           1.15:   Drilling Fluid Density
 DFD .G/c3           1.14:   Drilling Fluid Density
 DFD .G/c3           1.17:   Drilling Fluid Density
 DFD .G/c3           1.23:   Drilling Fluid Density
 DFV .Sec              42:   Drilling Fluid Viscosity
 DFV .Sec              55:   Drilling Fluid Viscosity
 DFV .Sec              65:   Drilling Fluid Viscosity
 DFV .Sec              65:   Drilling Fluid Viscosity
 DFPH.                  9:   Drilling Fluid pH
 DFPH.                  9:   Drilling Fluid pH
 DFPH.                9.5:   Drilling Fluid pH
 DFPH.                9.5:   Drilling Fluid pH
 DFL .Ml               10:   Drilling Fluid Loss
 DFL .Ml              6.5:   Drilling Fluid Loss
 DFL .Ml                5:   Drilling Fluid Loss
 DFL .Ml                5:   Drilling Fluid Loss
 DD  .Mtr             255:   Depth driller
 DD  .Mtr             635:   Depth driller
 DD  .Mtr            1305:   Depth driller
 DD  .Mtr            2798:   Depth driller
 DL  .Mtr             255:   Depth logger
 DL  .Mtr             635:   Depth logger
 DL  .Mtr            1303:   Depth logger
 DL  .Mtr          2799.3:   Depth logger
 BLI .Mtr           254.7:   Bottom log interval
 BLI .Mtr           634.7:   Bottom log interval
 BLI .Mtr            1302:   Bottom log interval
 BLI .Mtr          2799.0:   Bottom log interval
 TLI .Mtr            30.0:   Top log interval
 TLI .Mtr           259.3:   Top log interval
 TLI .Mtr           630.5:   Top log interval
 TLI .Mtr          1299.7:   Top log interval
 CSS .Inch             30:   Casing size
 CSS .Inch             20:   Casing size
 CSS .Inch         12 1/4:   Casing size
 CSS .Inch          9 5/8:   Casing size
 CTD1.Mtr              30:   Casing driller 1
 CTD1.Mtr           259.1:   Casing driller 1
 CTD1.Mtr             630:   Casing driller 1
 CTD1.Mtr            1300:   Casing driller 1
 CTL1.Mtr              30:   Casing logger 1
 CTL1.Mtr           250.5:   Casing logger 1
 CTL1.Mtr           630.5:   Casing logger 1
 CTL1.Mtr          1299.7:   Casing logger 1
 BS  .Inch          9 7/8:   Bit size
 BS  .Inch          9 7/8:   Bit size
 BS  .Inch             12:   Bit size
 BS  .Inch          8 5/8:   Bit size
 DFT .          bentonite:   Type fluid in hole
 DFT .          bentonite:   Type fluid in hole
 DFT .          bentonite:   Type fluid in hole
 DFT .          bentonite:   Type fluid in hole
 WSS .           flowline:   Source of sample
 WSS .           flowline:   Source of sample
 WSS .           flowline:   Source of sample
 WSS .           flowline:   Source of sample
 EMT .Degf  3.0 ohmm @ 87:   Rm Meas. temp.
 EMT .Degf 2.05 ohmm @ 80:   Rm Meas. temp.
 EMT .Degf 1.51 ohmm @ 85:   Rm Meas. temp.
 EMT .Degf 0.71 ohmm @ 85:   Rm Meas. temp.
 MFT .Degf 2.72 ohmm @ 87:   Rmf Meas. temp.
 MFT .Degf 1.91 ohmm @ 80:   Rmf Meas. temp.
 MFT .Degf 1.36 ohmm @ 85:   Rmf Meas. temp.
 MFT .Degf 0.46 ohmm @ 85:   Rmf Meas. temp.
 MCST.Degf 1.93 ohmm @ 87:   Rmc Meas. temp.
 MCST.Degf 2.12 ohmm @ 80:   Rmc Meas. temp.
 MCST.Degf 1.62 ohmm @ 85:   Rmc Meas. temp.
 MCST.Degf 1.11 ohmm @ 85:   Rmc Meas. temp.
 MFSS.                  p:   Source Rmf.
 MFSS.                  p:   Source Rmf.
 MFSS.                  p:   Source Rmf.
 MFSS.                  p:   Source Rmf.
 MCSS.                  p:   Source Rmc.
 MCSS.                  p:   Source Rmc.
 MCSS.                  p:   Source Rmc.
 MCSS.                  p:   Source Rmc.
 TCS .HRS             1.5:   Time Circ. stopped
 TCS .HRS               3:   Time Circ. stopped
 TCS .HRS               4:   Time Circ. stopped
 TCS .HRS               7:   Time Circ. stopped
 LUN .               4618:   Logging unit number
 LUN .               4618:   Logging unit number
 LUN .               4618:   Logging unit number
 LUL .                mjv:   Logging unit location
 LUL .                mjv:   Logging unit location
 LUL .                mjv:   Logging unit location
 LUL .                mjv:   Logging unit location
 WITN.            Sukarna:   Witnessed by
 RE1 .                ILD:   Res. Electrode #1
 RE1 .                ILD:   Res. Electrode #1
 RE1 .                ILD:   Res. Electrode #1
 RE1 .                ILD:   Res. Electrode #1
 RE2 .                 SN:   Res. Electrode #2
 RE2 .                 SN:   Res. Electrode #2
 RE2 .                 SN:   Res. Electrode #2
 RE2 .                 SN:   Res. Electrode #2
 TLAB.Hrs             1.5:   Time logger at bottom
 TLAB.Hrs               3:   Time logger at bottom
 TLAB.Hrs               4:   Time logger at bottom
 TLAB.Hrs               7:   Time logger at bottom
 DGBY.            Sukarna:   Digitized By
 DGBY.            Sukarna:   Digitized By
 DGBY.            Sukarna:   Digitized By
 DGBY.            Sukarna:   Digitized By
 DGBY.            Sukarna:   Digitized By
~A  DEPTH     CALI         GR         SP        ILD         SN       NPHI       RHOB       DRHO       PROX
# ...
 1298.1220  -999.2500    57.0064     2.8691     1.0655     1.2570    50.6296     2.2506  -999.2500  -999.2500
 1298.2740     8.8574    53.1110     2.8666     1.0808     1.2966    52.9115     2.1875  -999.2500  -999.2500
 1298.4260     8.8999    53.0732     2.7094     1.1009     1.3384    52.0392     2.2109  -999.2500  -999.2500
 1298.5790     8.9080    51.0469     2.7069     1.1304     1.3745    50.6065     2.2332  -999.2500  -999.2500
 1298.7310     8.9255    48.5746     2.8594     1.1662     1.4052    49.1277     2.2607  -999.2500  -999.2500
 1298.8840     8.9585    46.6760     2.7023     1.2028     1.4129    47.1648     2.3224  -999.2500  -999.2500
 1299.0360     8.9954    47.4866     2.5450     1.2213     1.4112    45.7602     2.3900  -999.2500  -999.2500
 1299.1880     9.0470    49.2021     2.3881     1.2290     1.3930    44.6587     2.4704  -999.2500     3.6557
 1299.3410     9.0795    53.2475     2.2306     1.2290     1.3987    43.6962     2.4887  -999.2500     0.8027
 1299.4930     9.0904    60.5485     2.2281     1.2291     1.4132    42.7592     2.4354  -999.2500     0.8819
 1299.6460     9.3270    67.8432     2.3809     1.2292     1.4032    43.2585     2.3480  -999.2500     0.8939
 1299.7980     9.7270    76.8486     2.4662     1.2266     1.4060    43.7837     2.2925     0.1612     0.8612
 1299.9500    10.2601    77.5231     1.8829     1.2113     1.4079    42.1495     2.1551     0.1520     0.9272
 1300.1030    10.7459    76.1059     1.3905     1.2035     1.4046    40.0282     2.0872     0.1316     0.9015
 1300.2550    10.7336    74.6225     1.0115     1.5310     1.4047    39.1506     2.1157     0.1227     0.7079
 1300.4080     9.8722    73.9869     0.7775     2.4201     1.4164    39.2929     2.0851     0.1056     0.7348
 1300.5600    10.1146    73.1973     0.7797     2.1994     1.4544    39.9080     2.0166     0.1279     0.7759
 1300.7120    10.8140    70.8979     0.8496     1.5472     1.4874    40.7958     1.9505     0.1206     0.7089
 1300.8650    11.9006    67.5819     0.9384     1.2709     1.5108    41.8741     1.8752     0.1247     0.6271
 1301.0170    15.4097    64.7194     0.9407     1.1523     1.5449    41.8006     1.8580     0.1135     0.6589
 1301.1700    14.3652    62.2270     0.9207     1.2247     1.5876    42.1357     1.8605     0.1037     0.8064
 1301.3220    14.6749    61.4172     0.7906     1.3966     1.6441    42.3954     1.9299     0.0998     0.6567
 1301.4740    15.3605    61.0187     0.6983     1.6492     1.7051    42.1958     2.0452     0.0765     0.6431
 1301.6270    15.4369    60.8366     0.4867     1.9532     1.7699    40.5391     2.1539     0.0264     1.3990
 1301.7790    14.1066    59.7708     0.1291     2.1832     1.8836    38.0956     2.3071     0.0589     4.0011
 1301.9320    13.6019    56.7060    -0.8267     2.4342     2.1939    35.3566     2.3417     0.0449     5.6290
 1302.0840    14.5321    53.0981    -2.6037     2.5664     2.6721    32.1967     2.3362     0.0046     5.6071
 1302.2360    13.2785    49.1591    -4.5970     2.6286     3.1679    25.3198     2.4568    -0.0032     3.8363
 1302.3890    12.5141    50.3431    -6.0131     2.6414     3.3551    19.6398     2.5484    -0.0016     1.9425
 1302.5410    12.4021    54.6191    -7.7665     2.5607     3.2571    18.4254     2.5534     0.0096     1.3828
 1302.6940    12.3513    64.7909    -9.7454     2.4232     2.8703    19.7371     2.5094     0.0217     1.4320
 1302.8460    12.2716    68.5631   -11.9511     2.1924     2.5708    22.0185     2.4391     0.0538     1.4186
 1302.9980    12.0514    75.7064   -14.0000     1.8936     2.3401    23.8409     2.3589     0.0691     1.3438
 1303.1510    11.4288    75.0362   -15.6576     1.6027     2.1885    25.6392     2.3066     0.0626     1.4504
 1303.3030    11.1104    73.4134   -17.3037     1.5463     2.1423    27.5190     2.2546     0.0522     1.5237
 1303.4560    11.1518    72.5890   -18.9284     1.4829     2.1249    27.9879     2.2016     0.0388     1.5086
 1303.6080    11.0844    72.7056   -20.1639     1.4369     2.0744    27.6672     2.1665     0.0550     1.7319
 1303.7600    11.1645    72.7335   -19.5337     1.3928     1.9851    27.5631     2.1887     0.0629     1.9014
 1303.9130    11.2145    72.7016   -17.8924     1.3147     1.9113    28.4283     2.1675     0.0371     1.8049
 1304.0650    11.1794    72.6596   -15.7049     1.2176     1.8299    29.9387     2.1415     0.0231     0.9381
 1304.2180    11.3320    72.4874   -12.7476     1.1222     1.6938    31.7668     2.0871     0.0029     0.6988
 1304.3700    11.7657    71.2726   -10.4609     1.0462     1.5841    34.2616     1.9939     0.0143     0.6217
 1304.5220    12.0482    69.7374    -8.4575     0.9900     1.4671    37.0110     1.9107     0.0449     0.5802
 1304.6750    12.9693    71.4284    -6.8240     0.9430     1.2909    42.6496     1.7935     0.0835     0.5783
 1304.8270    14.7080    75.5185    -5.1770     0.8893     1.2248    47.8283     1.7612     0.0521     0.5843
 1304.9800    15.9122    83.0712    -4.5559     0.8765     1.2179    47.9469     1.8200     0.0442     0.6862
 1305.1320    16.4736    83.8809    -4.4396     0.9427     1.2631    45.6972     1.8899     0.0303     1.0632
 1305.2840    16.2453    84.9816    -4.7024     1.0497     1.3670    42.5287     1.9734     0.0404     1.3728
 1305.4370    14.5932    87.9127    -5.1918     1.2095     1.4591    40.1068     2.0778     0.0561     1.5171
 1305.5890    13.1645    94.3535    -5.7836     1.3599     1.5716    38.1734     2.1638     0.0397     2.1481
 1305.7420    12.7729    97.2824    -6.1189     1.4980     1.6718    35.5346     2.2573     0.0481     2.4857
 1305.8940    12.4627    97.2119    -6.4372     1.4876     1.7428    33.4801     2.3029     0.0293     2.2521
 1306.0460    11.9037    96.4330    -6.8043     1.4493     1.7687    31.3330     2.3109     0.0058     1.6672
 1306.1990    10.9191    95.9522    -6.7006     1.4119     1.7807    29.8946     2.3192     0.0182     1.9443
 1306.3510    10.3659    96.5965    -6.2931     1.3618     1.7741    30.8236     2.3317     0.0376     2.1149
 1306.5040    10.3227    97.2782    -5.2827     1.3383     1.7184    32.3539     2.3447     0.0297     1.7664
 1306.6560    10.5407    96.0221    -4.1372     1.4070     1.6464    33.2062     2.3441     0.0150     1.1052
 1306.8080    10.6459    92.8371    -3.1424     1.5505     1.6347    33.0201     2.3413     0.0341     0.9937
 1306.9610    10.2642    88.9894    -2.8320     1.7243     1.7526    32.9628     2.3544     0.0666     1.9061
 1307.1130    10.6030    86.0259    -3.2149     1.9251     1.9537    34.1172     2.3705     0.1046     6.9153
 1307.2660    11.5668    79.2130    -4.2482     2.0358     2.2869    32.4763     2.4060     0.0978    16.6384
 1307.4180    12.0432    73.8796    -5.2940     2.1382     2.7775    28.4251     2.3870     0.0394    20.0672
 1307.5700    10.9684    69.8766    -6.0661     2.1674     3.1229    22.2739     2.3688    -0.0032     8.0607
 1307.7230    10.2189    71.3998    -6.8261     2.1436     3.1763    19.4425     2.3873     0.0027     2.6484
 1307.8750    10.1423    76.2657    -7.5859     2.0922     3.0871    18.4290     2.4050     0.0136     2.1137
 1308.0280     9.8163    85.0624    -8.2175     1.8998     2.7698    20.6148     2.3906     0.0232     2.1973
 1308.1800     9.7755    93.7219    -7.1377     1.5407     2.2956    23.6455     2.3525     0.0263     2.4808
 1308.3320    10.0106    96.9118    -5.4735     1.2145     1.9629    27.1922     2.3354     0.0058     1.5533
 1308.4850    10.1432    97.3327    -4.2149     1.1394     1.7565    30.9101     2.3145     0.0086     1.3785
 1308.6370    10.2472    96.3762    -3.4246     1.1315     1.6550    33.8184     2.3168     0.0159     1.0278
 1308.7900    10.4091    94.5770    -3.1142     1.1881     1.5487    36.4540     2.2990     0.0068     1.0064
 1308.9420    10.6795    90.6365    -3.2663     1.2589     1.4959    39.8955     2.2944     0.0248     2.1211
 1309.0940    10.2217    84.2155    -3.2641     1.3431     1.5905    42.2022     2.2973     0.0499     6.5298
