~VERSION INFORMATION
 VERS.               1.20:   CWLS LOG ASCII STANDARD - VERSION 1.20
 WRAP.                 NO:   ONE LINE PER DEPTH STEP
~WELL INFORMATION
#MNEM.UNIT      DATA TYPE    INFORMATION
#----------   ------------   ------------------------------
 STRT.M          630.6096:   START DEPTH
 STOP.M         3133.6272:   STOP DEPTH
 STEP.M            0.1524:   STEP LENGTH
 NULL.          -999.2500:   NO VALUE
 COMP.            COMPANY:   PERTAMINA
 WELL.               WELL:   CMS-004
 WBN .            CMS-004:   WELLBORE
 FLD .              FIELD:   CEMARA SELATAN
 LOC .           LOCATION:   X = + 149636.27  Y = - 719813.7
 PROV.           PROVINCE:   JAWA BARAT
 STAT.              STATE:   INDONESIA
 SRVC.    SERVICE COMPANY:   SCHLUMBERGER
 DATE.            LOGDATE:   11/24/77
 APIN.         API NUMBER:   -
 UWI .  CEMARASELATAN-004:   UNIQUE WELL ID 
~CURVE INFORMATION
#MNEM.UNIT       API CODE    CURVE DESCRIPTION
#----------   ------------   ------------------------------
 DEPT.M                  :
 CALI.inch   60 280 00 00:   Caliper
 GR  .GAPI   60 310 00 00:   Gamma Ray
 SP  .mV     60 010 01 00:   Spontaneous Potential
 ILD .ohmm   05 070 46 00:   Induction Laterolog, Deep
 SN  .ohmm   05 040 16 00:   Short Normal 16"
 NPHI.%      42 890 03 00:   Neu. Porosity, Ss [%]
 RHOB.kg/cm3 42 350 01 00:   Bulk Density
 DRHO.g/cc   42 356 01 00:   Density Correction
 PROX.ohmm   21 270 30 00:   Proximity Log
~PARAMETER INFORMATION
#MNEM.UNIT          VALUE    DESCRIPTION
#----------   ------------   ------------------------------
 EKB .M            0.0000:   Kelly bushing
 EGL .M            0.0000:   Ground level
 EDF .M           10.0000:   Drilling floor
 EPD .M           10.0000:   Permanent datum
 TD  .M         3129.0000:   Total depth
 DF  .      CONGLONGMERAT:   Deepest formation
 PROJ.       SCHLUMBERGER:   Project
 DATE.           11/24/77:   Date logged
 SRFX.M       185028.4000:   Surface X position
 SRFY.M      9281121.0000:   Surface Y position
 STUS.                  3:   1-18 API codes
 SLAT.DECIMAL DE  -6.4963:   Surface Latitude
 SLNG.DECIMAL DE 108.1521:   Surface Longitude
 BLAT.DECIMAL DE   0.0000:   Bottom Latitude
 BLNG.DECIMAL DE   0.0000:   Bottom Longitude
 SCTN.                  0:   Section Number
 NSFT.F            0.0000:   N-S Footage
 EWFT.F            0.0000:   E-F Footage
 BHT .Degf            100:   Bottom Hole Temperature
 MRT .Degf            100:   Max Recorded Temperature
 MST .Degf             87:   Mud Temperature
 RM  .Ohmm            3.0:   Mud Resistivity
 RMB .Degf  2.7 ohmm @100:   Mud BHT Resistivity
 RMC .Ohmm           4.72:   Mud Cake Resistivity
 RMF .Ohmm           1.93:   Mud Filtrate Resistivity
 DFD .G/c3           1.05:   Drilling Fluid Density
 DFV .Sec              43:   Drilling Fluid Viscosity
 DFPH.                  9:   Drilling Fluid pH
 DFL .Ml               14:   Drilling Fluid Loss
 DD  .Mtr          3129.0:   Depth driller
 DL  .Mtr          3129.8:   Depth logger
 BLI .Mtr          3129.5:   Bottom log interval
 TLI .Mtr            2767:   Top log interval
 CSS .Inch          9 5/8:   Casing size
 CTD1.Mtr   9 5/8" @ 1300:   Casing driller 1
 CTL1.Mtr          1299.7:   Casing logger 1
 BS  .Inch          8 5/8:   Bit size
 DFT . Bentonite / Q.Broxin:   Type fluid in hole
 WSS .           Flowline:   Source of sample
 EMT .Degf 0.48 ohmm @ 95:   Rm Meas. temp.
 MFT .Degf 0.31 ohmm @ 80:   Rmf Meas. temp.
 MCST.Degf 0.66 ohmm @ 26:   Rmc Meas. temp.
 MFSS.              Press:   Source Rmf.
 MCSS.              Press:   Source Rmc.
 TCS .HRS              12:   Time Circ. stopped
 LUN .               RS18:   Logging unit number
 LUL .                WJV:   Logging unit location
 ENGI.            M.Akbar:   Recorded By
 WITN.  Wardoyo / Sugipto:   Witnessed by
 RE1 .        ILD (6FF40):   Res. Electrode #1
 RE2 .      SN  (A-16" M):   Res. Electrode #2
 TLAB.Hrs              12:   Time logger at bottom
 DATE.           12/02/77:   Date logged
 DATE.           12/13/77:   Date logged
 DATE.           01/10/77:   Date logged
 DATE.           01/28/78:   Date logged
 BHT .Degf            110:   Bottom Hole Temperature
 BHT .Degf            155:   Bottom Hole Temperature
 BHT .Degf            250:   Bottom Hole Temperature
 BHT .Degf            270:   Bottom Hole Temperature
 MRT .Degf            110:   Max Recorded Temperature
 MRT .Degf            155:   Max Recorded Temperature
 MRT .Degf            250:   Max Recorded Temperature
 MRT .Degf            270:   Max Recorded Temperature
 MST .Degf             80:   Mud Temperature
 MST .Degf             85:   Mud Temperature
 MST .Degf             85:   Mud Temperature
 MST .Degf             95:   Mud Temperature
 RM  .Ohmm           2.05:   Mud Resistivity
 RM  .Ohmm           1.51:   Mud Resistivity
 RM  .Ohmm           0.71:   Mud Resistivity
 RM  .Ohmm           0.48:   Mud Resistivity
 RMB .Degf 1.6 ohmm @ 110:   Mud BHT Resistivity
 RMB .Degf 0.9 ohmm @ 155:   Mud BHT Resistivity
 RMB .Degf 0.24 ohmm @ 250:   Mud BHT Resistivity
 RMB .Degf 0.16 ohmm @ 270:   Mud BHT Resistivity
 RMC .Ohmm           2.12:   Mud Cake Resistivity
 RMC .Ohmm           1.62:   Mud Cake Resistivity
 RMC .Ohmm           1.11:   Mud Cake Resistivity
 RMC .Ohmm 0.66 ohmm @ 26:   Mud Cake Resistivity
 RMF .Ohmm           1.91:   Mud Filtrate Resistivity
 RMF .Ohmm           1.36:   Mud Filtrate Resistivity
 RMF .Ohmm           0.46:   Mud Filtrate Resistivity
 RMF .Ohmm 0.31 ohmm @ 80:   Mud Filtrate Resistivity
 DFD .G/c3           1.15:   Drilling Fluid Density
 DFD .G/c3           1.14:   Drilling Fluid Density
 DFD .G/c3           1.17:   Drilling Fluid Density
 DFD .G/c3           1.23:   Drilling Fluid Density
 DFV .Sec              42:   Drilling Fluid Viscosity
 DFV .Sec              55:   Drilling Fluid Viscosity
 DFV .Sec              65:   Drilling Fluid Viscosity
 DFV .Sec              65:   Drilling Fluid Viscosity
 DFPH.                  9:   Drilling Fluid pH
 DFPH.                  9:   Drilling Fluid pH
 DFPH.                9.5:   Drilling Fluid pH
 DFPH.                9.5:   Drilling Fluid pH
 DFL .Ml               10:   Drilling Fluid Loss
 DFL .Ml              6.5:   Drilling Fluid Loss
 DFL .Ml                5:   Drilling Fluid Loss
 DFL .Ml                5:   Drilling Fluid Loss
 DD  .Mtr             255:   Depth driller
 DD  .Mtr             635:   Depth driller
 DD  .Mtr            1305:   Depth driller
 DD  .Mtr            2798:   Depth driller
 DL  .Mtr             255:   Depth logger
 DL  .Mtr             635:   Depth logger
 DL  .Mtr            1303:   Depth logger
 DL  .Mtr          2799.3:   Depth logger
 BLI .Mtr           254.7:   Bottom log interval
 BLI .Mtr           634.7:   Bottom log interval
 BLI .Mtr            1302:   Bottom log interval
 BLI .Mtr          2799.0:   Bottom log interval
 TLI .Mtr            30.0:   Top log interval
 TLI .Mtr           259.3:   Top log interval
 TLI .Mtr           630.5:   Top log interval
 TLI .Mtr          1299.7:   Top log interval
 CSS .Inch             30:   Casing size
 CSS .Inch             20:   Casing size
 CSS .Inch         12 1/4:   Casing size
 CSS .Inch          9 5/8:   Casing size
 CTD1.Mtr              30:   Casing driller 1
 CTD1.Mtr           259.1:   Casing driller 1
 CTD1.Mtr             630:   Casing driller 1
 CTD1.Mtr            1300:   Casing driller 1
 CTL1.Mtr              30:   Casing logger 1
 CTL1.Mtr           250.5:   Casing logger 1
 CTL1.Mtr           630.5:   Casing logger 1
 CTL1.Mtr          1299.7:   Casing logger 1
 BS  .Inch          9 7/8:   Bit size
 BS  .Inch          9 7/8:   Bit size
 BS  .Inch             12:   Bit size
 BS  .Inch          8 5/8:   Bit size
 DFT .          bentonite:   Type fluid in hole
 DFT .          bentonite:   Type fluid in hole
 DFT .          bentonite:   Type fluid in hole
 DFT .          bentonite:   Type fluid in hole
 WSS .           flowline:   Source of sample
 WSS .           flowline:   Source of sample
 WSS .           flowline:   Source of sample
 WSS .           flowline:   Source of sample
 EMT .Degf  3.0 ohmm @ 87:   Rm Meas. temp.
 EMT .Degf 2.05 ohmm @ 80:   Rm Meas. temp.
 EMT .Degf 1.51 ohmm @ 85:   Rm Meas. temp.
 EMT .Degf 0.71 ohmm @ 85:   Rm Meas. temp.
 MFT .Degf 2.72 ohmm @ 87:   Rmf Meas. temp.
 MFT .Degf 1.91 ohmm @ 80:   Rmf Meas. temp.
 MFT .Degf 1.36 ohmm @ 85:   Rmf Meas. temp.
 MFT .Degf 0.46 ohmm @ 85:   Rmf Meas. temp.
 MCST.Degf 1.93 ohmm @ 87:   Rmc Meas. temp.
 MCST.Degf 2.12 ohmm @ 80:   Rmc Meas. temp.
 MCST.Degf 1.62 ohmm @ 85:   Rmc Meas. temp.
 MCST.Degf 1.11 ohmm @ 85:   Rmc Meas. temp.
 MFSS.                  p:   Source Rmf.
 MFSS.                  p:   Source Rmf.
 MFSS.                  p:   Source Rmf.
 MFSS.                  p:   Source Rmf.
 MCSS.                  p:   Source Rmc.
 MCSS.                  p:   Source Rmc.
 MCSS.                  p:   Source Rmc.
 MCSS.                  p:   Source Rmc.
 TCS .HRS             1.5:   Time Circ. stopped
 TCS .HRS               3:   Time Circ. stopped
 TCS .HRS               4:   Time Circ. stopped
 TCS .HRS               7:   Time Circ. stopped
 LUN .               4618:   Logging unit number
 LUN .               4618:   Logging unit number
 LUN .               4618:   Logging unit number
 LUL .                mjv:   Logging unit location
 LUL .                mjv:   Logging unit location
 LUL .                mjv:   Logging unit location
 LUL .                mjv:   Logging unit location
 WITN.            Sukarna:   Witnessed by
 RE1 .                ILD:   Res. Electrode #1
 RE1 .                ILD:   Res. Electrode #1
 RE1 .                ILD:   Res. Electrode #1
 RE1 .                ILD:   Res. Electrode #1
 RE2 .                 SN:   Res. Electrode #2
 RE2 .                 SN:   Res. Electrode #2
 RE2 .                 SN:   Res. Electrode #2
 RE2 .                 SN:   Res. Electrode #2
 TLAB.Hrs             1.5:   Time logger at bottom
 TLAB.Hrs               3:   Time logger at bottom
 TLAB.Hrs               4:   Time logger at bottom
 TLAB.Hrs               7:   Time logger at bottom
 DGBY.            Sukarna:   Digitized By
 DGBY.            Sukarna:   Digitized By
 DGBY.            Sukarna:   Digitized By
 DGBY.            Sukarna:   Digitized By
 DGBY.            Sukarna:   Digitized By
~A  DEPTH     CALI         GR         SP        ILD         SN       NPHI       RHOB       DRHO       PROX
# ...
 1910.0080    11.0806    68.7997     3.4003     1.8423     2.2879    18.1975     2.4457     0.0480     2.5124
 1910.1600    11.0518    74.0594     3.4003     1.8658     2.2462    18.3445     2.4904     0.0380     2.9280
 1910.3120    11.0597    75.8257     3.2922     1.8834     2.2552    18.5724     2.4849     0.0524     2.4425
 1910.4650    11.0419    76.6983     3.2457     1.9126     2.3052    18.5595     2.4805     0.0627     2.2425
 1910.6170    11.0839    74.5279     2.9859     1.9241     2.3508    18.8767     2.4948     0.0884     2.7242
 1910.7700    11.1937    70.7515     2.2849     1.9157     2.3961    19.1706     2.5201     0.0327     2.5932
 1910.9220    11.1629    68.5898     1.7121     1.8703     2.3791    18.7742     2.4718     0.0140     2.9145
 1911.0740    11.0556    67.7335     2.1638     1.8142     2.3365    18.1912     2.4361     0.0181     3.6067
 1911.2270    11.0748    69.2183     2.8169     1.7712     2.2869    17.5751     2.4374     0.0141     2.9290
 1911.3790    10.9143    71.2200     3.0373     1.7474     2.2867    17.5324     2.4319     0.0317     2.5879
 1911.5320    11.0551    73.2888     3.0269     1.7421     2.2755    18.9431     2.4481     0.0476     2.2622
 1911.6840    11.0889    72.8289     3.2457     1.7425     2.2540    20.4023     2.4498     0.0748     2.1808
 1911.8360    11.0109    69.0908     3.5634     1.7546     2.1791    20.0685     2.4601     0.0887     2.3759
 1911.9890    11.0063    67.2475     3.7094     1.7610     2.1076    19.2326     2.4872     0.1160     2.3589
 1912.1410    11.0436    66.2949     3.6282     1.7581     2.1262    19.4525     2.5171     0.1125     2.4537
 1912.2940    11.0808    66.7362     3.4003     1.7424     2.2057    20.1238     2.5236     0.0880     2.4142
 1912.4460    11.0809    68.8001     3.2457     1.7276     2.2214    19.5517     2.4770     0.0628     2.1324
 1912.5980    11.0650    70.2413     3.0554     1.7021     2.1955    18.9198     2.4441     0.0848     2.6105
 1912.7510    11.1057    72.1645     2.7921     1.6737     2.1402    18.8083     2.4773     0.0877     2.4380
 1912.9030    11.0678    74.3598     2.7362     1.6580     2.0678    19.0753     2.4839     0.0654     2.2422
 1913.0560    10.8863    75.6169     2.7821     1.6330     2.0674    19.7005     2.4570     0.0754     2.0399
 1913.2080    10.8957    76.0792     2.9637     1.6145     2.0417    20.3944     2.4663     0.0938     1.9139
 1913.3600    10.9624    73.0923     3.1546     1.5865     1.9952    20.4530     2.4867     0.1075     2.2790
 1913.5130    10.9896    73.8633     3.3456     1.5554     1.9805    20.0854     2.4892     0.0873     2.2698
 1913.6650    10.9939    71.3881     3.4003     1.5326     1.9523    19.8056     2.4701     0.1068     2.2623
 1913.8180    10.9797    72.0004     3.7275     1.5126     1.9245    20.1416     2.4858     0.1086     2.3011
 1913.9700    11.1949    72.4059     3.8640     1.4847     1.9128    20.6828     2.4767     0.1356     1.8651
 1914.1220    10.9940    71.2833     3.8640     1.4487     1.8970    21.3047     2.4874     0.1658     1.9431
 1914.2750    11.1202    69.7213     3.8640     1.4384     1.9242    22.0070     2.4811     0.1508     2.1730
 1914.4270    11.4121    72.2324     3.8730     1.4234     1.9052    22.1505     2.4649     0.1257     2.1494
 1914.5800    11.2870    75.1538     4.0640     1.4082     1.8554    22.2749     2.4566     0.1455     1.8204
 1914.7320    11.3214    75.1028     4.1731     1.4083     1.8300    22.2203     2.4933     0.1665     2.0104
 1914.8840    11.5495    72.8575     4.0185     1.4083     1.8695    21.9927     2.5031     0.1551     2.1724
 1915.0370    11.2563    70.8599     3.7094     1.4084     1.9099    21.6000     2.4657     0.1186     2.0849
 1915.1890    11.0916    68.8713     3.5549     1.4084     1.8180    21.2726     2.4354     0.1421     2.4268
 1915.3420    11.3373    70.0833     3.6279     1.4085     1.8255    21.4982     2.4535     0.1188     1.8756
 1915.4940    11.0332    72.7266     3.8188     1.4086     1.8959    21.5492     2.4314     0.0944     2.0804
 1915.6460    11.1401    72.0032     3.8640     1.4086     1.8958    20.8987     2.4225     0.1143     2.2106
 1915.7990    11.2610    69.4596     3.8364     1.4087     1.8331    20.3010     2.4404     0.1483     2.1116
 1915.9510    11.1618    69.9907     3.7094     1.4087     1.8092    20.7850     2.4312     0.1185     2.0517
 1916.1040    11.3446    72.1237     3.8098     1.4088     1.8343    20.9443     2.4111     0.0903     1.9778
 1916.2560    11.0547    69.5460     3.8640     1.3988     1.8819    20.7130     2.4203     0.1048     1.8735
 1916.4080    11.2260    71.1332     4.0372     1.4018     1.8749    20.9355     2.4359     0.1365     1.6335
 1916.5610    11.5917    70.7565     4.1731     1.4089     1.8364    21.7856     2.4893     0.1440     1.8435
 1916.7130    11.3948    72.4584     4.1731     1.4090     1.8285    22.4571     2.4685     0.1404     1.9941
 1916.8660    11.4445    74.9871     4.0185     1.4191     1.8154    22.3968     2.5169     0.1167     2.0556
 1917.0180    11.2271    72.8751     3.8640     1.4419     1.8024    21.9477     2.4908     0.1122     2.0011
 1917.1700    10.9776    73.8961     3.8640     1.4547     1.8112    21.4523     2.4711     0.1398     2.0305
 1917.3230    11.0993    71.6154     3.9465     1.4749     1.8281    21.8458     2.4899     0.1264     1.8754
 1917.4750    11.1437    67.9862     4.1731     1.4919     1.8150    22.5743     2.4944     0.1289     1.9534
 1917.6280    11.0803    66.9306     4.1739     1.5277     1.8014    23.2652     2.4922     0.1393     2.0171
 1917.7800    11.0636    67.9600     4.3277     1.5594     1.7926    23.1115     2.4835     0.1587     1.9318
 1917.9320    11.0467    70.4591     4.0995     1.5938     1.8151    22.1343     2.4788     0.1559     2.1533
 1918.0850    11.0418    68.8442     4.0185     1.6251     1.8977    21.6004     2.4611     0.1276     2.1537
 1918.2370    11.1470    68.2313     3.8640     1.6485     1.9769    21.2072     2.4429     0.1201     2.3155
 1918.3900    11.1398    69.0031     3.8358     1.6525     1.9737    20.8362     2.4446     0.1290     2.8763
 1918.5420    10.9657    67.2444     3.7094     1.6537     1.9563    20.2916     2.4401     0.1161     2.2639
 1918.6940    10.7604    67.5521     3.7094     1.6254     1.9774    19.5527     2.4329     0.1251     2.2577
 1918.8470    10.7216    71.4269     3.7094     1.5781     2.0192    19.6211     2.4643     0.0993     2.2459
 1918.9990    10.8011    72.8781     3.7286     1.5179     2.0147    19.7901     2.4666     0.0923     2.4028
 1919.1520    10.7083    70.7551     3.8640     1.4402     1.9686    19.6759     2.4657     0.1301     2.0229
 1919.3040    10.7488    71.0258     3.9560     1.3662     1.9003    20.1895     2.4874     0.1674     1.7111
 1919.4560    10.9846    72.8163     4.0185     1.2946     1.8135    20.8823     2.4860     0.1471     1.7369
 1919.6090    11.1988    72.2920     4.0185     1.2508     1.7568    21.5353     2.4695     0.1713     1.7881
 1919.7610    11.5239    72.2152     3.9718     1.2115     1.6849    22.4532     2.4690     0.1833     1.7126
 1919.9140    11.1712    73.5581     3.8640     1.1744     1.6328    23.3081     2.4928     0.1526     1.6294
 1920.0660    11.4737    75.0988     3.8640     1.1472     1.5717    24.0342     2.4585     0.1442     1.3719
 1920.2180    11.2338    73.7169     3.7080     1.1391     1.5156    24.1808     2.4545     0.1584     1.5265
 1920.3710    11.3386    72.0663     3.5549     1.1504     1.4814    23.4592     2.4665     0.1442     1.6293
 1920.5230    11.2772    73.4568     3.5549     1.1606     1.4735    22.6471     2.4649     0.1593     1.4206
 1920.6760    11.1627    77.0891     3.6654     1.1722     1.4734    22.1325     2.4792     0.1750     1.4951
 1920.8280    11.1976    74.7817     3.8640     1.1632     1.4839    22.5698     2.4692     0.1872     1.5071
 1920.9800    11.0427    69.6063     3.8640     1.1557     1.4859    23.4197     2.4781     0.1610     1.4843
