~VERSION INFORMATION
 VERS.               1.20:   CWLS LOG ASCII STANDARD - VERSION 1.20
 WRAP.                 NO:   ONE LINE PER DEPTH STEP
~WELL INFORMATION
#MNEM.UNIT      DATA TYPE    INFORMATION
#----------   ------------   ------------------------------
 STRT.M          630.6096:   START DEPTH
 STOP.M         3133.6272:   STOP DEPTH
 STEP.M            0.1524:   STEP LENGTH
 NULL.          -999.2500:   NO VALUE
 COMP.            COMPANY:   PERTAMINA
 WELL.               WELL:   CMS-004
 WBN .            CMS-004:   WELLBORE
 FLD .              FIELD:   CEMARA SELATAN
 LOC .           LOCATION:   X = + 149636.27  Y = - 719813.7
 PROV.           PROVINCE:   JAWA BARAT
 STAT.              STATE:   INDONESIA
 SRVC.    SERVICE COMPANY:   SCHLUMBERGER
 DATE.            LOGDATE:   11/24/77
 APIN.         API NUMBER:   -
 UWI .  CEMARASELATAN-004:   UNIQUE WELL ID 
~CURVE INFORMATION
#MNEM.UNIT       API CODE    CURVE DESCRIPTION
#----------   ------------   ------------------------------
 DEPT.M                  :
 CALI.inch   60 280 00 00:   Caliper
 GR  .GAPI   60 310 00 00:   Gamma Ray
 SP  .mV     60 010 01 00:   Spontaneous Potential
 ILD .ohmm   05 070 46 00:   Induction Laterolog, Deep
 SN  .ohmm   05 040 16 00:   Short Normal 16"
 NPHI.%      42 890 03 00:   Neu. Porosity, Ss [%]
 RHOB.kg/cm3 42 350 01 00:   Bulk Density
 DRHO.g/cc   42 356 01 00:   Density Correction
 PROX.ohmm   21 270 30 00:   Proximity Log
~PARAMETER INFORMATION
#MNEM.UNIT          VALUE    DESCRIPTION
#----------   ------------   ------------------------------
 EKB .M            0.0000:   Kelly bushing
 EGL .M            0.0000:   Ground level
 EDF .M           10.0000:   Drilling floor
 EPD .M           10.0000:   Permanent datum
 TD  .M         3129.0000:   Total depth
 DF  .      CONGLONGMERAT:   Deepest formation
 PROJ.       SCHLUMBERGER:   Project
 DATE.           11/24/77:   Date logged
 SRFX.M       185028.4000:   Surface X position
 SRFY.M      9281121.0000:   Surface Y position
 STUS.                  3:   1-18 API codes
 SLAT.DECIMAL DE  -6.4963:   Surface Latitude
 SLNG.DECIMAL DE 108.1521:   Surface Longitude
 BLAT.DECIMAL DE   0.0000:   Bottom Latitude
 BLNG.DECIMAL DE   0.0000:   Bottom Longitude
 SCTN.                  0:   Section Number
 NSFT.F            0.0000:   N-S Footage
 EWFT.F            0.0000:   E-F Footage
 BHT .Degf            100:   Bottom Hole Temperature
 MRT .Degf            100:   Max Recorded Temperature
 MST .Degf             87:   Mud Temperature
 RM  .Ohmm            3.0:   Mud Resistivity
 RMB .Degf  2.7 ohmm @100:   Mud BHT Resistivity
 RMC .Ohmm           4.72:   Mud Cake Resistivity
 RMF .Ohmm           1.93:   Mud Filtrate Resistivity
 DFD .G/c3           1.05:   Drilling Fluid Density
 DFV .Sec              43:   Drilling Fluid Viscosity
 DFPH.                  9:   Drilling Fluid pH
 DFL .Ml               14:   Drilling Fluid Loss
 DD  .Mtr          3129.0:   Depth driller
 DL  .Mtr          3129.8:   Depth logger
 BLI .Mtr          3129.5:   Bottom log interval
 TLI .Mtr            2767:   Top log interval
 CSS .Inch          9 5/8:   Casing size
 CTD1.Mtr   9 5/8" @ 1300:   Casing driller 1
 CTL1.Mtr          1299.7:   Casing logger 1
 BS  .Inch          8 5/8:   Bit size
 DFT . Bentonite / Q.Broxin:   Type fluid in hole
 WSS .           Flowline:   Source of sample
 EMT .Degf 0.48 ohmm @ 95:   Rm Meas. temp.
 MFT .Degf 0.31 ohmm @ 80:   Rmf Meas. temp.
 MCST.Degf 0.66 ohmm @ 26:   Rmc Meas. temp.
 MFSS.              Press:   Source Rmf.
 MCSS.              Press:   Source Rmc.
 TCS .HRS              12:   Time Circ. stopped
 LUN .               RS18:   Logging unit number
 LUL .                WJV:   Logging unit location
 ENGI.            M.Akbar:   Recorded By
 WITN.  Wardoyo / Sugipto:   Witnessed by
 RE1 .        ILD (6FF40):   Res. Electrode #1
 RE2 .      SN  (A-16" M):   Res. Electrode #2
 TLAB.Hrs              12:   Time logger at bottom
 DATE.           12/02/77:   Date logged
 DATE.           12/13/77:   Date logged
 DATE.           01/10/77:   Date logged
 DATE.           01/28/78:   Date logged
 BHT .Degf            110:   Bottom Hole Temperature
 BHT .Degf            155:   Bottom Hole Temperature
 BHT .Degf            250:   Bottom Hole Temperature
 BHT .Degf            270:   Bottom Hole Temperature
 MRT .Degf            110:   Max Recorded Temperature
 MRT .Degf            155:   Max Recorded Temperature
 MRT .Degf            250:   Max Recorded Temperature
 MRT .Degf            270:   Max Recorded Temperature
 MST .Degf             80:   Mud Temperature
 MST .Degf             85:   Mud Temperature
 MST .Degf             85:   Mud Temperature
 MST .Degf             95:   Mud Temperature
 RM  .Ohmm           2.05:   Mud Resistivity
 RM  .Ohmm           1.51:   Mud Resistivity
 RM  .Ohmm           0.71:   Mud Resistivity
 RM  .Ohmm           0.48:   Mud Resistivity
 RMB .Degf 1.6 ohmm @ 110:   Mud BHT Resistivity
 RMB .Degf 0.9 ohmm @ 155:   Mud BHT Resistivity
 RMB .Degf 0.24 ohmm @ 250:   Mud BHT Resistivity
 RMB .Degf 0.16 ohmm @ 270:   Mud BHT Resistivity
 RMC .Ohmm           2.12:   Mud Cake Resistivity
 RMC .Ohmm           1.62:   Mud Cake Resistivity
 RMC .Ohmm           1.11:   Mud Cake Resistivity
 RMC .Ohmm 0.66 ohmm @ 26:   Mud Cake Resistivity
 RMF .Ohmm           1.91:   Mud Filtrate Resistivity
 RMF .Ohmm           1.36:   Mud Filtrate Resistivity
 RMF .Ohmm           0.46:   Mud Filtrate Resistivity
 RMF .Ohmm 0.31 ohmm @ 80:   Mud Filtrate Resistivity
 DFD .G/c3           1.15:   Drilling Fluid Density
 DFD .G/c3           1.14:   Drilling Fluid Density
 DFD .G/c3           1.17:   Drilling Fluid Density
 DFD .G/c3           1.23:   Drilling Fluid Density
 DFV .Sec              42:   Drilling Fluid Viscosity
 DFV .Sec              55:   Drilling Fluid Viscosity
 DFV .Sec              65:   Drilling Fluid Viscosity
 DFV .Sec              65:   Drilling Fluid Viscosity
 DFPH.                  9:   Drilling Fluid pH
 DFPH.                  9:   Drilling Fluid pH
 DFPH.                9.5:   Drilling Fluid pH
 DFPH.                9.5:   Drilling Fluid pH
 DFL .Ml               10:   Drilling Fluid Loss
 DFL .Ml              6.5:   Drilling Fluid Loss
 DFL .Ml                5:   Drilling Fluid Loss
 DFL .Ml                5:   Drilling Fluid Loss
 DD  .Mtr             255:   Depth driller
 DD  .Mtr             635:   Depth driller
 DD  .Mtr            1305:   Depth driller
 DD  .Mtr            2798:   Depth driller
 DL  .Mtr             255:   Depth logger
 DL  .Mtr             635:   Depth logger
 DL  .Mtr            1303:   Depth logger
 DL  .Mtr          2799.3:   Depth logger
 BLI .Mtr           254.7:   Bottom log interval
 BLI .Mtr           634.7:   Bottom log interval
 BLI .Mtr            1302:   Bottom log interval
 BLI .Mtr          2799.0:   Bottom log interval
 TLI .Mtr            30.0:   Top log interval
 TLI .Mtr           259.3:   Top log interval
 TLI .Mtr           630.5:   Top log interval
 TLI .Mtr          1299.7:   Top log interval
 CSS .Inch             30:   Casing size
 CSS .Inch             20:   Casing size
 CSS .Inch         12 1/4:   Casing size
 CSS .Inch          9 5/8:   Casing size
 CTD1.Mtr              30:   Casing driller 1
 CTD1.Mtr           259.1:   Casing driller 1
 CTD1.Mtr             630:   Casing driller 1
 CTD1.Mtr            1300:   Casing driller 1
 CTL1.Mtr              30:   Casing logger 1
 CTL1.Mtr           250.5:   Casing logger 1
 CTL1.Mtr           630.5:   Casing logger 1
 CTL1.Mtr          1299.7:   Casing logger 1
 BS  .Inch          9 7/8:   Bit size
 BS  .Inch          9 7/8:   Bit size
 BS  .Inch             12:   Bit size
 BS  .Inch          8 5/8:   Bit size
 DFT .          bentonite:   Type fluid in hole
 DFT .          bentonite:   Type fluid in hole
 DFT .          bentonite:   Type fluid in hole
 DFT .          bentonite:   Type fluid in hole
 WSS .           flowline:   Source of sample
 WSS .           flowline:   Source of sample
 WSS .           flowline:   Source of sample
 WSS .           flowline:   Source of sample
 EMT .Degf  3.0 ohmm @ 87:   Rm Meas. temp.
 EMT .Degf 2.05 ohmm @ 80:   Rm Meas. temp.
 EMT .Degf 1.51 ohmm @ 85:   Rm Meas. temp.
 EMT .Degf 0.71 ohmm @ 85:   Rm Meas. temp.
 MFT .Degf 2.72 ohmm @ 87:   Rmf Meas. temp.
 MFT .Degf 1.91 ohmm @ 80:   Rmf Meas. temp.
 MFT .Degf 1.36 ohmm @ 85:   Rmf Meas. temp.
 MFT .Degf 0.46 ohmm @ 85:   Rmf Meas. temp.
 MCST.Degf 1.93 ohmm @ 87:   Rmc Meas. temp.
 MCST.Degf 2.12 ohmm @ 80:   Rmc Meas. temp.
 MCST.Degf 1.62 ohmm @ 85:   Rmc Meas. temp.
 MCST.Degf 1.11 ohmm @ 85:   Rmc Meas. temp.
 MFSS.                  p:   Source Rmf.
 MFSS.                  p:   Source Rmf.
 MFSS.                  p:   Source Rmf.
 MFSS.                  p:   Source Rmf.
 MCSS.                  p:   Source Rmc.
 MCSS.                  p:   Source Rmc.
 MCSS.                  p:   Source Rmc.
 MCSS.                  p:   Source Rmc.
 TCS .HRS             1.5:   Time Circ. stopped
 TCS .HRS               3:   Time Circ. stopped
 TCS .HRS               4:   Time Circ. stopped
 TCS .HRS               7:   Time Circ. stopped
 LUN .               4618:   Logging unit number
 LUN .               4618:   Logging unit number
 LUN .               4618:   Logging unit number
 LUL .                mjv:   Logging unit location
 LUL .                mjv:   Logging unit location
 LUL .                mjv:   Logging unit location
 LUL .                mjv:   Logging unit location
 WITN.            Sukarna:   Witnessed by
 RE1 .                ILD:   Res. Electrode #1
 RE1 .                ILD:   Res. Electrode #1
 RE1 .                ILD:   Res. Electrode #1
 RE1 .                ILD:   Res. Electrode #1
 RE2 .                 SN:   Res. Electrode #2
 RE2 .                 SN:   Res. Electrode #2
 RE2 .                 SN:   Res. Electrode #2
 RE2 .                 SN:   Res. Electrode #2
 TLAB.Hrs             1.5:   Time logger at bottom
 TLAB.Hrs               3:   Time logger at bottom
 TLAB.Hrs               4:   Time logger at bottom
 TLAB.Hrs               7:   Time logger at bottom
 DGBY.            Sukarna:   Digitized By
 DGBY.            Sukarna:   Digitized By
 DGBY.            Sukarna:   Digitized By
 DGBY.            Sukarna:   Digitized By
 DGBY.            Sukarna:   Digitized By
~A  DEPTH     CALI         GR         SP        ILD         SN       NPHI       RHOB       DRHO       PROX
# ...
 2755.5230    11.2404   111.3915    23.5483     2.4858     2.4444    23.6693     2.3966     0.1252     1.8541
 2755.6750    10.4224   109.9866    23.5480     2.6299     2.5915    22.0369     2.3918     0.0489     1.6836
 2755.8280    10.2665   109.4415    23.5476     2.7832     2.7456    20.1006     2.4275     0.0189     1.9739
 2755.9800    10.1301   107.9818    23.5473     2.9858     2.9099    18.5179     2.4310     0.0197     2.4370
 2756.1320    10.0039   104.2069    23.5469     3.2369     3.0613    18.1726     2.4063     0.0062     3.2129
 2756.2850     9.8944   102.0008    23.5465     3.4944     3.2469    17.8133     2.3853     0.0075     3.4775
 2756.4370     9.8401    99.2700    23.4824     3.7818     3.4230    17.8720     2.3721     0.0112     3.7432
 2756.5900     9.8123    97.2235    23.1924     3.9469     3.6032    17.9257     2.3439     0.0144     3.6125
 2756.7420     9.7767    94.4679    22.7774     3.9754     3.7178    17.6426     2.3357     0.0134     3.2687
 2756.8940     9.7495    87.8507    22.0878     3.9756     3.8144    17.9050     2.3326    -0.0026     3.1283
 2757.0470     9.6328    85.5893    21.3284     3.9758     3.8298    17.8039     2.3363    -0.0073     2.9230
 2757.1990     9.4715    81.9058    20.4784     3.9476     3.8688    17.1518     2.3665     0.0045     3.2466
 2757.3520     9.3821    79.4261    19.3965     3.9192     3.9265    16.4058     2.3966     0.0082     3.0592
 2757.5040     9.3254    78.4137    18.5673     3.8919     3.9962    15.9293     2.4011     0.0114     3.0880
 2757.6560     9.3340    80.1477    17.4755     3.8787     4.0670    15.8960     2.4059     0.0272     4.0435
 2757.8090     9.3521    82.2670    16.6906     3.8448     4.1154    16.0594     2.3826     0.0441     4.5996
 2757.9610     9.3553    82.6915    16.1692     3.8371     4.1539    16.2729     2.3511     0.0326     4.7519
 2758.1140     9.3532    80.4686    16.0153     3.8473     4.2199    15.9823     2.3541     0.0226     4.9736
 2758.2660     9.3355    78.6056    15.9404     3.9042     4.2163    15.5884     2.3665     0.0139     4.7561
 2758.4180     9.3355    79.3611    15.6340     3.9208     4.1425    15.5434     2.3490     0.0042     3.9893
 2758.5710     9.3365    81.2117    15.3344     3.8654     4.0365    15.5518     2.3551     0.0011     3.6332
 2758.7230     9.3517    87.0472    15.0922     3.7747     4.0032    15.5296     2.3452     0.0055     3.4626
 2758.8750     9.3555    91.2409    14.9383     3.6765     3.9679    15.5886     2.3276     0.0205     3.4160
 2759.0280     9.3555    94.4415    14.9379     3.5808     3.9506    15.7833     2.3289     0.0096     3.9198
 2759.1800     9.3556    97.8429    14.9375     3.4977     3.9504    15.9650     2.3235     0.0076     3.9900
 2759.3330     9.3756   100.0427    14.9371     3.4473     3.9503    15.9691     2.3239     0.0109     3.4194
 2759.4850     9.4039   100.2405    14.9368     3.4304     3.9501    15.7521     2.3317     0.0163     3.3872
 2759.6380     9.4133    99.2897    14.9365     3.4610     3.9340    15.1586     2.3550     0.0230     3.4007
 2759.7900     9.4154    97.4967    14.9361     3.4917     3.9217    14.6189     2.3774     0.0343     2.9165
 2759.9420     9.4313    94.5121    15.2429     3.5489     3.8926    14.5056     2.4093     0.0307     2.6213
 2760.0950     9.4359    94.1048    15.9000     3.6210     3.8736    14.7290     2.4217     0.0171     3.7101
 2760.2470     9.4538    96.5014    16.7061     3.7395     3.9220    14.7621     2.4205     0.0292     3.6134
 2760.4000     9.4761    99.7674    17.4881     3.8398     4.0129    14.5671     2.4045     0.0273     5.5705
 2760.5520     9.5328   102.0473    18.3136     3.9798     4.1511    14.7582     2.4000     0.0067     6.2862
 2760.7040     9.6042   102.7330    18.9372     4.0814     4.2606    15.2585     2.4064     0.0022     5.2576
 2760.8570     9.6345    99.8426    19.8090     4.2172     4.3603    15.6998     2.4023     0.0065     4.3452
 2761.0090     9.6710   100.1400    20.3042     4.3119     4.4377    15.7445     2.3953     0.0028     4.6958
 2761.1620     9.7132   103.3747    20.4628     4.3996     4.4890    15.4921     2.3863     0.0006     4.7292
 2761.3140     9.6959   105.3193    20.3088     4.4313     4.4939    15.5289     2.3805     0.0049     4.3114
 2761.4660     9.5405   107.8926    19.9133     4.4223     4.5208    15.8191     2.3677     0.0054     4.4713
 2761.6190     9.4110   107.5496    19.4089     4.4001     4.5206    16.0626     2.3621    -0.0018     4.5330
 2761.7710     9.3947   100.9758    19.1308     4.4004     4.4883    16.2836     2.3375    -0.0109     4.5302
 2761.9240     9.4158   101.0188    18.7713     4.3692     4.4881    16.2359     2.3305    -0.0072     5.6767
 2762.0760     9.4458   105.3953    18.4228     4.3382     4.4772    16.2062     2.3330    -0.0061     6.5180
 2762.2290     9.4536   107.7268    18.1561     4.3384     4.4378    16.3469     2.3448     0.0103     4.3573
 2762.3810     9.4556   105.3444    18.2485     4.3386     4.3926    16.6124     2.3583     0.0184     4.6282
 2762.5330     9.4408   107.2430    18.6162     4.3388     4.3925    16.9017     2.3424     0.0043     4.7616
 2762.6860     9.4247   104.2506    18.6159     4.3343     4.3923    17.2728     2.3478     0.0071     4.4770
 2762.8380     9.4091   105.5760    18.5679     4.2965     4.3921    17.5938     2.3699     0.0103     4.2839
 2762.9900     9.3933   105.6239    18.2939     4.2589     4.3920    17.8772     2.3708     0.0004     4.2189
 2763.1430     9.3770   103.2427    17.6931     4.2172     4.4232    17.7836     2.3862     0.0034     4.0700
 2763.2950     9.3587   100.2303    17.5392     4.1873     4.3916    17.6008     2.3907    -0.0003     3.6972
 2763.4480     9.3555    99.0509    17.4998     4.1875     4.3914    17.4356     2.3736    -0.0042     3.9273
 2763.6000     9.3475   103.3911    17.3849     4.1877     4.3913    17.2490     2.3844    -0.0002     4.0555
 2763.7520     9.3365   107.0305    17.2732     4.1879     4.3599    17.1221     2.3927     0.0054     3.8457
 2763.9050     9.3200   106.4844    17.0769     4.2487     4.3597    17.0225     2.4071     0.0101     4.4388
 2764.0570     9.3210   103.0385    16.8928     4.2940     4.3719    16.9543     2.4106     0.0146     4.5970
 2764.2100     9.3525   100.2582    16.7690     4.3706     4.3906    16.8594     2.3862     0.0010     4.1788
 2764.3620     9.3810    96.1972    16.6662     4.4485     4.3904    16.6894     2.3549     0.0054     4.0129
 2764.5140     9.4140    93.1803    16.6146     4.4993     4.4248    16.6126     2.3586     0.0093     4.6234
 2764.6670     9.4578    91.2721    16.4607     4.4995     4.4531    16.5631     2.3597    -0.0052     4.9400
 2764.8190     9.4725    89.8827    16.5176     4.4738     4.4529    16.6302     2.3550    -0.0043     4.9189
 2764.9720     9.4762    88.1635    16.8949     4.4360     4.4527    16.8504     2.3579    -0.0016     3.9840
 2765.1240     9.4762    88.1399    16.9441     4.4046     4.3882    17.1054     2.3697     0.0129     4.1117
 2765.2760     9.4762    88.1160    16.7414     4.4396     4.3495    17.3843     2.3655     0.0220     4.1985
 2765.4290     9.4763    88.7224    16.3128     4.4791     4.3113    17.4025     2.3452    -0.0002     5.0752
 2765.5810     9.4763    88.8517    15.8282     4.5007     4.2733    16.9915     2.3467     0.0032     4.4636
 2765.7340     9.4763    88.7770    15.5364     4.5009     4.2655    16.4417     2.3526     0.0084     3.7870
 2765.8860     9.4764    88.4320    15.3825     4.5011     4.2653    16.0200     2.3602    -0.0029     3.3656
 2766.0380     9.4172    90.5638    15.3822     4.5098     4.2651    16.2616     2.3764     0.0047     3.1028
 2766.1910     9.3374    94.4387    15.5336     4.5499     4.2860    16.4432     2.3614     0.0136     4.1566
 2766.3430     9.3248    98.2530    15.8008     4.6144     4.3260    16.2143     2.3635     0.0242     4.2160
 2766.4960     9.3169   103.1795    15.8419     4.6992     4.3618    15.8199     2.3832     0.0341     3.8487
