~VERSION INFORMATION
 VERS.               1.20:   CWLS LOG ASCII STANDARD - VERSION 1.20
 WRAP.                 NO:   ONE LINE PER DEPTH STEP
~WELL INFORMATION
#MNEM.UNIT      DATA TYPE    INFORMATION
#----------   ------------   ------------------------------
 STRT.M          630.6096:   START DEPTH
 STOP.M         3133.6272:   STOP DEPTH
 STEP.M            0.1524:   STEP LENGTH
 NULL.          -999.2500:   NO VALUE
 COMP.            COMPANY:   PERTAMINA
 WELL.               WELL:   CMS-004
 WBN .            CMS-004:   WELLBORE
 FLD .              FIELD:   CEMARA SELATAN
 LOC .           LOCATION:   X = + 149636.27  Y = - 719813.7
 PROV.           PROVINCE:   JAWA BARAT
 STAT.              STATE:   INDONESIA
 SRVC.    SERVICE COMPANY:   SCHLUMBERGER
 DATE.            LOGDATE:   11/24/77
 APIN.         API NUMBER:   -
 UWI .  CEMARASELATAN-004:   UNIQUE WELL ID 
~CURVE INFORMATION
#MNEM.UNIT       API CODE    CURVE DESCRIPTION
#----------   ------------   ------------------------------
 DEPT.M                  :
 CALI.inch   60 280 00 00:   Caliper
 GR  .GAPI   60 310 00 00:   Gamma Ray
 SP  .mV     60 010 01 00:   Spontaneous Potential
 ILD .ohmm   05 070 46 00:   Induction Laterolog, Deep
 SN  .ohmm   05 040 16 00:   Short Normal 16"
 NPHI.%      42 890 03 00:   Neu. Porosity, Ss [%]
 RHOB.kg/cm3 42 350 01 00:   Bulk Density
 DRHO.g/cc   42 356 01 00:   Density Correction
 PROX.ohmm   21 270 30 00:   Proximity Log
~PARAMETER INFORMATION
#MNEM.UNIT          VALUE    DESCRIPTION
#----------   ------------   ------------------------------
 EKB .M            0.0000:   Kelly bushing
 EGL .M            0.0000:   Ground level
 EDF .M           10.0000:   Drilling floor
 EPD .M           10.0000:   Permanent datum
 TD  .M         3129.0000:   Total depth
 DF  .      CONGLONGMERAT:   Deepest formation
 PROJ.       SCHLUMBERGER:   Project
 DATE.           11/24/77:   Date logged
 SRFX.M       185028.4000:   Surface X position
 SRFY.M      9281121.0000:   Surface Y position
 STUS.                  3:   1-18 API codes
 SLAT.DECIMAL DE  -6.4963:   Surface Latitude
 SLNG.DECIMAL DE 108.1521:   Surface Longitude
 BLAT.DECIMAL DE   0.0000:   Bottom Latitude
 BLNG.DECIMAL DE   0.0000:   Bottom Longitude
 SCTN.                  0:   Section Number
 NSFT.F            0.0000:   N-S Footage
 EWFT.F            0.0000:   E-F Footage
 BHT .Degf            100:   Bottom Hole Temperature
 MRT .Degf            100:   Max Recorded Temperature
 MST .Degf             87:   Mud Temperature
 RM  .Ohmm            3.0:   Mud Resistivity
 RMB .Degf  2.7 ohmm @100:   Mud BHT Resistivity
 RMC .Ohmm           4.72:   Mud Cake Resistivity
 RMF .Ohmm           1.93:   Mud Filtrate Resistivity
 DFD .G/c3           1.05:   Drilling Fluid Density
 DFV .Sec              43:   Drilling Fluid Viscosity
 DFPH.                  9:   Drilling Fluid pH
 DFL .Ml               14:   Drilling Fluid Loss
 DD  .Mtr          3129.0:   Depth driller
 DL  .Mtr          3129.8:   Depth logger
 BLI .Mtr          3129.5:   Bottom log interval
 TLI .Mtr            2767:   Top log interval
 CSS .Inch          9 5/8:   Casing size
 CTD1.Mtr   9 5/8" @ 1300:   Casing driller 1
 CTL1.Mtr          1299.7:   Casing logger 1
 BS  .Inch          8 5/8:   Bit size
 DFT . Bentonite / Q.Broxin:   Type fluid in hole
 WSS .           Flowline:   Source of sample
 EMT .Degf 0.48 ohmm @ 95:   Rm Meas. temp.
 MFT .Degf 0.31 ohmm @ 80:   Rmf Meas. temp.
 MCST.Degf 0.66 ohmm @ 26:   Rmc Meas. temp.
 MFSS.              Press:   Source Rmf.
 MCSS.              Press:   Source Rmc.
 TCS .HRS              12:   Time Circ. stopped
 LUN .               RS18:   Logging unit number
 LUL .                WJV:   Logging unit location
 ENGI.            M.Akbar:   Recorded By
 WITN.  Wardoyo / Sugipto:   Witnessed by
 RE1 .        ILD (6FF40):   Res. Electrode #1
 RE2 .      SN  (A-16" M):   Res. Electrode #2
 TLAB.Hrs              12:   Time logger at bottom
 DATE.           12/02/77:   Date logged
 DATE.           12/13/77:   Date logged
 DATE.           01/10/77:   Date logged
 DATE.           01/28/78:   Date logged
 BHT .Degf            110:   Bottom Hole Temperature
 BHT .Degf            155:   Bottom Hole Temperature
 BHT .Degf            250:   Bottom Hole Temperature
 BHT .Degf            270:   Bottom Hole Temperature
 MRT .Degf            110:   Max Recorded Temperature
 MRT .Degf            155:   Max Recorded Temperature
 MRT .Degf            250:   Max Recorded Temperature
 MRT .Degf            270:   Max Recorded Temperature
 MST .Degf             80:   Mud Temperature
 MST .Degf             85:   Mud Temperature
 MST .Degf             85:   Mud Temperature
 MST .Degf             95:   Mud Temperature
 RM  .Ohmm           2.05:   Mud Resistivity
 RM  .Ohmm           1.51:   Mud Resistivity
 RM  .Ohmm           0.71:   Mud Resistivity
 RM  .Ohmm           0.48:   Mud Resistivity
 RMB .Degf 1.6 ohmm @ 110:   Mud BHT Resistivity
 RMB .Degf 0.9 ohmm @ 155:   Mud BHT Resistivity
 RMB .Degf 0.24 ohmm @ 250:   Mud BHT Resistivity
 RMB .Degf 0.16 ohmm @ 270:   Mud BHT Resistivity
 RMC .Ohmm           2.12:   Mud Cake Resistivity
 RMC .Ohmm           1.62:   Mud Cake Resistivity
 RMC .Ohmm           1.11:   Mud Cake Resistivity
 RMC .Ohmm 0.66 ohmm @ 26:   Mud Cake Resistivity
 RMF .Ohmm           1.91:   Mud Filtrate Resistivity
 RMF .Ohmm           1.36:   Mud Filtrate Resistivity
 RMF .Ohmm           0.46:   Mud Filtrate Resistivity
 RMF .Ohmm 0.31 ohmm @ 80:   Mud Filtrate Resistivity
 DFD .G/c3           1.15:   Drilling Fluid Density
 DFD .G/c3           1.14:   Drilling Fluid Density
 DFD .G/c3           1.17:   Drilling Fluid Density
 DFD .G/c3           1.23:   Drilling Fluid Density
 DFV .Sec              42:   Drilling Fluid Viscosity
 DFV .Sec              55:   Drilling Fluid Viscosity
 DFV .Sec              65:   Drilling Fluid Viscosity
 DFV .Sec              65:   Drilling Fluid Viscosity
 DFPH.                  9:   Drilling Fluid pH
 DFPH.                  9:   Drilling Fluid pH
 DFPH.                9.5:   Drilling Fluid pH
 DFPH.                9.5:   Drilling Fluid pH
 DFL .Ml               10:   Drilling Fluid Loss
 DFL .Ml              6.5:   Drilling Fluid Loss
 DFL .Ml                5:   Drilling Fluid Loss
 DFL .Ml                5:   Drilling Fluid Loss
 DD  .Mtr             255:   Depth driller
 DD  .Mtr             635:   Depth driller
 DD  .Mtr            1305:   Depth driller
 DD  .Mtr            2798:   Depth driller
 DL  .Mtr             255:   Depth logger
 DL  .Mtr             635:   Depth logger
 DL  .Mtr            1303:   Depth logger
 DL  .Mtr          2799.3:   Depth logger
 BLI .Mtr           254.7:   Bottom log interval
 BLI .Mtr           634.7:   Bottom log interval
 BLI .Mtr            1302:   Bottom log interval
 BLI .Mtr          2799.0:   Bottom log interval
 TLI .Mtr            30.0:   Top log interval
 TLI .Mtr           259.3:   Top log interval
 TLI .Mtr           630.5:   Top log interval
 TLI .Mtr          1299.7:   Top log interval
 CSS .Inch             30:   Casing size
 CSS .Inch             20:   Casing size
 CSS .Inch         12 1/4:   Casing size
 CSS .Inch          9 5/8:   Casing size
 CTD1.Mtr              30:   Casing driller 1
 CTD1.Mtr           259.1:   Casing driller 1
 CTD1.Mtr             630:   Casing driller 1
 CTD1.Mtr            1300:   Casing driller 1
 CTL1.Mtr              30:   Casing logger 1
 CTL1.Mtr           250.5:   Casing logger 1
 CTL1.Mtr           630.5:   Casing logger 1
 CTL1.Mtr          1299.7:   Casing logger 1
 BS  .Inch          9 7/8:   Bit size
 BS  .Inch          9 7/8:   Bit size
 BS  .Inch             12:   Bit size
 BS  .Inch          8 5/8:   Bit size
 DFT .          bentonite:   Type fluid in hole
 DFT .          bentonite:   Type fluid in hole
 DFT .          bentonite:   Type fluid in hole
 DFT .          bentonite:   Type fluid in hole
 WSS .           flowline:   Source of sample
 WSS .           flowline:   Source of sample
 WSS .           flowline:   Source of sample
 WSS .           flowline:   Source of sample
 EMT .Degf  3.0 ohmm @ 87:   Rm Meas. temp.
 EMT .Degf 2.05 ohmm @ 80:   Rm Meas. temp.
 EMT .Degf 1.51 ohmm @ 85:   Rm Meas. temp.
 EMT .Degf 0.71 ohmm @ 85:   Rm Meas. temp.
 MFT .Degf 2.72 ohmm @ 87:   Rmf Meas. temp.
 MFT .Degf 1.91 ohmm @ 80:   Rmf Meas. temp.
 MFT .Degf 1.36 ohmm @ 85:   Rmf Meas. temp.
 MFT .Degf 0.46 ohmm @ 85:   Rmf Meas. temp.
 MCST.Degf 1.93 ohmm @ 87:   Rmc Meas. temp.
 MCST.Degf 2.12 ohmm @ 80:   Rmc Meas. temp.
 MCST.Degf 1.62 ohmm @ 85:   Rmc Meas. temp.
 MCST.Degf 1.11 ohmm @ 85:   Rmc Meas. temp.
 MFSS.                  p:   Source Rmf.
 MFSS.                  p:   Source Rmf.
 MFSS.                  p:   Source Rmf.
 MFSS.                  p:   Source Rmf.
 MCSS.                  p:   Source Rmc.
 MCSS.                  p:   Source Rmc.
 MCSS.                  p:   Source Rmc.
 MCSS.                  p:   Source Rmc.
 TCS .HRS             1.5:   Time Circ. stopped
 TCS .HRS               3:   Time Circ. stopped
 TCS .HRS               4:   Time Circ. stopped
 TCS .HRS               7:   Time Circ. stopped
 LUN .               4618:   Logging unit number
 LUN .               4618:   Logging unit number
 LUN .               4618:   Logging unit number
 LUL .                mjv:   Logging unit location
 LUL .                mjv:   Logging unit location
 LUL .                mjv:   Logging unit location
 LUL .                mjv:   Logging unit location
 WITN.            Sukarna:   Witnessed by
 RE1 .                ILD:   Res. Electrode #1
 RE1 .                ILD:   Res. Electrode #1
 RE1 .                ILD:   Res. Electrode #1
 RE1 .                ILD:   Res. Electrode #1
 RE2 .                 SN:   Res. Electrode #2
 RE2 .                 SN:   Res. Electrode #2
 RE2 .                 SN:   Res. Electrode #2
 RE2 .                 SN:   Res. Electrode #2
 TLAB.Hrs             1.5:   Time logger at bottom
 TLAB.Hrs               3:   Time logger at bottom
 TLAB.Hrs               4:   Time logger at bottom
 TLAB.Hrs               7:   Time logger at bottom
 DGBY.            Sukarna:   Digitized By
 DGBY.            Sukarna:   Digitized By
 DGBY.            Sukarna:   Digitized By
 DGBY.            Sukarna:   Digitized By
 DGBY.            Sukarna:   Digitized By
~A  DEPTH     CALI         GR         SP        ILD         SN       NPHI       RHOB       DRHO       PROX
# ...
 2633.1460    11.0164    29.6111    20.4472     6.6685     5.5771    20.7313     2.4998     0.0473     5.2229
 2633.2980    10.9981    30.5033    20.2216     6.7433     5.7738    21.4311     2.5459     0.0650     6.5048
 2633.4500    11.0775    31.8861    20.3806     6.6955     5.8564    22.0550     2.5731     0.0364     4.1886
 2633.6030    11.1672    32.8589    20.7217     6.6755     5.8341    22.5259     2.5511     0.0429     5.0317
 2633.7550    11.2307    34.1996    20.9114     6.6170     5.7117    22.9911     2.5213     0.0178     5.4060
 2633.9080    11.5014    34.7313    21.1009     6.4615     5.5918    23.7809     2.4890     0.0192     6.4657
 2634.0600    11.8207    32.2372    21.2978     6.2522     5.4528    25.0156     2.4696     0.0278     4.7632
 2634.2120    12.4077    30.8536    21.6060     5.9841     5.3597    25.9658     2.4532     0.0443     5.2507
 2634.3650    12.0692    28.3833    21.6696     5.6556     5.2497    26.5880     2.4736     0.0801     6.0501
 2634.5170    12.5186    27.8600    21.6569     5.2205     5.1373    26.5348     2.4749     0.0364     5.9433
 2634.6700    12.5855    29.9612    21.6021     4.9902     5.0052    26.2084     2.4571     0.0125     3.7202
 2634.8220    11.6549    29.0118    21.6011     4.7966     4.9240    25.8088     2.4545     0.0016     2.8940
 2634.9740    11.4396    26.3906    21.6548     4.9318     4.8379    25.1241     2.4676     0.0116     3.5812
 2635.1270    11.4933    25.2528    21.8443     4.7976     4.7742    24.5919     2.4829     0.0228     2.7996
 2635.2790    11.5393    25.6131    21.5974     4.8056     4.7609    23.8464     2.5047     0.0578     2.4289
 2635.4320    11.5372    26.3465    21.2520     4.8969     4.8008    22.8984     2.5557     0.0569     4.3721
 2635.5840    11.5211    27.1414    20.6229     5.0281     4.8859    21.9909     2.5768     0.0265     5.7470
 2635.7360    11.3511    27.9014    20.3500     5.2677     4.9923    20.6949     2.5813     0.0299     6.2122
 2635.8890    11.1578    28.6854    20.0470     5.6008     5.2969    20.6584     2.5646     0.0501     5.3872
 2636.0410    11.2724    29.4695    19.8915     6.1038     5.6162    21.5744     2.5548     0.0316     4.7460
 2636.1940    11.3954    28.3856    19.7358     6.4843     6.0268    22.2095     2.5373     0.0416    10.6444
 2636.3460    11.5095    26.2293    19.7346     6.9115     6.4199    22.6959     2.5428     0.0605    17.0575
 2636.4980    11.5910    24.8945    19.6264     7.3846     6.7673    23.1905     2.5467     0.0467    15.6902
 2636.6510    11.5044    25.0503    19.4230     7.8275     7.1937    23.2606     2.5275     0.0672    14.4898
 2636.8030    11.3689    25.1065    19.4469     7.9962     7.4977    22.7749     2.5410     0.0730    11.0534
 2636.9560    11.1811    25.0944    19.5753     7.9263     7.7175    21.6938     2.5557     0.0371    10.8584
 2637.1080    11.0006    25.1192    19.6714     7.8311     7.8165    19.8639     2.5493     0.0228     9.2139
 2637.2600    10.7876    25.4649    19.7275     7.7721     7.8904    18.1924     2.5646     0.0138    10.2890
 2637.4130    10.6346    25.2845    19.8810     7.8275     8.0852    18.3980     2.5757     0.0125    12.0400
 2637.5650    10.4972    23.6612    19.8797     8.1494     8.3012    18.7590     2.5623     0.0188    16.2551
 2637.7180    10.4526    22.0516    19.8785     8.3921     8.4855    19.1505     2.5610     0.0260    34.1395
 2637.8700    10.3958    22.8010    19.7226     8.4640     8.7786    19.3893     2.5673     0.0123    20.0305
 2638.0220    10.3834    25.0799    19.7216     8.4640     8.9094    18.6045     2.5544     0.0163    22.7161
 2638.1750    10.3972    26.9404    19.7204     8.4581     8.9675    17.4777     2.5596    -0.0111    17.4572
 2638.3270    10.3897    25.5364    19.7193     8.3263     8.9671    17.7359     2.5363    -0.0014    16.8023
 2638.4790    10.3390    24.1933    19.7181     8.0714     8.8398    18.2438     2.5461     0.0183    26.3787
 2638.6320    10.3784    26.6525    19.7169     7.8833     8.8382    18.4461     2.5665     0.0122    47.6144
 2638.7840    10.4358    28.8208    19.7157     7.6624     8.7604    18.6118     2.5596    -0.0258    56.9540
 2638.9370    10.4809    29.4135    19.7146     7.8715     8.6834    18.5777     2.5207    -0.0129    35.4523
 2639.0890    10.5525    28.9163    19.7134     8.0243     8.6069    18.3761     2.4802     0.0103    22.7841
 2639.2420    10.6449    27.4822    19.7121     8.0532     8.4682    17.7179     2.4441     0.0280    15.5586
 2639.3940    10.8081    26.5641    19.7320     7.9395     8.3250    17.1782     2.3905     0.0712    14.4521
 2639.5460    11.1086    28.5102    19.9215     7.6755     8.1300    18.6893     2.3238     0.1525    18.3173
 2639.6990    11.5364    31.5849    20.2043     7.3678     7.8118    20.6755     2.2434     0.1736    14.1827
 2639.8510    12.4024    32.1155    20.6347     6.9905     7.4479    24.1314     2.1227     0.1581    15.3515
 2640.0040    12.8373    30.9300    20.6337     6.5069     6.9692    28.0764     2.0751     0.1182    15.0242
 2640.1560    12.6166    30.1400    20.6325     6.1857     6.4163    29.4770     2.0913     0.0330     7.1982
 2640.3080    12.1144    30.5148    20.6313     6.1786     5.9801    30.0071     2.1951     0.0446     2.7267
 2640.4610    12.9111    32.6124    20.6299     6.2353     5.4430    28.6818     2.3137     0.1387     2.5582
 2640.6130    13.5509    32.0890    20.6290     6.1473     5.1196    27.6506     2.4002     0.1760     2.8987
 2640.7660    14.2844    34.9254    20.6278     6.0065     4.8140    27.0524     2.4566     0.2029     4.6507
 2640.9180    13.8761    37.3631    20.6266     5.7609     4.6296    27.1966     2.4370     0.2224     5.8427
 2641.0700    13.1776    39.0547    20.6254     5.5626     4.4581    27.6268     2.4322     0.2063     4.5532
 2641.2230    12.3567    39.8890    20.6242     5.4574     4.4263    27.9291     2.4191     0.1828     3.9405
 2641.3750    12.1884    37.7077    20.7778     5.4477     4.4577    28.0360     2.3984     0.2011     4.5039
 2641.5280    12.4180    35.6338    20.7764     5.4951     4.4575    28.0022     2.3657     0.1609     3.2413
 2641.6800    12.3275    35.7572    20.7753     5.5435     4.4573    28.2760     2.3044     0.1246     2.1922
 2641.8330    11.9257    36.3362    20.7740     5.5922     4.4571    28.1911     2.3020     0.1485     1.8167
 2641.9850    11.9041    36.1554    20.7899     5.6048     4.3820    27.4758     2.3072     0.1900     2.0953
 2642.1370    12.0504    34.5989    20.9263     5.5142     4.3185    26.5030     2.3207     0.1788     3.3385
 2642.2900    12.4358    32.7022    20.9251     5.4626     4.3006    26.1381     2.3269     0.1424     2.9900
 2642.4420    12.7544    32.3365    20.9238     5.5106     4.3312    26.2660     2.3140     0.1075     2.6889
 2642.5940    13.0129    32.8541    20.9228     5.6048     4.3660    26.7950     2.2998     0.1240     3.1304
 2642.7470    12.3851    32.3666    20.9216     5.7288     4.4045    27.3763     2.3441     0.1513     2.8990
 2642.8990    11.9809    30.6912    20.9997     5.7922     4.4432    28.0139     2.3539     0.1072     2.4101
 2643.0520    12.4415    29.4507    21.1891     5.8717     4.4874    28.4901     2.3453     0.1371     4.2924
 2643.2040    12.4674    30.7216    21.2272     5.9750     4.5540    27.9994     2.4118     0.2149     3.9243
 2643.3560    12.0700    31.8162    21.2260     6.0610     4.5940    26.9309     2.4318     0.2223     4.2608
 2643.5090    12.0241    31.4116    21.1556     6.1038     4.6344    25.8564     2.4117     0.1894     4.0262
 2643.6610    12.2908    31.3040    21.0691     6.1245     4.7161    24.8008     2.4146     0.1016     5.2768
 2643.8140    12.8385    31.5865    20.9133     6.2098     4.7159    24.6277     2.4318     0.1066     3.0781
 2643.9660    13.2389    31.6190    20.8890     6.3697     4.7157    24.4375     2.4975     0.1256     3.1743
 2644.1180    12.9542    31.2597    20.7564     6.5862     4.7155    24.2886     2.5256     0.1364     4.8494
