~VERSION INFORMATION
 VERS.               1.20:   CWLS LOG ASCII STANDARD - VERSION 1.20
 WRAP.                 NO:   ONE LINE PER DEPTH STEP
~WELL INFORMATION
#MNEM.UNIT      DATA TYPE    INFORMATION
#----------   ------------   ------------------------------
 STRT.M          630.6096:   START DEPTH
 STOP.M         3133.6272:   STOP DEPTH
 STEP.M            0.1524:   STEP LENGTH
 NULL.          -999.2500:   NO VALUE
 COMP.            COMPANY:   PERTAMINA
 WELL.               WELL:   CMS-004
 WBN .            CMS-004:   WELLBORE
 FLD .              FIELD:   CEMARA SELATAN
 LOC .           LOCATION:   X = + 149636.27  Y = - 719813.7
 PROV.           PROVINCE:   JAWA BARAT
 STAT.              STATE:   INDONESIA
 SRVC.    SERVICE COMPANY:   SCHLUMBERGER
 DATE.            LOGDATE:   11/24/77
 APIN.         API NUMBER:   -
 UWI .  CEMARASELATAN-004:   UNIQUE WELL ID 
~CURVE INFORMATION
#MNEM.UNIT       API CODE    CURVE DESCRIPTION
#----------   ------------   ------------------------------
 DEPT.M                  :
 CALI.inch   60 280 00 00:   Caliper
 GR  .GAPI   60 310 00 00:   Gamma Ray
 SP  .mV     60 010 01 00:   Spontaneous Potential
 ILD .ohmm   05 070 46 00:   Induction Laterolog, Deep
 SN  .ohmm   05 040 16 00:   Short Normal 16"
 NPHI.%      42 890 03 00:   Neu. Porosity, Ss [%]
 RHOB.kg/cm3 42 350 01 00:   Bulk Density
 DRHO.g/cc   42 356 01 00:   Density Correction
 PROX.ohmm   21 270 30 00:   Proximity Log
~PARAMETER INFORMATION
#MNEM.UNIT          VALUE    DESCRIPTION
#----------   ------------   ------------------------------
 EKB .M            0.0000:   Kelly bushing
 EGL .M            0.0000:   Ground level
 EDF .M           10.0000:   Drilling floor
 EPD .M           10.0000:   Permanent datum
 TD  .M         3129.0000:   Total depth
 DF  .      CONGLONGMERAT:   Deepest formation
 PROJ.       SCHLUMBERGER:   Project
 DATE.           11/24/77:   Date logged
 SRFX.M       185028.4000:   Surface X position
 SRFY.M      9281121.0000:   Surface Y position
 STUS.                  3:   1-18 API codes
 SLAT.DECIMAL DE  -6.4963:   Surface Latitude
 SLNG.DECIMAL DE 108.1521:   Surface Longitude
 BLAT.DECIMAL DE   0.0000:   Bottom Latitude
 BLNG.DECIMAL DE   0.0000:   Bottom Longitude
 SCTN.                  0:   Section Number
 NSFT.F            0.0000:   N-S Footage
 EWFT.F            0.0000:   E-F Footage
 BHT .Degf            100:   Bottom Hole Temperature
 MRT .Degf            100:   Max Recorded Temperature
 MST .Degf             87:   Mud Temperature
 RM  .Ohmm            3.0:   Mud Resistivity
 RMB .Degf  2.7 ohmm @100:   Mud BHT Resistivity
 RMC .Ohmm           4.72:   Mud Cake Resistivity
 RMF .Ohmm           1.93:   Mud Filtrate Resistivity
 DFD .G/c3           1.05:   Drilling Fluid Density
 DFV .Sec              43:   Drilling Fluid Viscosity
 DFPH.                  9:   Drilling Fluid pH
 DFL .Ml               14:   Drilling Fluid Loss
 DD  .Mtr          3129.0:   Depth driller
 DL  .Mtr          3129.8:   Depth logger
 BLI .Mtr          3129.5:   Bottom log interval
 TLI .Mtr            2767:   Top log interval
 CSS .Inch          9 5/8:   Casing size
 CTD1.Mtr   9 5/8" @ 1300:   Casing driller 1
 CTL1.Mtr          1299.7:   Casing logger 1
 BS  .Inch          8 5/8:   Bit size
 DFT . Bentonite / Q.Broxin:   Type fluid in hole
 WSS .           Flowline:   Source of sample
 EMT .Degf 0.48 ohmm @ 95:   Rm Meas. temp.
 MFT .Degf 0.31 ohmm @ 80:   Rmf Meas. temp.
 MCST.Degf 0.66 ohmm @ 26:   Rmc Meas. temp.
 MFSS.              Press:   Source Rmf.
 MCSS.              Press:   Source Rmc.
 TCS .HRS              12:   Time Circ. stopped
 LUN .               RS18:   Logging unit number
 LUL .                WJV:   Logging unit location
 ENGI.            M.Akbar:   Recorded By
 WITN.  Wardoyo / Sugipto:   Witnessed by
 RE1 .        ILD (6FF40):   Res. Electrode #1
 RE2 .      SN  (A-16" M):   Res. Electrode #2
 TLAB.Hrs              12:   Time logger at bottom
 DATE.           12/02/77:   Date logged
 DATE.           12/13/77:   Date logged
 DATE.           01/10/77:   Date logged
 DATE.           01/28/78:   Date logged
 BHT .Degf            110:   Bottom Hole Temperature
 BHT .Degf            155:   Bottom Hole Temperature
 BHT .Degf            250:   Bottom Hole Temperature
 BHT .Degf            270:   Bottom Hole Temperature
 MRT .Degf            110:   Max Recorded Temperature
 MRT .Degf            155:   Max Recorded Temperature
 MRT .Degf            250:   Max Recorded Temperature
 MRT .Degf            270:   Max Recorded Temperature
 MST .Degf             80:   Mud Temperature
 MST .Degf             85:   Mud Temperature
 MST .Degf             85:   Mud Temperature
 MST .Degf             95:   Mud Temperature
 RM  .Ohmm           2.05:   Mud Resistivity
 RM  .Ohmm           1.51:   Mud Resistivity
 RM  .Ohmm           0.71:   Mud Resistivity
 RM  .Ohmm           0.48:   Mud Resistivity
 RMB .Degf 1.6 ohmm @ 110:   Mud BHT Resistivity
 RMB .Degf 0.9 ohmm @ 155:   Mud BHT Resistivity
 RMB .Degf 0.24 ohmm @ 250:   Mud BHT Resistivity
 RMB .Degf 0.16 ohmm @ 270:   Mud BHT Resistivity
 RMC .Ohmm           2.12:   Mud Cake Resistivity
 RMC .Ohmm           1.62:   Mud Cake Resistivity
 RMC .Ohmm           1.11:   Mud Cake Resistivity
 RMC .Ohmm 0.66 ohmm @ 26:   Mud Cake Resistivity
 RMF .Ohmm           1.91:   Mud Filtrate Resistivity
 RMF .Ohmm           1.36:   Mud Filtrate Resistivity
 RMF .Ohmm           0.46:   Mud Filtrate Resistivity
 RMF .Ohmm 0.31 ohmm @ 80:   Mud Filtrate Resistivity
 DFD .G/c3           1.15:   Drilling Fluid Density
 DFD .G/c3           1.14:   Drilling Fluid Density
 DFD .G/c3           1.17:   Drilling Fluid Density
 DFD .G/c3           1.23:   Drilling Fluid Density
 DFV .Sec              42:   Drilling Fluid Viscosity
 DFV .Sec              55:   Drilling Fluid Viscosity
 DFV .Sec              65:   Drilling Fluid Viscosity
 DFV .Sec              65:   Drilling Fluid Viscosity
 DFPH.                  9:   Drilling Fluid pH
 DFPH.                  9:   Drilling Fluid pH
 DFPH.                9.5:   Drilling Fluid pH
 DFPH.                9.5:   Drilling Fluid pH
 DFL .Ml               10:   Drilling Fluid Loss
 DFL .Ml              6.5:   Drilling Fluid Loss
 DFL .Ml                5:   Drilling Fluid Loss
 DFL .Ml                5:   Drilling Fluid Loss
 DD  .Mtr             255:   Depth driller
 DD  .Mtr             635:   Depth driller
 DD  .Mtr            1305:   Depth driller
 DD  .Mtr            2798:   Depth driller
 DL  .Mtr             255:   Depth logger
 DL  .Mtr             635:   Depth logger
 DL  .Mtr            1303:   Depth logger
 DL  .Mtr          2799.3:   Depth logger
 BLI .Mtr           254.7:   Bottom log interval
 BLI .Mtr           634.7:   Bottom log interval
 BLI .Mtr            1302:   Bottom log interval
 BLI .Mtr          2799.0:   Bottom log interval
 TLI .Mtr            30.0:   Top log interval
 TLI .Mtr           259.3:   Top log interval
 TLI .Mtr           630.5:   Top log interval
 TLI .Mtr          1299.7:   Top log interval
 CSS .Inch             30:   Casing size
 CSS .Inch             20:   Casing size
 CSS .Inch         12 1/4:   Casing size
 CSS .Inch          9 5/8:   Casing size
 CTD1.Mtr              30:   Casing driller 1
 CTD1.Mtr           259.1:   Casing driller 1
 CTD1.Mtr             630:   Casing driller 1
 CTD1.Mtr            1300:   Casing driller 1
 CTL1.Mtr              30:   Casing logger 1
 CTL1.Mtr           250.5:   Casing logger 1
 CTL1.Mtr           630.5:   Casing logger 1
 CTL1.Mtr          1299.7:   Casing logger 1
 BS  .Inch          9 7/8:   Bit size
 BS  .Inch          9 7/8:   Bit size
 BS  .Inch             12:   Bit size
 BS  .Inch          8 5/8:   Bit size
 DFT .          bentonite:   Type fluid in hole
 DFT .          bentonite:   Type fluid in hole
 DFT .          bentonite:   Type fluid in hole
 DFT .          bentonite:   Type fluid in hole
 WSS .           flowline:   Source of sample
 WSS .           flowline:   Source of sample
 WSS .           flowline:   Source of sample
 WSS .           flowline:   Source of sample
 EMT .Degf  3.0 ohmm @ 87:   Rm Meas. temp.
 EMT .Degf 2.05 ohmm @ 80:   Rm Meas. temp.
 EMT .Degf 1.51 ohmm @ 85:   Rm Meas. temp.
 EMT .Degf 0.71 ohmm @ 85:   Rm Meas. temp.
 MFT .Degf 2.72 ohmm @ 87:   Rmf Meas. temp.
 MFT .Degf 1.91 ohmm @ 80:   Rmf Meas. temp.
 MFT .Degf 1.36 ohmm @ 85:   Rmf Meas. temp.
 MFT .Degf 0.46 ohmm @ 85:   Rmf Meas. temp.
 MCST.Degf 1.93 ohmm @ 87:   Rmc Meas. temp.
 MCST.Degf 2.12 ohmm @ 80:   Rmc Meas. temp.
 MCST.Degf 1.62 ohmm @ 85:   Rmc Meas. temp.
 MCST.Degf 1.11 ohmm @ 85:   Rmc Meas. temp.
 MFSS.                  p:   Source Rmf.
 MFSS.                  p:   Source Rmf.
 MFSS.                  p:   Source Rmf.
 MFSS.                  p:   Source Rmf.
 MCSS.                  p:   Source Rmc.
 MCSS.                  p:   Source Rmc.
 MCSS.                  p:   Source Rmc.
 MCSS.                  p:   Source Rmc.
 TCS .HRS             1.5:   Time Circ. stopped
 TCS .HRS               3:   Time Circ. stopped
 TCS .HRS               4:   Time Circ. stopped
 TCS .HRS               7:   Time Circ. stopped
 LUN .               4618:   Logging unit number
 LUN .               4618:   Logging unit number
 LUN .               4618:   Logging unit number
 LUL .                mjv:   Logging unit location
 LUL .                mjv:   Logging unit location
 LUL .                mjv:   Logging unit location
 LUL .                mjv:   Logging unit location
 WITN.            Sukarna:   Witnessed by
 RE1 .                ILD:   Res. Electrode #1
 RE1 .                ILD:   Res. Electrode #1
 RE1 .                ILD:   Res. Electrode #1
 RE1 .                ILD:   Res. Electrode #1
 RE2 .                 SN:   Res. Electrode #2
 RE2 .                 SN:   Res. Electrode #2
 RE2 .                 SN:   Res. Electrode #2
 RE2 .                 SN:   Res. Electrode #2
 TLAB.Hrs             1.5:   Time logger at bottom
 TLAB.Hrs               3:   Time logger at bottom
 TLAB.Hrs               4:   Time logger at bottom
 TLAB.Hrs               7:   Time logger at bottom
 DGBY.            Sukarna:   Digitized By
 DGBY.            Sukarna:   Digitized By
 DGBY.            Sukarna:   Digitized By
 DGBY.            Sukarna:   Digitized By
 DGBY.            Sukarna:   Digitized By
~A  DEPTH     CALI         GR         SP        ILD         SN       NPHI       RHOB       DRHO       PROX
# ...
 1420.4990     9.9035    91.9000     0.6312     0.9330     1.1129    35.7774     2.3162     0.1246     1.3435
 1420.6510     9.8772    92.6317     0.4478     0.9644     1.1331    35.2288     2.3272     0.1444     1.3728
 1420.8040     9.8390    95.5758     0.2329     0.9904     1.1388    34.6201     2.3373     0.1268     1.2802
 1420.9560     9.7992    97.2915     0.2390     1.0220     1.1402    33.3952     2.3335     0.1232     1.2759
 1421.1080     9.7761    95.2832     0.2464     1.0534     1.1570    32.7860     2.3404     0.1125     1.2531
 1421.2610     9.7730    92.0066     0.2537     1.0801     1.1884    33.7530     2.3604     0.1402     1.1098
 1421.4130     9.7878    89.8608     0.2611     1.1091     1.2244    33.4501     2.3740     0.1012     1.3190
 1421.5660     9.8084    88.1337     0.2686     1.1390     1.2538    32.7691     2.3428     0.0529     1.3296
 1421.7180     9.8213    89.6640     0.1202     1.1724     1.2942    31.9301     2.3320     0.0351     1.3227
 1421.8700     9.8233    90.5036     0.1288     1.2010     1.3587    31.4637     2.3270     0.0394     1.5085
 1422.0230     9.8210    87.0940     0.0321     1.2301     1.4445    31.8594     2.3581     0.0611     1.5414
 1422.1750     9.8185    83.5569    -0.1646     1.2575     1.4995    32.6409     2.3882     0.0957     1.5198
 1422.3280     9.8123    82.9816    -0.3347     1.2865     1.5539    33.2730     2.4133     0.1047     1.6539
 1422.4800     9.7765    85.1052    -0.5769     1.3158     1.6042    33.2187     2.4114     0.1191     1.7258
 1422.6320     9.7324    86.7213    -0.7604     1.3394     1.6212    32.8174     2.4084     0.1222     1.8432
 1422.7850     9.7118    88.9830    -0.5979     1.3579     1.6100    32.7527     2.3911     0.1025     1.7846
 1422.9370     9.7025    90.6790    -0.4232     1.3431     1.5658    33.6442     2.3734     0.0845     1.6524
 1423.0900     9.6522    92.1268    -0.2252     1.3028     1.5119    34.5337     2.3648     0.0834     1.4940
 1423.2420     9.5750    92.9995     0.0596     1.2168     1.4597    34.1677     2.3766     0.1015     1.6000
 1423.3940     9.5077    94.1008     0.3578     1.1361     1.4073    33.3764     2.3853     0.1253     1.5162
 1423.5470     9.4019    95.0837     0.3690     1.0475     1.3511    33.4909     2.3756     0.1200     1.3699
 1423.6990     9.3479    94.9684     0.5256     1.0110     1.3007    34.1879     2.3641     0.1067     1.3118
 1423.8520     9.3413    94.5629     0.5330     0.9709     1.2566    35.1455     2.3547     0.0874     1.3027
 1424.0040     9.3397    94.1592     0.5403     0.9521     1.2214    35.8384     2.3411     0.0888     1.2664
 1424.1560     9.3582    93.5610     0.5478     0.9534     1.2044    36.4627     2.3507     0.1080     1.2399
 1424.3090     9.3924    91.6076     0.5550     0.9761     1.2334    36.0919     2.3539     0.1099     1.2263
 1424.4610     9.4301    89.2685     0.5624     1.0301     1.3186    34.5156     2.3561     0.0955     1.2057
 1424.6140     9.4081    82.9907     0.4642     1.1021     1.4513    33.1016     2.3162     0.0730     1.3323
 1424.7660     9.3386    76.2273     0.2689     1.1611     1.5890    31.4522     2.3041     0.0388     3.3000
 1424.9180     9.2318    72.3202    -0.0810     1.1832     1.6830    30.1642     2.3061     0.0166     7.0091
 1425.0710     9.1974    77.0073    -0.4550     1.1749     1.7381    31.2182     2.3260     0.0153     1.8744
 1425.2230     9.3865    82.6927    -0.7323     1.1881     1.7392    33.7306     2.3172     0.1270     1.1752
 1425.3760     9.7043    90.1283    -0.6273     1.2309     1.6843    37.9960     2.2554     0.1491     1.2871
 1425.5280     9.8554    90.8910    -0.2814     1.2619     1.5641    38.4852     2.1860     0.0916     1.4004
 1425.6800     9.7769    88.1483     0.1074     1.2370     1.4273    37.4850     2.2021     0.0563     1.4416
 1425.8330     9.7071    92.8307     0.4081     1.1425     1.3162    37.1807     2.2600     0.0694     1.4203
 1425.9850     9.5793    96.6220     0.5965     1.0489     1.2979    38.0383     2.2834     0.0718     1.4119
 1426.1380     9.5445    92.2045     0.6432     0.9912     1.2982    38.4602     2.3212     0.1089     1.4235
 1426.2900     9.5669    94.1160     0.6075     0.9699     1.2986    38.4902     2.3332     0.1343     1.3871
 1426.4420     9.5942    97.0822     0.5036     0.9677     1.2924    38.6293     2.3286     0.1126     1.4222
 1426.5950     9.5666    98.7185     0.5109     0.9850     1.2718    39.0136     2.3274     0.1289     1.4368
 1426.7470     9.5326   101.0952     0.5184     1.0130     1.2738    39.3756     2.3342     0.1047     1.3946
 1426.9000     9.7256   100.0220     0.5256     1.0276     1.2816    39.3222     2.3086     0.0794     1.4454
 1427.0520     9.7163    93.7615     0.5330     1.0296     1.2941    38.8173     2.3125     0.0911     1.3792
 1427.2040     9.5294    90.1248     0.4332     1.0351     1.3195    38.1751     2.3247     0.1143     1.3437
 1427.3570     9.4628    87.2788     0.2395     1.0298     1.3401    38.8156     2.3073     0.1023     1.4362
 1427.5090     9.4377    86.4878     0.0665     1.0280     1.3487    39.7589     2.2735     0.0835     1.6562
 1427.6620     9.2734    88.6350    -0.2409     1.0208     1.3433    40.6278     2.2089     0.0710     1.1282
 1427.8140     9.3177    91.1091    -0.7072     1.0209     1.3022    41.2831     2.2030     0.0866     1.2650
 1427.9660     9.6829    98.0960    -1.1197     1.0160     1.2741    41.9873     2.2065     0.1055     0.9928
 1428.1190     9.6107    99.8729    -1.4224     1.0138     1.2692    41.4046     2.2074     0.1268     0.9380
 1428.2710     9.3805   102.1607    -1.3611     1.0224     1.2756    40.7508     2.1757     0.0774     1.0034
 1428.4240     8.9580   103.9898    -1.0733     1.0346     1.2760    39.8114     2.2137     0.0924     0.9654
 1428.5760     8.7876   106.0169    -0.7813     1.0729     1.2866    38.0263     2.2792     0.1156     1.0646
 1428.7280     8.9485   100.3740    -0.9459     1.1693     1.3324    36.0836     2.3493     0.1380     1.2933
 1428.8810     9.1176    95.0721    -1.3198     1.2673     1.4341    33.7241     2.4123     0.1322     1.6111
 1429.0330     9.2721    92.4103    -1.6939     1.3845     1.6401    31.7909     2.4076     0.1078     1.8032
 1429.1860     9.3703    89.5884    -2.4491     1.5190     1.8130    30.2405     2.3648     0.0482     2.3575
 1429.3380     9.2978    86.0430    -2.9061     1.7053     2.0594    28.8792     2.3448     0.0242     3.1288
 1429.4900     9.2175    82.9182    -3.6593     1.7989     2.3329    27.8202     2.3507     0.0325     3.0939
 1429.6430     9.2651    81.3028    -4.5591     1.8838     2.5065    26.9826     2.3727     0.0648     2.8733
 1429.7950     9.3226    84.0152    -5.8050     1.9423     2.5936    26.0410     2.3857     0.0701     2.7536
 1429.9480     9.3806    87.2732    -7.3517     2.0091     2.6128    27.0486     2.3689     0.0354     2.6641
 1430.1000     9.4371    88.4990    -7.9630     2.0236     2.5720    28.1617     2.3642     0.0249     2.5392
 1430.2520     9.4821    86.7497    -7.3285     2.0198     2.4938    28.7125     2.3715     0.0448     2.4757
 1430.4050     9.5509    84.9531    -6.3678     1.9877     2.4176    28.9029     2.3688     0.0275     2.4129
 1430.5570     9.6057    85.1147    -5.6244     1.8853     2.3414    28.6903     2.3691     0.0164     2.3355
 1430.7100     9.6139    86.4231    -5.1181     1.8196     2.2726    28.4598     2.3720     0.0237     2.2561
 1430.8620     9.6089    87.6268    -4.7841     1.7628     2.2238    28.5107     2.3579     0.0135     2.2085
 1431.0140     9.5841    89.1805    -4.4947     1.7380     2.1901    29.1020     2.3764     0.0236     2.2423
 1431.1670     9.5048    88.1189    -4.3601     1.7317     2.1738    29.8227     2.4141     0.0502     2.7746
 1431.3190     9.4861    87.8671    -4.5179     1.7442     2.1602    29.3094     2.4145     0.0588     3.7056
 1431.4720     9.5659    88.2579    -4.7011     1.7468     2.1694    28.5679     2.4281     0.0451     2.6377
