~VERSION INFORMATION
 VERS.               1.20:   CWLS LOG ASCII STANDARD - VERSION 1.20
 WRAP.                 NO:   ONE LINE PER DEPTH STEP
~WELL INFORMATION
#MNEM.UNIT      DATA TYPE    INFORMATION
#----------   ------------   ------------------------------
 STRT.M          500.1524:   START DEPTH
 STOP.M         2803.2212:   STOP DEPTH
 STEP.M            0.1524:   STEP LENGTH
 NULL.          -999.2500:   NO VALUE
 COMP.            COMPANY:   PERTAMINA
 WELL.               WELL:   CMS-005
 WBN .            CMS-005:   WELLBORE
 FLD .              FIELD:   CEMARA SELATAN
 LOC .           LOCATION:   X = - 15283.31  Y = + 8483.38
 PROV.           PROVINCE:   JAWA BARAT
 STAT.              STATE:   INDONESIA
 SRVC.    SERVICE COMPANY:   SCHLUMBERGER
 DATE.            LOGDATE:   01/24/78
 APIN.         API NUMBER:   -
 UWI .  CEMARASELATAN-005:   UNIQUE WELL ID 
~CURVE INFORMATION
#MNEM.UNIT       API CODE    CURVE DESCRIPTION
#----------   ------------   ------------------------------
 DEPT.M                  :
 CALI.inch   60 280 00 00:   Caliper
 GR  .GAPI   42 310 00 00:   Gamma Ray
 SP  .mV     60 010 01 00:   Spontaneous Potential
 ILD .ohmm   05 070 46 00:   Induction Laterolog, Deep
 SN  .ohmm   05 040 16 00:   Short Normal 16"
 PROX.ohmm   21 270 30 00:   Proximity Log
 NPHI.%      42 890 03 00:   Neu. Porosity, Ss [%]
 RHOB.kg/cm3 42 350 01 00:   Bulk Density
 CBL .mV     81 524 00 00:   Cement Bond Log
 DRHO.kg/m3  42 356 01 00:   Density Correction
~PARAMETER INFORMATION
#MNEM.UNIT          VALUE    DESCRIPTION
#----------   ------------   ------------------------------
 EKB .M            0.0000:   Kelly bushing
 EGL .M            4.7500:   Ground level
 EDF .M           10.0000:   Drilling floor
 EPD .M           10.0000:   Permanent datum
 TD  .M         2793.0000:   Total depth
 DF  .      CONGLONGMERAT:   Deepest formation
 PROJ.       SCHLUMBERGER:   Project
 DATE.           01/24/78:   Date logged
 DD  .Mtr            2793:   Depth driller
 DL  .Mtr          2762.3:   Depth logger
 BLI .Mtr            2762:   Bottom log interval
 TLI .Mtr             500:   Top log interval
 CSS .Inch             7":   Casing size
 CTD1.Mtr     7" @ 2581,7:   Casing driller 1
 CTL1.Mtr          2581,7:   Casing logger 1
 BS  .Inch          6 1/8:   Bit size
 DFT .           Spersene:   Type fluid in hole
 DFD .G/c3           1.18:   Density
 DFV .Sec              58:   Viscosity
 COL .Inch           6-16:   Column depth/dia.
 DFPH.                 10:   pH
 DFL .Ml             2.75:   Fluid loss
 WSS .           Flowline:   Source of sample
 RM  .Ohmm           1.07:   Rm
 EMT .Degf 1.07 ohmm @ 83:   Rm Meas. temp.
 RMF .Ohmm           0.57:   Rmf
 MFT .Degf 0.57 ohmm @ 83:   Rmf Meas. temp.
 RMC .Ohmm           1.78:   Rmc
 MCST.Degf 1.78 ohmm @ 83:   Rmc Meas. temp.
 MFSS.              Press:   Source Rmf.
 MCSS.              Press:   Source Rmc.
 RMB .Degf 0.4 ohmm @ 232:   Rm. at BHT
 BHT .Degf            232:   BHT.
 TCS .Hrs               7:   Time Circ. stopped
 MRT .Degf            232:   Maximum recorded temp.
 LUN .               4618:   Logging unit number
 LUL .                WJV:   Logging unit location
 ENGI.           M. Akbar:   Recorded By
 WITN.           M.Dasuki:   Witnessed by
 RE1 .       ILD  (6FF40):   Res. Electrode #1
 RE2 .      SN   (A-16"M):   Res. Electrode #2
 DATE.           02/16/78:   Date logged
 DATE.           03/13/78:   Date logged
 DD  .Mtr            1260:   Depth driller
 DD  .Mtr            2610:   Depth driller
 DL  .Mtr            1260:   Depth logger
 DL  .Mtr            2610:   Depth logger
 BLI .Mtr            1260:   Bottom log interval
 BLI .Mtr          2605.8:   Bottom log interval
 TLI .Mtr             500:   Top log interval
 TLI .Mtr          1254.5:   Top log interval
 CSS .Inch         13 3/8:   Casing size
 CSS .Inch          9 5/8:   Casing size
 CTD1.Mtr             500:   Casing driller 1
 CTD1.Mtr            1254:   Casing driller 1
 CTL1.Mtr             500:   Casing logger 1
 CTL1.Mtr          1254.5:   Casing logger 1
 BS  .Inch         12 1/4:   Bit size
 BS  .Inch          8 5/8:   Bit size
 DFT .           spersene:   Type fluid in hole
 DFT .           spersene:   Type fluid in hole
 DFD .G/c3           1.12:   Density
 DFD .G/c3           1.18:   Density
 DFV .Sec              47:   Viscosity
 DFV .Sec              58:   Viscosity
 DFPH.                  9:   pH
 DFPH.                 10:   pH
 DFL .Ml              5.5:   Fluid loss
 DFL .Ml             2.75:   Fluid loss
 WSS .           flowline:   Source of sample
 WSS .           flowline:   Source of sample
 RM  .Ohmm           1.19:   Rm
 RM  .Ohmm           1.07:   Rm
 EMT .Degf             80:   Rm Meas. temp.
 EMT .Degf             83:   Rm Meas. temp.
 RMF .Ohmm            0.8:   Rmf
 RMF .Ohmm           0.57:   Rmf
 MFT .Degf             80:   Rmf Meas. temp.
 MFT .Degf             83:   Rmf Meas. temp.
 RMC .Ohmm           1.52:   Rmc
 RMC .Ohmm           1.78:   Rmc
 MCST.Degf             80:   Rmc Meas. temp.
 MCST.Degf             83:   Rmc Meas. temp.
 MFSS.                  p:   Source Rmf.
 MFSS.                  p:   Source Rmf.
 MCSS.                  p:   Source Rmc.
 MCSS.                  p:   Source Rmc.
 RMB .Degf 0.63 ohmm @ 150:   Rm. at BHT
 RMB .Degf 0.4 ohmm @ 232:   Rm. at BHT
 BHT .Degf            150:   BHT.
 BHT .Degf            232:   BHT.
 TCS .Hrs               3:   Time Circ. stopped
 TCS .Hrs               7:   Time Circ. stopped
 MRT .Degf            150:   Maximum recorded temp.
 MRT .Degf            232:   Maximum recorded temp.
 LUN .               4618:   Logging unit number
 LUN .               4618:   Logging unit number
 LUL .                wjv:   Logging unit location
 LUL .                wjv:   Logging unit location
 ENGI.           M. Akbar:   Recorded By
 ENGI.           M. Akbar:   Recorded By
 WITN.            Y. Rais:   Witnessed by
 WITN.          M. Dasuki:   Witnessed by
 RE1 .                ILD:   Res. Electrode #1
 RE1 .                ILD:   Res. Electrode #1
 RE2 .                 SN:   Res. Electrode #2
 RE2 .                 SN:   Res. Electrode #2
 TLAB.hh:mm             3:   Time Logger At Bottom
 TLAB.hh:mm             7:   Time Logger At Bottom
 TLAB.hh:mm             7:   Time Logger At Bottom
 DGBY.            Sukarna:   Digitized By
 DGBY.            Sukarna:   Digitized By
 DGBY.            Sukarna:   Digitized By
~T 1 Tops
D1(1453-1455)                    1453.0
~OTHER INFORMATION
# Bridleless tool, Log was correlated with cs. run no.3 4M too deep compared with run.2
~A  DEPTH     CALI         GR         SP        ILD         SN       PROX       NPHI       RHOB        CBL       DRHO
# ...
 1878.6100     8.0423    20.1604   -41.0802     4.1173     8.1748    15.8630    15.4127     2.4064    38.6826    -0.1669
 1878.7630     8.0275    19.2378   -41.0802     4.4218     8.6556    12.7168    15.0412     2.4212    42.0158    -0.1598
 1878.9150     7.9364    18.7759   -40.9257     4.6823     9.0364    16.1008    15.0869     2.4275    41.5067    -0.1793
 1879.0680     7.9677    19.9345   -40.7716     4.8870     9.3660    14.7838    15.0863     2.4189    40.9344    -0.1872
 1879.2200     7.9837    20.1670   -40.4630     4.9567     9.4343    11.7689    14.8997     2.4158    40.3216    -0.1849
 1879.3720     7.9844    19.9352   -40.4621     4.9551     9.5713    15.6948    14.7595     2.4260    40.4293    -0.1732
 1879.5250     8.0004    19.4744   -40.1543     4.9186     9.5039    26.0143    14.8983     2.4151    41.2657    -0.1592
 1879.6770     7.9857    21.7908   -39.8453     4.7780     9.3697     9.4395    15.5964     2.4268    41.8901    -0.1538
 1879.8300     7.9404    22.0230   -39.5370     4.6418     9.1068     7.8446    16.8953     2.4096    41.1085    -0.1648
 1879.9820     7.9412    22.0238   -39.2284     4.5418     8.6014     7.4642    17.9173     2.3855    40.0265    -0.1575
 1880.1340     7.9265    21.0987   -38.7650     4.5407     8.1817     7.9623    18.4743     2.3761    40.3459    -0.1638
 1880.2870     7.9119    21.1000   -38.6111     4.6052     7.9523     5.9436    18.1482     2.3808    41.0324    -0.1692
 1880.4390     7.9434    22.4899   -38.3023     4.7048     8.1847    11.3102    17.4024     2.3910    41.5081    -0.1668
 1880.5920     8.0053    22.0279   -38.1481     4.8402     8.5439    14.3122    16.4273     2.4097    41.2342    -0.1722
 1880.7440     8.1131    20.6401   -38.1481     4.9800     9.1128    11.1513    15.6830     2.4191    40.1874    -0.1714
 1880.8960     8.1137    20.4094   -38.3025     5.2738     9.7902    14.6319    15.1704     2.4199    38.8473    -0.1590
 1881.0490     8.0838    22.0310   -38.3025     5.5437    10.0746    13.4350    14.9380     2.4223    38.0347    -0.1568
 1881.2010     8.0690    22.7265   -38.4571     5.8705    10.2946    18.4000    15.1234     2.4285    38.5912    -0.1641
 1881.3540     8.0698    22.2646   -38.7654     6.3508    10.6701    13.5403    15.3549     2.4215    39.8021    -0.1656
 1881.5060     8.1012    21.5709   -39.0741     6.8219    11.1391    11.4933    15.4937     2.4122    39.4901    -0.1776
 1881.6580     8.1633    22.2739   -39.2284     7.3824    11.5478     9.2146    15.1186     2.3997    38.5267    -0.1868
 1881.8110     8.2404    24.8139   -39.2284     8.0425    12.2269    20.9514    14.2374     2.4068    37.7397    -0.1724
 1881.9630     8.2411    24.8157   -39.2284     8.5778    12.6739    13.5585    13.1196     2.4005    37.2774    -0.1890
 1882.1160     8.1958    25.5102   -39.2284     9.0820    13.3251    12.8100    11.7728     2.3951    37.7759    -0.2045
 1882.2680     8.2118    26.9014   -39.2283     9.7558    13.8120    12.1029    10.7958     2.4224    38.7379    -0.1938
 1882.4200     8.2433    30.3826   -39.0741    10.4059    14.6284    27.1586    10.0036     2.4435    38.9913    -0.1797
 1882.5730     8.3204    34.3096   -39.0741    11.1758    15.4893    39.3403     9.1682     2.4630    38.6901    -0.1754
 1882.7250     8.3671    36.3947   -38.7652    12.3565    16.5228    24.9192     8.2364     2.4920    38.3305    -0.1828
 1882.8780     8.4290    36.8577   -38.6111    13.8547    17.8747    25.2350     7.1219     2.5286    38.5760    -0.1767
 1883.0300     8.5061    35.2386   -38.4568    15.5372    19.3397    38.2660     6.1917     2.5442    39.1586    -0.1829
 1883.1820     8.5375    34.3129   -38.1477    17.5545    20.9271    20.4230     5.5851     2.5348    39.7976    -0.1950
 1883.3350     8.5840    34.0833   -37.9938    19.4004    21.8444    22.9022     4.9355     2.5442    40.1444    -0.1944
 1883.4870     8.6921    33.6211   -37.5306    20.6927    22.9693    43.8727     4.2833     2.5598    39.4105    -0.1897
 1883.6400     8.8764    33.8538   -37.2222    22.3859    24.1498    39.9972     3.4004     2.5661    38.5917    -0.1920
 1883.7920     9.4131    33.3917   -36.7593    23.8742    25.0317    56.7693     2.9814     2.5739    38.1777    -0.1986
 1883.9440    10.1793    32.4636   -36.1403    25.4661    25.9647    58.8723     2.6549     2.5669    38.4512    -0.1928
 1884.0970     9.3685    31.3104   -35.5247    27.1540    27.0861    65.9920     2.4688     2.5818    39.1244    -0.1866
 1884.2490     8.7720    30.8482   -34.5979    28.9614    28.0758    63.2371     2.4215     2.5997    39.3073    -0.1770
 1884.4020     8.7418    30.6178   -33.8272    30.8845    29.0998    55.6407     2.3745     2.6255    39.0407    -0.1686
 1884.5540     8.8345    30.3876   -33.0553    32.7029    30.5971    37.0480     2.2343     2.6286    38.3059    -0.1784
 1884.7060     8.9579    30.3886   -32.1275    35.3878    31.4891    83.0477     2.0476     2.6255    38.7598    -0.1805
 1884.8590     9.0503    30.1579   -31.2037    38.5542    31.9452    61.9928     1.9078     2.6240    39.2713    -0.1711
 1885.0110     9.1124    31.3166   -29.9676    41.1202    32.4100    45.9467     1.7209     2.6357    39.7489    -0.1843
 1885.1640     9.2354    31.0861   -28.8889    43.2258    33.1154    49.3637     1.4881     2.5967    40.1731    -0.2011
 1885.3160     9.3586    29.6983   -27.9630    44.7968    34.0803    77.9782     1.1621     2.5811    39.3692    -0.1888
 1885.4680     9.4361    28.7709   -26.7253    46.4254    34.3290    51.1852     1.1149     2.5913    38.0434    -0.1834
 1885.6210     9.4979    27.8485   -25.4938    48.4516    34.5786    95.2985     1.1609     2.6100    38.9855    -0.1897
 1885.7730     9.5752    26.6910   -24.2573    50.2119    34.8310    62.9943     1.2999     2.6288    40.1826    -0.1974
 1885.9260     9.6217    25.9985   -23.0247    51.2931    35.0844    55.4266     1.4847     2.6249    41.1385    -0.1903
 1886.0780     9.6531    24.8421   -21.9444    52.7745    35.0883    63.5007     1.5771     2.6202    41.3110    -0.1895
 1886.2300     9.6538    23.9096   -20.7065    53.9124    35.0922    98.1910     1.7158     2.6335    40.5318    -0.1974
 1886.3830     9.6390    21.1404   -19.4753    54.6792    34.5977    86.9969     1.7150     2.6140    40.1921    -0.1998
 1886.5350     9.6089    18.3635   -18.3941    55.0597    34.3539    32.0288     1.7143     2.6094    35.9371    -0.1964
 1886.6880     9.5638    18.1330   -17.4691    55.0436    34.1124    39.4102     1.7136     2.5977    38.5718    -0.2026
 1886.8400     9.6411    18.8288   -16.2343    55.0300    33.3927    85.2461     1.5735     2.6102    39.2821    -0.2007
 1886.9920     9.7951    19.0610   -14.7246    54.2290    33.1557   116.7317     1.4796     2.6289    25.7622    -0.1878
 1887.1450     9.8569    18.3676   -13.9493    53.0641    32.4577    43.2839     1.3398     2.6352    28.9807    -0.1704
 1887.2970     9.8727    17.4418   -12.8618    51.5475    32.0004    18.1208     1.1995     2.6344    28.7139    -0.1817
 1887.4500     9.7817    16.7493   -11.9311    50.0781    31.5494    42.3979     1.0596     2.6360    26.5789    -0.1848
 1887.6020     9.6905    16.7505   -10.9991    48.9992    30.8832    32.2626     0.8730     2.6329    30.3761    -0.1779
 1887.7540     9.6604    17.2156   -10.0649    48.2872    30.0143    35.2611     0.6397     2.6571    35.4918    -0.1821
 1887.9070     9.6765    17.6783    -9.1353    47.5890    29.1731    45.5785     0.5463     2.6353    32.2429    -0.1971
 1888.0590     9.7540    19.3015    -7.8935    47.5774    28.5562    27.4632     0.4526     2.6298    40.9533    -0.2071
 1888.2120     9.8617    20.4581    -7.1168    48.2560    27.9541    53.7488     0.4520     2.6158    40.9280    -0.2035
 1888.3640     9.8929    21.3851    -6.0320    48.5918    27.3632    45.6243     0.4977     2.6260    41.7707    -0.1865
 1888.5160     9.8323    22.5454    -5.0976    48.5780    26.5925    33.5427     0.5902     2.6463    42.0872    -0.1831
 1888.6690     9.7871    23.2390    -4.1682    47.8758    25.8480    22.5170     0.6359     2.6416    42.1389    -0.1698
