~Version Information
VERS  .          2.0                              :CWLS Log Ascii Standard - Version 2.0
WRAP  .          NO                               :One line per depth step
~Well Information Block
#MNEM.UNIT       Data Type                        Information
#---------       ---------                        -------------------------------
STRT  .M         1250.29000                       :START DEPTH
STOP  .M         2514.44800                       :STOP DEPTH
STEP  .M          0.15240                         :INCREMENT
NULL  .          -999.25                          :NULL DATA VALUE
COMP  .          PERTAMINA                        :COMPANY
WELL  .          CMS-008A                         :WELL
WBN   .          CMS-008A                         :WELLBORE
FLD   .          CEMARA SELATAN                   :FIELD
LOC   .                                           :LOCATION
PROV  .          INDONESIA                        :PROVINCE
STAT  .          INDONESIA                        :STATE
CNTY  .                                           :COUNTY
CTRY  .                                           :COUNTRY
DATE  .                                           :DATE
UWI   .          CEMARASELATAN-CMS-008A           :UNIQUE WELL UWI
LIC   .                                           :LICENSE NUMBER
API   .                                           :API NUMBER
SRVC  .                                           :SERVICE COMPANY
~Parameter Information Block
#MNEM.UNIT       Value                            Description
#---------       ---------                        -------------
LONG  .DEG       108.170925                       :Well Surface Location
LATI  .DEG       -6.422847                        :Well Surface Location
XWELL .M         187032.710000                    :X-coordinate of Well Head
YWELL .M         9289187.741000                   :Y-coordinate of Well Head
~Curve Information Block
#MNEM.UNIT       API Code            Curve    Description
#--------        --------------      -----    -------------------
DEPT  .M                             :0       Index
KGAS  .MD                            :1       Permeability to Gas           
KINT  .MD                            :2       Intrinsic Permeability        
KOIL  .MD                            :3       Permeability to Oil           
KWTR  .MD                            :4       Permeability to Water         
PHIT  .V/V                           :5       Total Porosity_ includes all forms of porosity, including that occupied by bound fluids, and is independent of rock and fluid materials and of environmental effects
PHTT  .V/V                           :6       Theoretical PHIT Value        
PIGE  .V/V                           :7       Effective Porosity Less Irreducible Water
PIGN  .V/V                           :8       Effective Porosity, VISO, VPAR, and Bound Water Removed
RHGA  .G/C3                          :9       Apparent Grain Density        
SUWI  .V/V                           :10      Non-Clay Water Intergranular Water Saturation for Undisturbed Zone
VCLC  .V/V                           :11      Volume of Calcite Relative to Total Volume
VCOA  .V/V                           :12      Volume of Coal Relative to Total Volume
VDOL  .V/V                           :13      Volume of Dolomite Relative to Total Volume
VFEL  .V/V                           :14      Volume of Feldspar Relative to Total Volume
VILL  .V/V                           :15      Volume of Illite (dry) Relative to Total Volume
VMHY  .V/V                           :16      Volume of Moved Hydrocarbon Relative to Total Volume
VORT  .V/V                           :17      Volume of Orthoclase Relative to Total Volume
VQUA  .V/V                           :18      Volume of Quartz Relative to Total Volume
VUGA  .V/V                           :19      Volume of Gas in Undisturbed Zone
VUOI  .V/V                           :20      Volume of Oil in Undisturbed Zone
VUWA  .V/V                           :21      Volume of Water in Undisturbed Zone
VXBW  .V/V                           :22      Volume of Bound Water in Flushed Zone
VXGA  .V/V                           :23      Volume of Gas in Flushed Zone 
VXOI  .V/V                           :24      Volume of Oil in Flushed Zone 
VXWA  .V/V                           :25      Volume of Water in Flushed Zone
~Ascii Data Section
# ...
   2336.59720       0.00100       0.02273       0.00100       0.02273       0.10192       0.13824       0.07488       0.07488       2.72973       1.00000       0.20575       0.00000       0.00000       0.00000       0.26588       0.00000       0.00000       0.42645       0.00000       0.00000       0.07488       0.02704       0.00000       0.00000       0.07488 
   2336.74960       0.00100       0.03428       0.00100       0.03428       0.10962       0.14870       0.08052       0.08052       2.72953       1.00000       0.11720       0.00000       0.00000       0.00000       0.28613      -0.00003       0.00000       0.48705       0.00000       0.00000       0.08052       0.02910       0.00003       0.00000       0.08049 
   2336.90200       0.00100       0.02077       0.00100       0.02077       0.11312       0.15385       0.08278       0.08278       2.73723       1.00000       0.18119       0.00000       0.00000       0.00000       0.29829      -0.00010       0.00000       0.40740       0.00000       0.00000       0.08278       0.03034       0.00010       0.00000       0.08268 
   2337.05440       0.00100       0.01117       0.00100       0.01117       0.11477       0.15536       0.08454       0.08454       2.74604       1.00000       0.31275       0.00000       0.00000       0.00000       0.29722      -0.00003       0.00000       0.27526       0.00000       0.00000       0.08454       0.03023       0.00003       0.00000       0.08451 
   2337.20680       0.00100       0.01000       0.00100       0.01000       0.11477       0.15426       0.08537       0.08537       2.74881       1.00000       0.38382       0.00000       0.00000       0.00000       0.28909      -0.00000       0.00000       0.21232       0.00000       0.00000       0.08537       0.02940       0.00000       0.00000       0.08536 
   2337.35920       0.00100       0.01000       0.00100       0.01000       0.11210       0.15155       0.08272       0.08272       2.75055       1.00000       0.41501       0.00000       0.00000       0.00000       0.28882       0.00000       0.00000       0.18408       0.00000       0.00000       0.08272       0.02937       0.00000       0.00000       0.08272 
   2337.51160       0.00100       0.01000       0.00100       0.01000       0.11055       0.15299       0.07896       0.07896       2.75297       1.00000       0.37223       0.00000       0.00000       0.00000       0.31067       0.00000       0.00000       0.20654       0.00000       0.00000       0.07896       0.03160       0.00000       0.00000       0.07896 
   2337.66400       0.00100       0.01000       0.00100       0.01000       0.11917       0.16976       0.08150       0.08150       2.77098       1.00000       0.39976       0.00000       0.00000       0.00000       0.37037       0.00000       0.00000       0.11070       0.00000       0.00000       0.08150       0.03767       0.00000       0.00000       0.08150 
   2337.81640       0.00100       0.01000       0.00100       0.01000       0.13951       0.19893       0.09526       0.09526       2.78138       1.00000       0.26769       0.00000       0.00000       0.00000       0.43504       0.00000       0.00000       0.15776       0.00000       0.00000       0.09526       0.04425       0.00000       0.00000       0.09526 
   2337.96880       0.00100       0.01000       0.00100       0.01000       0.14793       0.21289       0.09957       0.09957       2.78604       1.00000       0.16535       0.00000       0.00000       0.00000       0.47552       0.00000       0.00000       0.21121       0.00000       0.00000       0.09957       0.04836       0.00000       0.00000       0.09957 
   2338.12120       0.00100       0.01545       0.00100       0.01545       0.14517       0.20254       0.10245       0.10245       2.76104       1.00000       0.02142       0.00000       0.00000       0.00000       0.42001       0.00000       0.00000       0.41341       0.00000       0.00000       0.10245       0.04272       0.00000       0.00000       0.10245 
   2338.27360       0.00493       0.05032       0.00100       0.01089       0.14557       0.19288       0.10888       0.10888       2.74412       0.91431       0.00000       0.00000       0.00000       0.00000       0.36080      -0.00446       0.00000       0.49363       0.00941       0.00000       0.09946       0.03669       0.01315       0.00072       0.09501 
   2338.42600       0.00164       0.04181       0.00100       0.03536       0.12751       0.17210       0.09282       0.09282       2.73714       0.98598       0.00000       0.00000       0.00000       0.00000       0.34104      -0.01229       0.00000       0.53145       0.00154       0.00000       0.09128       0.03469       0.01331       0.00052       0.07900 
   2338.57840       0.00100       0.01415       0.00100       0.01415       0.09946       0.14672       0.06361       0.06361       2.73722       1.00000       0.00000       0.00000       0.00000       0.00000       0.35241      -0.00587       0.00000       0.54813       0.00000       0.00000       0.06361       0.03584       0.00580       0.00007       0.05774 
   2338.73080       0.00100       0.01000       0.00100       0.01000       0.08471       0.13422       0.04745       0.04745       2.73921       1.00000       0.00000       0.00000       0.00000       0.00000       0.36635      -0.00353       0.00000       0.54894       0.00000       0.00000       0.04745       0.03726       0.00353       0.00000       0.04391 
   2338.88320       0.00100       0.01000       0.00100       0.01000       0.08266       0.13547       0.04329       0.04329       2.74407       1.00000       0.00000       0.00000       0.00000       0.00000       0.38713      -0.00047       0.00000       0.53021       0.00000       0.00000       0.04329       0.03937       0.00047       0.00000       0.04282 
   2339.03560       0.00100       0.01000       0.00100       0.01000       0.08813       0.14221       0.04787       0.04787       2.74677       1.00000       0.00000       0.00000       0.00000       0.00000       0.39587       0.00000       0.00000       0.51600       0.00000       0.00000       0.04787       0.04026       0.00000       0.00000       0.04787 
   2339.18800       0.00100       0.01000       0.00100       0.01000       0.09057       0.14665       0.04881       0.04881       2.75064       1.00000       0.00000       0.00000       0.00000       0.00000       0.41060       0.00000       0.00000       0.49883       0.00000       0.00000       0.04881       0.04176       0.00000       0.00000       0.04881 
   2339.34040       0.00100       0.01000       0.00100       0.01000       0.09207       0.15308       0.04664       0.04664       2.75965       1.00000       0.00000       0.00000       0.00000       0.00000       0.44663       0.00000       0.00000       0.46130       0.00000       0.00000       0.04664       0.04542       0.00000       0.00000       0.04664 
   2339.49280       0.00100       0.01000       0.00100       0.01000       0.09757       0.16082       0.05048       0.05048       2.76436       1.00000       0.00000       0.00000       0.00000       0.00000       0.46300       0.00000       0.00000       0.43943       0.00000       0.00000       0.05048       0.04709       0.00000       0.00000       0.05048 
   2339.64520       0.00100       0.01000       0.00100       0.01000       0.10389       0.16805       0.05611       0.05611       2.76685       1.00000       0.00000       0.00000       0.00000       0.00000       0.46976       0.00000       0.00000       0.42635       0.00000       0.00000       0.05611       0.04778       0.00000       0.00000       0.05611 
   2339.79760       0.00100       0.01000       0.00100       0.01000       0.11140       0.17748       0.06220       0.06220       2.77135       1.00000       0.00000       0.00000       0.00000       0.00000       0.48374       0.00000       0.00000       0.40485       0.00000       0.00000       0.06220       0.04920       0.00000       0.00000       0.06220 
