~Version Information
VERS  .          2.0                              :CWLS Log Ascii Standard - Version 2.0
WRAP  .          NO                               :One line per depth step
~Well Information Block
#MNEM.UNIT       Data Type                        Information
#---------       ---------                        -------------------------------
STRT  .M         1190.09200                       :START DEPTH
STOP  .M         2429.86500                       :STOP DEPTH
STEP  .M          0.15240                         :INCREMENT
NULL  .          -999.25                          :NULL DATA VALUE
COMP  .                                           :COMPANY
WELL  .          CMS-001                          :WELL
WBN   .          CMS-001                          :WELLBORE
FLD   .          CEMARA SELATAN                   :FIELD
LOC   .                                           :LOCATION
PROV  .                                           :PROVINCE
STAT  .                                           :STATE
CNTY  .                                           :COUNTY
CTRY  .                                           :COUNTRY
DATE  .                                           :DATE
UWI   .          CEMARASELATAN-001                :UNIQUE WELL UWI
LIC   .                                           :LICENSE NUMBER
API   .                                           :API NUMBER
SRVC  .                                           :SERVICE COMPANY
~Parameter Information Block
#MNEM.UNIT       Value                            Description
#---------       ---------                        -------------
LONG  .DEG       108.170925                       :Well Surface Location
LATI  .DEG       -6.422919                        :Well Surface Location
XWELL .M         187032.780005                    :X-coordinate of Well Head
YWELL .M         9289179.840752                   :Y-coordinate of Well Head
~Curve Information Block
#MNEM.UNIT       API Code            Curve    Description
#--------        --------------      -----    -------------------
DEPT  .M                             :0       Index
KGAS  .MD                            :1       Permeability to Gas           
KINT  .MD                            :2       Intrinsic Permeability        
KOIL  .MD                            :3       Permeability to Oil           
KWTR  .MD                            :4       Permeability to Water         
PHIT  .V/V                           :5       Total Porosity_ includes all forms of porosity, including that occupied by bound fluids, and is independent of rock and fluid materials and of environmental effects
PHTT  .V/V                           :6       Theoretical PHIT Value        
PIGE  .V/V                           :7       Effective Porosity Less Irreducible Water
PIGN  .V/V                           :8       Effective Porosity, VISO, VPAR, and Bound Water Removed
RHGA  .G/C3                          :9       Apparent Grain Density        
SUWI  .V/V                           :10      Non-Clay Water Intergranular Water Saturation for Undisturbed Zone
VCHL  .V/V                           :11      Volume of Chlorite Relative to Total Volume
VCL   .V/V                           :12      Volume of Clay Type Material Relative to Total Volume
VCLC  .V/V                           :13      Volume of Calcite Relative to Total Volume
VCOA  .V/V                           :14      Volume of Coal Relative to Total Volume
VDOL  .V/V                           :15      Volume of Dolomite Relative to Total Volume
VFEL  .V/V                           :16      Volume of Feldspar Relative to Total Volume
VIGN  .V/V                           :17      Volume of Igneous Rock Relative to Total Volume
VILL  .V/V                           :18      Volume of Illite (dry) Relative to Total Volume
VMHY  .V/V                           :19      Volume of Moved Hydrocarbon Relative to Total Volume
VQUA  .V/V                           :20      Volume of Quartz Relative to Total Volume
VUGA  .V/V                           :21      Volume of Gas in Undisturbed Zone
VUOI  .V/V                           :22      Volume of Oil in Undisturbed Zone
VUWA  .V/V                           :23      Volume of Water in Undisturbed Zone
VXBW  .V/V                           :24      Volume of Bound Water in Flushed Zone
VXGA  .V/V                           :25      Volume of Gas in Flushed Zone 
VXOI  .V/V                           :26      Volume of Oil in Flushed Zone 
VXWA  .V/V                           :27      Volume of Water in Flushed Zone
~Ascii Data Section
# ...
   2425.44640       0.00100       0.03990       0.00100       0.03990       0.23232       0.30457       0.20371       0.20371       2.82831       1.00000       0.45754       0.48615       0.00000       0.00000       0.00000       0.02389       0.10000       0.00000      -0.02569       0.18624       0.00000       0.00000       0.20371       0.02861       0.02569       0.00000       0.17802 
   2425.59880       0.00100       0.04910       0.00100       0.04910       0.23417       0.30547       0.20621       0.20621       2.82474       1.00000       0.44716       0.47513       0.00000       0.00000       0.00000       0.02567       0.10000       0.00000      -0.02051       0.19299       0.00000       0.00000       0.20621       0.02796       0.02051       0.00000       0.18570 
   2425.75120       0.00100       0.06635       0.00100       0.06635       0.23668       0.30632       0.20966       0.20966       2.81953       1.00000       0.43212       0.45915       0.00000       0.00000       0.00000       0.02801       0.10000       0.00000      -0.01489       0.20319       0.00000       0.00000       0.20966       0.02702       0.01489       0.00000       0.19477 
   2425.90360       0.00100       0.09792       0.00100       0.09792       0.24043       0.30777       0.21461       0.21461       2.81305       1.00000       0.41304       0.43888       0.00000       0.00000       0.00000       0.03070       0.10000       0.00000      -0.00916       0.21581       0.00000       0.00000       0.21461       0.02583       0.00916       0.00000       0.20544 
   2426.05600       0.00100       0.06888       0.00100       0.06888       0.23598       0.30465       0.20911       0.20911       2.81848       1.00000       0.42977       0.45665       0.00000       0.00000       0.00000       0.02836       0.10000       0.00000      -0.01881       0.20589       0.00000       0.00000       0.20911       0.02688       0.01881       0.00000       0.19030 
   2426.20840       0.00100       0.05562       0.00100       0.05562       0.23195       0.30161       0.20448       0.20448       2.82120       1.00000       0.43934       0.46682       0.00000       0.00000       0.00000       0.02719       0.10000       0.00000      -0.02279       0.20152       0.00000       0.00000       0.20448       0.02747       0.02279       0.00000       0.18169 
   2426.36080       0.00100       0.07098       0.00100       0.07098       0.23157       0.30039       0.20493       0.20493       2.81596       1.00000       0.42597       0.45261       0.00000       0.00000       0.00000       0.02952       0.10000       0.00000      -0.01353       0.21294       0.00000       0.00000       0.20493       0.02664       0.01353       0.00000       0.19140 
   2426.51320       0.00100       0.10527       0.00100       0.10527       0.23834       0.30533       0.21281       0.21281       2.81071       1.00000       0.40818       0.43371       0.00000       0.00000       0.00000       0.03155       0.10000       0.00000      -0.00600       0.22193       0.00000       0.00000       0.21281       0.02553       0.00600       0.00000       0.20681 
   2426.66560       0.00100       0.16617       0.00100       0.16617       0.24855       0.31321       0.22424       0.22424       2.80551       1.00000       0.38872       0.41303       0.00000       0.00000       0.00000       0.03336       0.10000       0.00000       0.00000       0.22936       0.00000       0.00000       0.22424       0.02431       0.00000       0.00000       0.22424 
   2426.81800       0.00100       0.14383       0.00100       0.14383       0.24842       0.31433       0.22363       0.22363       2.80846       1.00000       0.39627       0.42106       0.00000       0.00000       0.00000       0.03199       0.10000       0.00000       0.00000       0.22331       0.00000       0.00000       0.22363       0.02478       0.00000       0.00000       0.22363 
   2426.97040       0.00100       0.14134       0.00100       0.14134       0.24958       0.31573       0.22471       0.22471       2.80932       1.00000       0.39771       0.42258       0.00000       0.00000       0.00000       0.03145       0.10000       0.00000       0.00000       0.22126       0.00000       0.00000       0.22471       0.02487       0.00000       0.00000       0.22471 
   2427.12280    -999.25000    -999.25000    -999.25000    -999.25000    -999.25000    -999.25000    -999.25000    -999.25000    -999.25000    -999.25000    -999.25000    -999.25000    -999.25000    -999.25000    -999.25000    -999.25000    -999.25000    -999.25000    -999.25000    -999.25000    -999.25000    -999.25000    -999.25000    -999.25000    -999.25000    -999.25000    -999.25000 
   2427.27520    -999.25000    -999.25000    -999.25000    -999.25000    -999.25000    -999.25000    -999.25000    -999.25000    -999.25000    -999.25000    -999.25000    -999.25000    -999.25000    -999.25000    -999.25000    -999.25000    -999.25000    -999.25000    -999.25000    -999.25000    -999.25000    -999.25000    -999.25000    -999.25000    -999.25000    -999.25000    -999.25000 
   2427.42760    -999.25000    -999.25000    -999.25000    -999.25000    -999.25000    -999.25000    -999.25000    -999.25000    -999.25000    -999.25000    -999.25000    -999.25000    -999.25000    -999.25000    -999.25000    -999.25000    -999.25000    -999.25000    -999.25000    -999.25000    -999.25000    -999.25000    -999.25000    -999.25000    -999.25000    -999.25000    -999.25000 
   2427.58000    -999.25000    -999.25000    -999.25000    -999.25000    -999.25000    -999.25000    -999.25000    -999.25000    -999.25000    -999.25000    -999.25000    -999.25000    -999.25000    -999.25000    -999.25000    -999.25000    -999.25000    -999.25000    -999.25000    -999.25000    -999.25000    -999.25000    -999.25000    -999.25000    -999.25000    -999.25000    -999.25000 
   2427.73240    -999.25000    -999.25000    -999.25000    -999.25000    -999.25000    -999.25000    -999.25000    -999.25000    -999.25000    -999.25000    -999.25000    -999.25000    -999.25000    -999.25000    -999.25000    -999.25000    -999.25000    -999.25000    -999.25000    -999.25000    -999.25000    -999.25000    -999.25000    -999.25000    -999.25000    -999.25000    -999.25000 
   2427.88480    -999.25000    -999.25000    -999.25000    -999.25000    -999.25000    -999.25000    -999.25000    -999.25000    -999.25000    -999.25000    -999.25000    -999.25000    -999.25000    -999.25000    -999.25000    -999.25000    -999.25000    -999.25000    -999.25000    -999.25000    -999.25000    -999.25000    -999.25000    -999.25000    -999.25000    -999.25000    -999.25000 
   2428.03720    -999.25000    -999.25000    -999.25000    -999.25000    -999.25000    -999.25000    -999.25000    -999.25000    -999.25000    -999.25000    -999.25000    -999.25000    -999.25000    -999.25000    -999.25000    -999.25000    -999.25000    -999.25000    -999.25000    -999.25000    -999.25000    -999.25000    -999.25000    -999.25000    -999.25000    -999.25000    -999.25000 
   2428.18960    -999.25000    -999.25000    -999.25000    -999.25000    -999.25000    -999.25000    -999.25000    -999.25000    -999.25000    -999.25000    -999.25000    -999.25000    -999.25000    -999.25000    -999.25000    -999.25000    -999.25000    -999.25000    -999.25000    -999.25000    -999.25000    -999.25000    -999.25000    -999.25000    -999.25000    -999.25000    -999.25000 
   2428.34200    -999.25000    -999.25000    -999.25000    -999.25000    -999.25000    -999.25000    -999.25000    -999.25000    -999.25000    -999.25000    -999.25000    -999.25000    -999.25000    -999.25000    -999.25000    -999.25000    -999.25000    -999.25000    -999.25000    -999.25000    -999.25000    -999.25000    -999.25000    -999.25000    -999.25000    -999.25000    -999.25000 
   2428.49440    -999.25000    -999.25000    -999.25000    -999.25000    -999.25000    -999.25000    -999.25000    -999.25000    -999.25000    -999.25000    -999.25000    -999.25000    -999.25000    -999.25000    -999.25000    -999.25000    -999.25000    -999.25000    -999.25000    -999.25000    -999.25000    -999.25000    -999.25000    -999.25000    -999.25000    -999.25000    -999.25000 
