~Version Information
VERS  .          2.0                              :CWLS Log Ascii Standard - Version 2.0
WRAP  .          NO                               :One line per depth step
~Well Information Block
#MNEM.UNIT       Data Type                        Information
#---------       ---------                        -------------------------------
STRT  .M         1190.09200                       :START DEPTH
STOP  .M         2429.86500                       :STOP DEPTH
STEP  .M          0.15240                         :INCREMENT
NULL  .          -999.25                          :NULL DATA VALUE
COMP  .                                           :COMPANY
WELL  .          CMS-001                          :WELL
WBN   .          CMS-001                          :WELLBORE
FLD   .          CEMARA SELATAN                   :FIELD
LOC   .                                           :LOCATION
PROV  .                                           :PROVINCE
STAT  .                                           :STATE
CNTY  .                                           :COUNTY
CTRY  .                                           :COUNTRY
DATE  .                                           :DATE
UWI   .          CEMARASELATAN-001                :UNIQUE WELL UWI
LIC   .                                           :LICENSE NUMBER
API   .                                           :API NUMBER
SRVC  .                                           :SERVICE COMPANY
~Parameter Information Block
#MNEM.UNIT       Value                            Description
#---------       ---------                        -------------
LONG  .DEG       108.170925                       :Well Surface Location
LATI  .DEG       -6.422919                        :Well Surface Location
XWELL .M         187032.780005                    :X-coordinate of Well Head
YWELL .M         9289179.840752                   :Y-coordinate of Well Head
~Curve Information Block
#MNEM.UNIT       API Code            Curve    Description
#--------        --------------      -----    -------------------
DEPT  .M                             :0       Index
KGAS  .MD                            :1       Permeability to Gas           
KINT  .MD                            :2       Intrinsic Permeability        
KOIL  .MD                            :3       Permeability to Oil           
KWTR  .MD                            :4       Permeability to Water         
PHIT  .V/V                           :5       Total Porosity_ includes all forms of porosity, including that occupied by bound fluids, and is independent of rock and fluid materials and of environmental effects
PHTT  .V/V                           :6       Theoretical PHIT Value        
PIGE  .V/V                           :7       Effective Porosity Less Irreducible Water
PIGN  .V/V                           :8       Effective Porosity, VISO, VPAR, and Bound Water Removed
RHGA  .G/C3                          :9       Apparent Grain Density        
SUWI  .V/V                           :10      Non-Clay Water Intergranular Water Saturation for Undisturbed Zone
VCHL  .V/V                           :11      Volume of Chlorite Relative to Total Volume
VCL   .V/V                           :12      Volume of Clay Type Material Relative to Total Volume
VCLC  .V/V                           :13      Volume of Calcite Relative to Total Volume
VCOA  .V/V                           :14      Volume of Coal Relative to Total Volume
VDOL  .V/V                           :15      Volume of Dolomite Relative to Total Volume
VFEL  .V/V                           :16      Volume of Feldspar Relative to Total Volume
VIGN  .V/V                           :17      Volume of Igneous Rock Relative to Total Volume
VILL  .V/V                           :18      Volume of Illite (dry) Relative to Total Volume
VMHY  .V/V                           :19      Volume of Moved Hydrocarbon Relative to Total Volume
VQUA  .V/V                           :20      Volume of Quartz Relative to Total Volume
VUGA  .V/V                           :21      Volume of Gas in Undisturbed Zone
VUOI  .V/V                           :22      Volume of Oil in Undisturbed Zone
VUWA  .V/V                           :23      Volume of Water in Undisturbed Zone
VXBW  .V/V                           :24      Volume of Bound Water in Flushed Zone
VXGA  .V/V                           :25      Volume of Gas in Flushed Zone 
VXOI  .V/V                           :26      Volume of Oil in Flushed Zone 
VXWA  .V/V                           :27      Volume of Water in Flushed Zone
~Ascii Data Section
# ...
   1769.36440       0.00100       0.01000       0.00100       0.01000       0.05742       0.07782       0.04000       0.04000       2.71193       1.00000       0.00000       0.17484       0.78516       0.00000       0.00000       0.00000       0.00000       0.15741       0.00000       0.00000       0.00000       0.00000       0.04000       0.01742       0.00000       0.00000       0.04000 
   1769.51680       0.00100       0.01000       0.00100       0.01000       0.07302       0.09190       0.05496       0.05496       2.71204       1.00000       0.00000       0.18113       0.76390       0.00000       0.00000       0.00000       0.00000       0.16308      -0.01496       0.00000       0.00000       0.00000       0.05496       0.01805       0.01496       0.00000       0.04000 
   1769.66920       0.00100       0.01000       0.00100       0.01000       0.08811       0.10525       0.07186       0.07186       2.71186       1.00000       0.00000       0.16308       0.76506       0.00000       0.00000       0.00000       0.00000       0.14683      -0.01257       0.00000       0.00000       0.00000       0.07186       0.01625       0.01257       0.00000       0.05929 
   1769.82160       0.00100       0.01000       0.00100       0.01000       0.08971       0.10889       0.07269       0.07269       2.71195       1.00000       0.00000       0.17083       0.75648       0.00000       0.00000       0.00000       0.00000       0.15381      -0.00499       0.00000       0.00000       0.00000       0.07269       0.01702       0.00499       0.00000       0.06770 
   1769.97400       0.00100       0.01000       0.00100       0.01000       0.08788       0.10997       0.06894       0.06894       2.71217       1.00000       0.00000       0.19008       0.74098       0.00000       0.00000       0.00000       0.00000       0.17114      -0.00054       0.00000       0.00000       0.00000       0.06894       0.01894       0.00054       0.00000       0.06840 
   1770.12640       0.00100       0.01000       0.00100       0.01000       0.08454       0.10898       0.06367       0.06367       2.71238       1.00000       0.00000       0.20949       0.72685       0.00000       0.00000       0.00000       0.00000       0.18861       0.00000       0.00000       0.00000       0.00000       0.06367       0.02088       0.00000       0.00000       0.06367 
   1770.27880       0.00100       0.01000       0.00100       0.01000       0.08258       0.10691       0.06179       0.06179       2.71237       1.00000       0.00000       0.20860       0.72961       0.00000       0.00000       0.00000       0.00000       0.18781       0.00000       0.00000       0.00000       0.00000       0.06179       0.02079       0.00000       0.00000       0.06179 
   1770.43120       0.00100       0.01000       0.00100       0.01000       0.07804       0.10002       0.05925       0.05925       2.71722       1.00000       0.00000       0.18850       0.71801       0.00000       0.03423       0.00000       0.00000       0.16972       0.00000       0.00000       0.00000       0.00000       0.05925       0.01879       0.00000       0.00000       0.05925 
   1770.58360       0.00100       0.01000       0.00100       0.01000       0.07006       0.08849       0.05431       0.05431       2.72355       1.00000       0.00000       0.15802       0.70769       0.00000       0.07998       0.00000       0.00000       0.14228       0.00000       0.00000       0.00000       0.00000       0.05431       0.01575       0.00000       0.00000       0.05431 
   1770.73600       0.00100       0.01000       0.00100       0.01000       0.06310       0.07823       0.05018       0.05018       2.71884       1.00000       0.00000       0.12965       0.76960       0.00000       0.05057       0.00000       0.00000       0.11673       0.00000       0.00000       0.00000       0.00000       0.05018       0.01292       0.00000       0.00000       0.05018 
   1770.88840       0.00100       0.01000       0.00100       0.01000       0.06034       0.07420       0.04851       0.04851       2.71132       1.00000       0.00000       0.11878       0.83272       0.00000       0.00000       0.00000       0.00000       0.10694       0.00000       0.00000       0.00000       0.00000       0.04851       0.01184       0.00000       0.00000       0.04851 
   1771.04080       0.00100       0.01000       0.00100       0.01000       0.06338       0.07542       0.05209       0.05209       2.71126       1.00000       0.00000       0.11329       0.83462       0.00000       0.00000       0.00000       0.00000       0.10200      -0.00785       0.00000       0.00000       0.00000       0.05209       0.01129       0.00785       0.00000       0.04424 
   1771.19320       0.00100       0.01000       0.00100       0.01000       0.06497       0.07542       0.05421       0.05421       2.71120       1.00000       0.00000       0.10788       0.83791       0.00000       0.00000       0.00000       0.00000       0.09712      -0.01421       0.00000       0.00000       0.00000       0.05421       0.01075       0.01421       0.00000       0.04000 
   1771.34560       0.00100       0.01000       0.00100       0.01000       0.06760       0.07291       0.06045       0.06045       2.71080       1.00000       0.00000       0.07182       0.86773       0.00000       0.00000       0.00000       0.00000       0.06466      -0.02045       0.00000       0.00000       0.00000       0.06045       0.00716       0.02045       0.00000       0.04000 
   1771.49800       0.00100       0.01156       0.00100       0.01156       0.07227       0.07336       0.06777       0.06777       2.71051       1.00000       0.00000       0.04510       0.88712       0.00000       0.00000       0.00000       0.00000       0.04061      -0.02777       0.00000       0.00000       0.00000       0.06777       0.00449       0.02777       0.00000       0.04000 
   1771.65040       0.00100       0.02478       0.00100       0.02478       0.08308       0.08038       0.08023       0.08023       2.71033       1.00000       0.00000       0.02860       0.89117       0.00000       0.00000       0.00000       0.00000       0.02575      -0.04023       0.00000       0.00000       0.00000       0.08023       0.00285       0.04023       0.00000       0.04000 
   1771.80280       0.00100       0.04007       0.00100       0.04007       0.09720       0.09369       0.09337       0.09337       2.71044       1.00000       0.00000       0.03850       0.86813       0.00000       0.00000       0.00000       0.00000       0.03466      -0.05337       0.00000       0.00000       0.00000       0.09337       0.00384       0.05337       0.00000       0.04000 
   1771.95520       0.00100       0.03731       0.00100       0.03731       0.10238       0.10093       0.09640       0.09640       2.71070       1.00000       0.00000       0.06007       0.84353       0.00000       0.00000       0.00000       0.00000       0.05408      -0.05640       0.00000       0.00000       0.00000       0.09640       0.00599       0.05640       0.00000       0.04000 
   1772.10760       0.00100       0.02899       0.00100       0.02899       0.10233       0.10347       0.09439       0.09439       2.71092       1.00000       0.00000       0.07969       0.82592       0.00000       0.00000       0.00000       0.00000       0.07175      -0.05439       0.00000       0.00000       0.00000       0.09439       0.00794       0.05439       0.00000       0.04000 
   1772.26000       0.00100       0.02088       0.00100       0.02088       0.09595       0.09876       0.08746       0.08746       2.71098       1.00000       0.00000       0.08514       0.82740       0.00000       0.00000       0.00000       0.00000       0.07665      -0.04746       0.00000       0.00000       0.00000       0.08746       0.00848       0.04746       0.00000       0.04000 
   1772.41240       0.00100       0.01560       0.00100       0.01560       0.08765       0.09099       0.07971       0.07971       2.71091       1.00000       0.00000       0.07968       0.84061       0.00000       0.00000       0.00000       0.00000       0.07174      -0.03971       0.00000       0.00000       0.00000       0.07971       0.00794       0.03971       0.00000       0.04000 
