~Version Information
VERS  .          2.0                              :CWLS Log Ascii Standard - Version 2.0
WRAP  .          NO                               :One line per depth step
~Well Information Block
#MNEM.UNIT       Data Type                        Information
#---------       ---------                        -------------------------------
STRT  .M         501.09100                        :START DEPTH
STOP  .M         2801.87400                       :STOP DEPTH
STEP  .M          0.15240                         :INCREMENT
NULL  .          -999.25                          :NULL DATA VALUE
COMP  .          PERTAMINA                        :COMPANY
WELL  .          CMS-005                          :WELL
WBN   .          CMS-005                          :WELLBORE
FLD   .          CEMARA SELATAN                   :FIELD
LOC   .                                           :LOCATION
PROV  .          INDONESIA                        :PROVINCE
STAT  .          INDONESIA                        :STATE
CNTY  .                                           :COUNTY
CTRY  .                                           :COUNTRY
DATE  .                                           :DATE
UWI   .          CEMARASELATAN-005                :UNIQUE WELL UWI
LIC   .                                           :LICENSE NUMBER
API   .                                           :API NUMBER
SRVC  .                                           :SERVICE COMPANY
~Parameter Information Block
#MNEM.UNIT       Value                            Description
#---------       ---------                        -------------
LONG  .DEG       108.170923                       :Well Surface Location
LATI  .DEG       -6.423032                        :Well Surface Location
XWELL .M         187032.670000                    :X-coordinate of Well Head
YWELL .M         9289167.261000                   :Y-coordinate of Well Head
~Curve Information Block
#MNEM.UNIT       API Code            Curve    Description
#--------        --------------      -----    -------------------
DEPT  .M                             :0       Index
KGAS  .MD                            :1       Permeability to Gas           
KINT  .MD                            :2       Intrinsic Permeability        
KOIL  .MD                            :3       Permeability to Oil           
KWTR  .MD                            :4       Permeability to Water         
PHIT  .V/V                           :5       Total Porosity_ includes all forms of porosity, including that occupied by bound fluids, and is independent of rock and fluid materials and of environmental effects
PHTT  .V/V                           :6       Theoretical PHIT Value        
PIGE  .V/V                           :7       Effective Porosity Less Irreducible Water
PIGN  .V/V                           :8       Effective Porosity, VISO, VPAR, and Bound Water Removed
SUWI  .V/V                           :9       Non-Clay Water Intergranular Water Saturation for Undisturbed Zone
VILL  .V/V                           :10      Volume of Illite (dry) Relative to Total Volume
~Ascii Data Section
# ...
   1975.10380       0.00100       0.19857       0.00100       0.19857       0.12964       0.12811       0.12964       0.12964       1.00000       0.00001 
   1975.25620       0.00100       0.14046       0.00100       0.14046       0.11861       0.11711       0.11861       0.11861       1.00000       0.00001 
   1975.40860       0.00100       0.10204       0.00100       0.10204       0.10920       0.10721       0.10920       0.10920       1.00000       0.00001 
   1975.56100       0.00100       0.06962       0.00100       0.06962       0.09883       0.09673       0.09883       0.09883       1.00000       0.00001 
   1975.71340       0.00100       0.03661       0.00100       0.03661       0.08343       0.08185       0.08343       0.08343       1.00000       0.00001 
   1975.86580       0.00100       0.02491       0.00100       0.02491       0.07532       0.07406       0.07531       0.07531       1.00000       0.00001 
   1976.01820       0.00100       0.02581       0.00100       0.02581       0.07603       0.07441       0.07603       0.07603       1.00000       0.00001 
   1976.17060       0.00100       0.02691       0.00100       0.02691       0.07688       0.07519       0.07688       0.07688       1.00000       0.00001 
   1976.32300       0.00100       0.01809       0.00100       0.01809       0.06914       0.06812       0.06914       0.06914       1.00000       0.00001 
   1976.47540       0.00100       0.02199       0.00100       0.02199       0.07285       0.07128       0.07285       0.07285       1.00000       0.00001 
   1976.62780       0.00100       0.03097       0.00100       0.03097       0.07981       0.07836       0.07981       0.07981       1.00000       0.00001 
   1976.78020       0.00100       0.03926       0.00100       0.03926       0.08499       0.08299       0.08499       0.08499       1.00000       0.00001 
   1976.93260       0.00100       0.03791       0.00100       0.03791       0.08421       0.08235       0.08421       0.08421       1.00000       0.00001 
   1977.08500       0.00100       0.03493       0.00100       0.03493       0.08240       0.08104       0.08240       0.08240       1.00000       0.00001 
   1977.23740       0.00100       0.04903       0.00100       0.04903       0.09013       0.08868       0.09013       0.09013       1.00000       0.00001 
   1977.38980       0.00100       0.06747       0.00100       0.06747       0.09802       0.09653       0.09802       0.09802       1.00000       0.00001 
   1977.54220       0.00100       0.07895       0.00100       0.07895       0.10213       0.10076       0.10213       0.10213       1.00000       0.00001 
   1977.69460       0.00100       0.08399       0.00100       0.08399       0.10380       0.10280       0.10380       0.10380       1.00000       0.00001 
   1977.84700       0.00100       0.08787       0.00100       0.08787       0.10560       0.10486       0.10546       0.10546       1.00000       0.00151 
   1977.99940       0.00100       0.07379       0.00100       0.07379       0.10451       0.10510       0.10348       0.10348       1.00000       0.01120 
   1978.15180       0.00100       0.10069       0.00100       0.10069       0.11203       0.11139       0.11128       0.11128       1.00000       0.00812 
   1978.30420       0.00100       0.09399       0.00100       0.09399       0.11004       0.10929       0.10929       0.10929       1.00000       0.00808 
   1978.45660       0.00100       0.11508       0.00100       0.11508       0.11481       0.11310       0.11432       0.11432       1.00000       0.00532 
   1978.60900       0.00100       0.07584       0.00100       0.07584       0.10785       0.10806       0.10619       0.10619       1.00000       0.01796 
   1978.76140       0.00100       0.04337       0.00100       0.04337       0.09596       0.09734       0.09359       0.09359       1.00000       0.02569 
   1978.91380       0.00100       0.04549       0.00100       0.04549       0.09745       0.09862       0.09500       0.09500       1.00000       0.02654 
   1979.06620       0.00100       0.03127       0.00100       0.03127       0.09314       0.09652       0.08938       0.08938       1.00000       0.04069 
   1979.21860       0.00100       0.03131       0.00100       0.03131       0.09478       0.09882       0.09059       0.09059       1.00000       0.04539 
   1979.37100       0.00100       0.02873       0.00100       0.02873       0.09507       0.10033       0.09024       0.09024       1.00000       0.05233 
   1979.52340       0.00100       0.03531       0.00100       0.03532       0.10114       0.10726       0.09608       0.09608       1.00000       0.05487 
   1979.67580       0.00100       0.06648       0.00100       0.06648       0.11262       0.11643       0.10896       0.10896       1.00000       0.03959 
   1979.82820       0.00100       0.09688       0.00100       0.09688       0.11925       0.12115       0.11662       0.11662       1.00000       0.02849 
   1979.98060       0.00100       0.10264       0.00100       0.10264       0.12060       0.12214       0.11806       0.11806       1.00000       0.02749 
   1980.13300       0.00100       0.06816       0.00100       0.06816       0.11320       0.11669       0.10957       0.10957       1.00000       0.03924 
   1980.28540       0.00100       0.05554       0.00100       0.05554       0.11009       0.11455       0.10582       0.10582       1.00000       0.04616 
   1980.43780       0.00100       0.05242       0.00100       0.05242       0.10759       0.11194       0.10354       0.10354       1.00000       0.04388 
   1980.59020       0.00100       0.06442       0.00100       0.06442       0.10802       0.11075       0.10524       0.10524       1.00000       0.03017 
   1980.74260       0.00100       0.09801       0.00100       0.09801       0.11335       0.11344       0.11212       0.11212       1.00000       0.01334 
   1980.89500       0.00100       0.10728       0.00100       0.10728       0.11460       0.11409       0.11369       0.11369       1.00000       0.00989 
   1981.04740       0.00100       0.08803       0.00100       0.08803       0.11132       0.11201       0.10984       0.10984       1.00000       0.01605 
   1981.19980       0.00100       0.09209       0.00100       0.09209       0.11444       0.11551       0.11255       0.11255       1.00000       0.02056 
   1981.35220       0.00100       0.08841       0.00100       0.08841       0.11594       0.11789       0.11343       0.11343       1.00000       0.02715 
   1981.50460       0.00100       0.07018       0.00100       0.07018       0.11415       0.11806       0.11050       0.11050       1.00000       0.03949 
   1981.65700       0.00100       0.06526       0.00100       0.06526       0.11543       0.12074       0.11101       0.11101       1.00000       0.04791 
   1981.80940       0.00100       0.09885       0.00100       0.09885       0.12395       0.12796       0.12044       0.12044       1.00000       0.03801 
   1981.96180       0.00100       0.13053       0.00100       0.13053       0.13247       0.13628       0.12907       0.12907       1.00000       0.03678 
   1982.11420       0.00100       0.18868       0.00100       0.18868       0.14986       0.15455       0.14566       0.14566       1.00000       0.04547 
   1982.26660       0.00100       0.23882       0.00100       0.23882       0.15861       0.16318       0.15448       0.15448       1.00000       0.04474 
   1982.41900       0.00100       0.27868       0.00100       0.27868       0.16346       0.16784       0.15956       0.15956       1.00000       0.04224 
   1982.57140       0.00100       0.39252       0.00100       0.38097       0.17326       0.17618       0.17010       0.17010       0.99939       0.03431 
   1982.72380       0.00100       0.43697       0.00100       0.43697       0.17703       0.17968       0.17400       0.17400       1.00000       0.03281 
   1982.87620       0.00100       0.51055       0.00100       0.51055       0.18223       0.18442       0.17946       0.17946       1.00000       0.03002 
