~Version Information
VERS  .          2.0                              :CWLS Log Ascii Standard - Version 2.0
WRAP  .          NO                               :One line per depth step
~Well Information Block
#MNEM.UNIT       Data Type                        Information
#---------       ---------                        -------------------------------
STRT  .M         1190.09200                       :START DEPTH
STOP  .M         2429.86500                       :STOP DEPTH
STEP  .M          0.15240                         :INCREMENT
NULL  .          -999.25                          :NULL DATA VALUE
COMP  .                                           :COMPANY
WELL  .          CMS-001                          :WELL
WBN   .          CMS-001                          :WELLBORE
FLD   .          CEMARA SELATAN                   :FIELD
LOC   .                                           :LOCATION
PROV  .                                           :PROVINCE
STAT  .                                           :STATE
CNTY  .                                           :COUNTY
CTRY  .                                           :COUNTRY
DATE  .                                           :DATE
UWI   .          CEMARASELATAN-001                :UNIQUE WELL UWI
LIC   .                                           :LICENSE NUMBER
API   .                                           :API NUMBER
SRVC  .                                           :SERVICE COMPANY
~Parameter Information Block
#MNEM.UNIT       Value                            Description
#---------       ---------                        -------------
LONG  .DEG       108.170925                       :Well Surface Location
LATI  .DEG       -6.422919                        :Well Surface Location
XWELL .M         187032.780005                    :X-coordinate of Well Head
YWELL .M         9289179.840752                   :Y-coordinate of Well Head
~Curve Information Block
#MNEM.UNIT       API Code            Curve    Description
#--------        --------------      -----    -------------------
DEPT  .M                             :0       Index
KGAS  .MD                            :1       Permeability to Gas           
KINT  .MD                            :2       Intrinsic Permeability        
KOIL  .MD                            :3       Permeability to Oil           
KWTR  .MD                            :4       Permeability to Water         
PHIT  .V/V                           :5       Total Porosity_ includes all forms of porosity, including that occupied by bound fluids, and is independent of rock and fluid materials and of environmental effects
PHTT  .V/V                           :6       Theoretical PHIT Value        
PIGE  .V/V                           :7       Effective Porosity Less Irreducible Water
PIGN  .V/V                           :8       Effective Porosity, VISO, VPAR, and Bound Water Removed
RHGA  .G/C3                          :9       Apparent Grain Density        
SUWI  .V/V                           :10      Non-Clay Water Intergranular Water Saturation for Undisturbed Zone
VCHL  .V/V                           :11      Volume of Chlorite Relative to Total Volume
VCL   .V/V                           :12      Volume of Clay Type Material Relative to Total Volume
VCLC  .V/V                           :13      Volume of Calcite Relative to Total Volume
VCOA  .V/V                           :14      Volume of Coal Relative to Total Volume
VDOL  .V/V                           :15      Volume of Dolomite Relative to Total Volume
VFEL  .V/V                           :16      Volume of Feldspar Relative to Total Volume
VIGN  .V/V                           :17      Volume of Igneous Rock Relative to Total Volume
VILL  .V/V                           :18      Volume of Illite (dry) Relative to Total Volume
VMHY  .V/V                           :19      Volume of Moved Hydrocarbon Relative to Total Volume
VQUA  .V/V                           :20      Volume of Quartz Relative to Total Volume
VUGA  .V/V                           :21      Volume of Gas in Undisturbed Zone
VUOI  .V/V                           :22      Volume of Oil in Undisturbed Zone
VUWA  .V/V                           :23      Volume of Water in Undisturbed Zone
VXBW  .V/V                           :24      Volume of Bound Water in Flushed Zone
VXGA  .V/V                           :25      Volume of Gas in Flushed Zone 
VXOI  .V/V                           :26      Volume of Oil in Flushed Zone 
VXWA  .V/V                           :27      Volume of Water in Flushed Zone
~Ascii Data Section
# ...
   1359.71320       0.00100       0.01000       0.00100       0.01000       0.25466       0.31206       0.16831       0.16831       2.75128       1.00000       0.00000       0.66987       0.00000       0.00000       0.00000       0.00000       0.00000       0.58352      -0.00762       0.16182       0.00000       0.00000       0.16831       0.08635       0.00762       0.00000       0.16069 
   1359.86560       0.00100       0.01000       0.00100       0.01000       0.25979       0.31857       0.17310       0.17310       2.75239       1.00000       0.00000       0.67255       0.00000       0.00000       0.00000       0.00000       0.00000       0.58586       0.00000       0.15435       0.00000       0.00000       0.17310       0.08669       0.00000       0.00000       0.17310 
   1360.01800       0.00100       0.01000       0.00100       0.01000       0.26522       0.32284       0.18024       0.18024       2.75111       1.00000       0.00000       0.65927       0.00000       0.00000       0.00000       0.00000       0.00000       0.57429       0.00000       0.16049       0.00000       0.00000       0.18024       0.08498       0.00000       0.00000       0.18024 
   1360.17040       0.00100       0.01000       0.00100       0.01000       0.26171       0.31886       0.17743       0.17743       2.74980       1.00000       0.00000       0.65388       0.00000       0.00000       0.00000       0.00000       0.00000       0.56959       0.00000       0.16869       0.00000       0.00000       0.17743       0.08429       0.00000       0.00000       0.17743 
   1360.32280       0.00100       0.01000       0.00100       0.01000       0.25266       0.30829       0.17034       0.17034       2.74630       1.00000       0.00000       0.63863       0.00000       0.00000       0.00000       0.00000       0.00000       0.55631      -0.00123       0.19103       0.00000       0.00000       0.17034       0.08232       0.00123       0.00000       0.16911 
   1360.47520       0.00100       0.01000       0.00100       0.01000       0.24301       0.29973       0.15797       0.15797       2.74821       1.00000       0.00000       0.65974       0.00000       0.00000       0.00000       0.00000       0.00000       0.57470      -0.00629       0.18229       0.00000       0.00000       0.15797       0.08504       0.00629       0.00000       0.15168 
   1360.62760       0.00100       0.01000       0.00100       0.01000       0.23729       0.29639       0.14784       0.14784       2.75252       1.00000       0.00000       0.69389       0.00000       0.00000       0.00000       0.00000       0.00000       0.60444      -0.01028       0.15827       0.00000       0.00000       0.14784       0.08944       0.01028       0.00000       0.13756 
   1360.78000       0.00100       0.01000       0.00100       0.01000       0.23556       0.29101       0.15231       0.15231       2.74520       1.00000       0.00000       0.64583       0.00000       0.00000       0.00000       0.00000       0.00000       0.56258      -0.00666       0.20186       0.00000       0.00000       0.15231       0.08325       0.00666       0.00000       0.14566 
   1360.93240       0.00100       0.01000       0.00100       0.01000       0.24337       0.29435       0.16293       0.16293       2.74294       1.00000       0.00000       0.62403       0.00000       0.00000       0.00000       0.00000       0.00000       0.54359      -0.02374       0.21304       0.00000       0.00000       0.16293       0.08044       0.02374       0.00000       0.13919 
   1361.08480       0.00100       0.01000       0.00100       0.01000       0.24612       0.29591       0.16500       0.16500       2.74407       1.00000       0.00000       0.62931       0.00000       0.00000       0.00000       0.00000       0.00000       0.54819      -0.03473       0.20569       0.00000       0.00000       0.16500       0.08112       0.03473       0.00000       0.13027 
   1361.23720       0.00100       0.01000       0.00100       0.01000       0.24853       0.29874       0.16756       0.16756       2.74420       1.00000       0.00000       0.62817       0.00000       0.00000       0.00000       0.00000       0.00000       0.54720      -0.03131       0.20427       0.00000       0.00000       0.16756       0.08097       0.03131       0.00000       0.13625 
   1361.38960       0.00100       0.01000       0.00100       0.01000       0.24328       0.29621       0.16173       0.16173       2.74422       1.00000       0.00000       0.63269       0.00000       0.00000       0.00000       0.00000       0.00000       0.55114      -0.01583       0.20558       0.00000       0.00000       0.16173       0.08155       0.01583       0.00000       0.14590 
   1361.54200       0.00100       0.01000       0.00100       0.01000       0.23493       0.28917       0.15093       0.15093       2.74599       1.00000       0.00000       0.65172       0.00000       0.00000       0.00000       0.00000       0.00000       0.56772      -0.01817       0.19735       0.00000       0.00000       0.15093       0.08401       0.01817       0.00000       0.13275 
   1361.69440       0.00100       0.01000       0.00100       0.01000       0.23542       0.28919       0.15208       0.15208       2.74529       1.00000       0.00000       0.64655       0.00000       0.00000       0.00000       0.00000       0.00000       0.56321      -0.01823       0.20137       0.00000       0.00000       0.15208       0.08334       0.01823       0.00000       0.13385 
   1361.84680       0.00100       0.01000       0.00100       0.01000       0.23764       0.29141       0.15576       0.15576       2.74389       1.00000       0.00000       0.63518       0.00000       0.00000       0.00000       0.00000       0.00000       0.55331      -0.01162       0.20906       0.00000       0.00000       0.15576       0.08188       0.01162       0.00000       0.14414 
   1361.99920       0.00100       0.01000       0.00100       0.01000       0.23950       0.29657       0.15259       0.15259       2.74991       1.00000       0.00000       0.67428       0.00000       0.00000       0.00000       0.00000       0.00000       0.58736      -0.01247       0.17313       0.00000       0.00000       0.15259       0.08692       0.01247       0.00000       0.14012 
   1362.15160       0.00100       0.01000       0.00100       0.01000       0.24431       0.30228       0.15558       0.15558       2.75264       1.00000       0.00000       0.68835       0.00000       0.00000       0.00000       0.00000       0.00000       0.59962      -0.01457       0.15607       0.00000       0.00000       0.15558       0.08873       0.01457       0.00000       0.14101 
   1362.30400       0.00100       0.01000       0.00100       0.01000       0.24150       0.29869       0.15526       0.15526       2.74940       1.00000       0.00000       0.66909       0.00000       0.00000       0.00000       0.00000       0.00000       0.58284      -0.00860       0.17565       0.00000       0.00000       0.15526       0.08625       0.00860       0.00000       0.14665 
   1362.45640       0.00100       0.01000       0.00100       0.01000       0.23451       0.29502       0.14435       0.14435       2.75296       1.00000       0.00000       0.69940       0.00000       0.00000       0.00000       0.00000       0.00000       0.60925      -0.00409       0.15625       0.00000       0.00000       0.14435       0.09015       0.00409       0.00000       0.14026 
   1362.60880       0.00100       0.01000       0.00100       0.01000       0.22705       0.29114       0.13253       0.13253       2.75691       1.00000       0.00000       0.73330       0.00000       0.00000       0.00000       0.00000       0.00000       0.63877       0.00000       0.13418       0.00000       0.00000       0.13253       0.09452       0.00000       0.00000       0.13253 
   1362.76120       0.00100       0.01000       0.00100       0.01000       0.22343       0.28804       0.12813       0.12813       2.75728       1.00000       0.00000       0.73931       0.00000       0.00000       0.00000       0.00000       0.00000       0.64402       0.00000       0.13256       0.00000       0.00000       0.12813       0.09530       0.00000       0.00000       0.12813 
