~Version Information
VERS  .          2.0                              :CWLS Log Ascii Standard - Version 2.0
WRAP  .          NO                               :One line per depth step
~Well Information Block
#MNEM.UNIT       Data Type                        Information
#---------       ---------                        -------------------------------
STRT  .M         1190.09200                       :START DEPTH
STOP  .M         2429.86500                       :STOP DEPTH
STEP  .M          0.15240                         :INCREMENT
NULL  .          -999.25                          :NULL DATA VALUE
COMP  .                                           :COMPANY
WELL  .          CMS-001                          :WELL
WBN   .          CMS-001                          :WELLBORE
FLD   .          CEMARA SELATAN                   :FIELD
LOC   .                                           :LOCATION
PROV  .                                           :PROVINCE
STAT  .                                           :STATE
CNTY  .                                           :COUNTY
CTRY  .                                           :COUNTRY
DATE  .                                           :DATE
UWI   .          CEMARASELATAN-001                :UNIQUE WELL UWI
LIC   .                                           :LICENSE NUMBER
API   .                                           :API NUMBER
SRVC  .                                           :SERVICE COMPANY
~Parameter Information Block
#MNEM.UNIT       Value                            Description
#---------       ---------                        -------------
LONG  .DEG       108.170925                       :Well Surface Location
LATI  .DEG       -6.422919                        :Well Surface Location
XWELL .M         187032.780005                    :X-coordinate of Well Head
YWELL .M         9289179.840752                   :Y-coordinate of Well Head
~Curve Information Block
#MNEM.UNIT       API Code            Curve    Description
#--------        --------------      -----    -------------------
DEPT  .M                             :0       Index
KGAS  .MD                            :1       Permeability to Gas           
KINT  .MD                            :2       Intrinsic Permeability        
KOIL  .MD                            :3       Permeability to Oil           
KWTR  .MD                            :4       Permeability to Water         
PHIT  .V/V                           :5       Total Porosity_ includes all forms of porosity, including that occupied by bound fluids, and is independent of rock and fluid materials and of environmental effects
PHTT  .V/V                           :6       Theoretical PHIT Value        
PIGE  .V/V                           :7       Effective Porosity Less Irreducible Water
PIGN  .V/V                           :8       Effective Porosity, VISO, VPAR, and Bound Water Removed
RHGA  .G/C3                          :9       Apparent Grain Density        
SUWI  .V/V                           :10      Non-Clay Water Intergranular Water Saturation for Undisturbed Zone
VCHL  .V/V                           :11      Volume of Chlorite Relative to Total Volume
VCL   .V/V                           :12      Volume of Clay Type Material Relative to Total Volume
VCLC  .V/V                           :13      Volume of Calcite Relative to Total Volume
VCOA  .V/V                           :14      Volume of Coal Relative to Total Volume
VDOL  .V/V                           :15      Volume of Dolomite Relative to Total Volume
VFEL  .V/V                           :16      Volume of Feldspar Relative to Total Volume
VIGN  .V/V                           :17      Volume of Igneous Rock Relative to Total Volume
VILL  .V/V                           :18      Volume of Illite (dry) Relative to Total Volume
VMHY  .V/V                           :19      Volume of Moved Hydrocarbon Relative to Total Volume
VQUA  .V/V                           :20      Volume of Quartz Relative to Total Volume
VUGA  .V/V                           :21      Volume of Gas in Undisturbed Zone
VUOI  .V/V                           :22      Volume of Oil in Undisturbed Zone
VUWA  .V/V                           :23      Volume of Water in Undisturbed Zone
VXBW  .V/V                           :24      Volume of Bound Water in Flushed Zone
VXGA  .V/V                           :25      Volume of Gas in Flushed Zone 
VXOI  .V/V                           :26      Volume of Oil in Flushed Zone 
VXWA  .V/V                           :27      Volume of Water in Flushed Zone
~Ascii Data Section
# ...
   1606.14400       0.00100       0.43889       0.00100       0.43889       0.26832       0.29997       0.21781       0.21781       2.71035       1.00000       0.00000       0.39185       0.00000       0.00000       0.00000       0.00000       0.00000       0.34134      -0.01730       0.39034       0.00000       0.00000       0.21781       0.05051       0.01730       0.00000       0.20051 
   1606.29640       0.02041       0.19897       0.00100       0.01000       0.29832       0.33494       0.24133       0.24133       2.72100       0.89743       0.00000       0.44209       0.00000       0.00000       0.00000       0.00000       0.00000       0.38510       0.01136       0.31658       0.02475       0.00000       0.21658       0.05699       0.01339       0.00000       0.22794 
   1606.44880       0.01206       0.07734       0.00100       0.01000       0.30623       0.34521       0.24307       0.24307       2.72960       0.84406       0.00000       0.49004       0.00000       0.00000       0.00000       0.00000       0.00000       0.42687       0.01224       0.26690       0.03790       0.00000       0.20516       0.06317       0.02567       0.00000       0.21740 
   1606.60120       0.00417       0.05244       0.00100       0.01000       0.29374       0.33634       0.22848       0.22848       2.73077       0.92047       0.00000       0.50622       0.00000       0.00000       0.00000       0.00000       0.00000       0.44097       0.00723       0.26529       0.00000       0.01817       0.21031       0.06525       0.01094       0.00000       0.21754 
   1606.75360       0.00100       0.04776       0.00100       0.04776       0.29222       0.33377       0.22642       0.22642       2.73127       1.00000       0.00000       0.51045       0.00000       0.00000       0.00000       0.00000       0.00000       0.44466      -0.02041       0.26312       0.00000       0.00000       0.22642       0.06580       0.02041       0.00000       0.20602 
   1606.90600       0.00100       0.03991       0.00100       0.03991       0.29878       0.33882       0.23164       0.23164       2.73369       1.00000       0.00000       0.52080       0.00000       0.00000       0.00000       0.00000       0.00000       0.45367      -0.03647       0.24755       0.00000       0.00000       0.23164       0.06713       0.03647       0.00000       0.19518 
   1607.05840       0.00100       0.03690       0.00100       0.03690       0.30500       0.34430       0.23722       0.23722       2.73526       1.00000       0.00000       0.52583       0.00000       0.00000       0.00000       0.00000       0.00000       0.45805      -0.04440       0.23694       0.00000       0.00000       0.23722       0.06778       0.04440       0.00000       0.19283 
   1607.21080       0.00100       0.03538       0.00100       0.03538       0.31511       0.35525       0.24686       0.24686       2.73710       1.00000       0.00000       0.52941       0.00000       0.00000       0.00000       0.00000       0.00000       0.46116      -0.04084       0.22373       0.00000       0.00000       0.24686       0.06824       0.04084       0.00000       0.20602 
   1607.36320       0.00100       0.01753       0.00100       0.01753       0.32581       0.36944       0.25309       0.25309       2.74429       1.00000       0.00000       0.56413       0.00000       0.00000       0.00000       0.00000       0.00000       0.49142      -0.03784       0.18278       0.00000       0.00000       0.25309       0.07272       0.03784       0.00000       0.21525 
   1607.51560       0.00100       0.01000       0.00100       0.01000       0.32394       0.37447       0.24662       0.24662       2.74998       1.00000       0.00000       0.59980       0.00000       0.00000       0.00000       0.00000       0.00000       0.52248      -0.01259       0.15358       0.00000       0.00000       0.24662       0.07731       0.01259       0.00000       0.23404 
   1607.66800       0.00100       0.01000       0.00100       0.01000       0.31802       0.36930       0.24007       0.24007       2.74991       1.00000       0.00000       0.60467       0.00000       0.00000       0.00000       0.00000       0.00000       0.52672      -0.01040       0.15526       0.00000       0.00000       0.24007       0.07794       0.01040       0.00000       0.22968 
   1607.82040       0.00100       0.01051       0.00100       0.01051       0.32731       0.37506       0.25143       0.25143       2.74862       1.00000       0.00000       0.58872       0.00000       0.00000       0.00000       0.00000       0.00000       0.51284      -0.02468       0.15985       0.00000       0.00000       0.25143       0.07589       0.02468       0.00000       0.22674 
   1607.97280       0.00100       0.02408       0.00100       0.02408       0.32596       0.37071       0.25521       0.25521       2.74177       1.00000       0.00000       0.54891       0.00000       0.00000       0.00000       0.00000       0.00000       0.47816      -0.02150       0.19588       0.00000       0.00000       0.25521       0.07076       0.02150       0.00000       0.23371 
   1608.12520       0.00100       0.05013       0.00100       0.05013       0.31913       0.36179       0.25299       0.25299       2.73492       1.00000       0.00000       0.51310       0.00000       0.00000       0.00000       0.00000       0.00000       0.44696      -0.01456       0.23391       0.00000       0.00000       0.25299       0.06614       0.01456       0.00000       0.23843 
   1608.27760       0.00100       0.09640       0.00100       0.09640       0.30952       0.34994       0.24764       0.24764       2.72834       1.00000       0.00000       0.48000       0.00000       0.00000       0.00000       0.00000       0.00000       0.41813      -0.01018       0.27235       0.00000       0.00000       0.24764       0.06187       0.01018       0.00000       0.23746 
   1608.43000       0.00100       0.09725       0.00100       0.09725       0.27651       0.31762       0.21588       0.21588       2.72327       1.00000       0.00000       0.47039       0.00000       0.00000       0.00000       0.00000       0.00000       0.40976       0.00000       0.31373       0.00000       0.00000       0.21588       0.06063       0.00000       0.00000       0.21588 
   1608.58240       0.00100       0.02891       0.00100       0.02891       0.21925       0.26311       0.15457       0.15457       2.72242       1.00000       0.00000       0.50177       0.00000       0.00000       0.00000       0.00000       0.00000       0.43709       0.00000       0.34365       0.00000       0.00000       0.15457       0.06468       0.00000       0.00000       0.15457 
   1608.73480       0.00100       0.08208       0.00100       0.08208       0.18974       0.22667       0.13527       0.13527       2.70876       1.00000       0.00000       0.42254       0.00000       0.00000       0.00000       0.00000       0.00000       0.36807       0.00000       0.44219       0.00000       0.00000       0.13527       0.05447       0.00000       0.00000       0.13527 
   1608.88720       0.00100       0.13541       0.00100       0.13541       0.17107       0.20394       0.12258       0.12258       2.70113       1.00000       0.00000       0.37615       0.00000       0.00000       0.00000       0.00000       0.00000       0.32766       0.00000       0.50127       0.00000       0.00000       0.12258       0.04849       0.00000       0.00000       0.12258 
   1609.03960       0.00100       0.16357       0.00100       0.16357       0.16335       0.19453       0.11735       0.11735       2.69806       1.00000       0.00000       0.35682       0.00000       0.00000       0.00000       0.00000       0.00000       0.31083       0.00000       0.52583       0.00000       0.00000       0.11735       0.04599       0.00000       0.00000       0.11735 
   1609.19200       0.00100       0.14131       0.00100       0.14131       0.16434       0.19629       0.11721       0.11721       2.69930       1.00000       0.00000       0.36563       0.00000       0.00000       0.00000       0.00000       0.00000       0.31850       0.00000       0.51717       0.00000       0.00000       0.11721       0.04713       0.00000       0.00000       0.11721 
