~VERSION INFORMATION
 VERS.               1.20:   CWLS LOG ASCII STANDARD - VERSION 1.20
 WRAP.                 NO:   ONE LINE PER DEPTH STEP
~WELL INFORMATION
#MNEM.UNIT      DATA TYPE    INFORMATION
#----------   ------------   ------------------------------
 STRT.M          630.6096:   START DEPTH
 STOP.M         3133.6272:   STOP DEPTH
 STEP.M            0.1524:   STEP LENGTH
 NULL.          -999.2500:   NO VALUE
 COMP.            COMPANY:   PERTAMINA
 WELL.               WELL:   CMS-004
 WBN .            CMS-004:   WELLBORE
 FLD .              FIELD:   CEMARA SELATAN
 LOC .           LOCATION:   X = + 149636.27  Y = - 719813.7
 PROV.           PROVINCE:   JAWA BARAT
 STAT.              STATE:   INDONESIA
 SRVC.    SERVICE COMPANY:   SCHLUMBERGER
 DATE.            LOGDATE:   11/24/77
 APIN.         API NUMBER:   -
 UWI .  CEMARASELATAN-004:   UNIQUE WELL ID 
~CURVE INFORMATION
#MNEM.UNIT       API CODE    CURVE DESCRIPTION
#----------   ------------   ------------------------------
 DEPT.M                  :
 CALI.inch   60 280 00 00:   Caliper
 GR  .GAPI   60 310 00 00:   Gamma Ray
 SP  .mV     60 010 01 00:   Spontaneous Potential
 ILD .ohmm   05 070 46 00:   Induction Laterolog, Deep
 SN  .ohmm   05 040 16 00:   Short Normal 16"
 NPHI.%      42 890 03 00:   Neu. Porosity, Ss [%]
 RHOB.kg/cm3 42 350 01 00:   Bulk Density
 DRHO.g/cc   42 356 01 00:   Density Correction
 PROX.ohmm   21 270 30 00:   Proximity Log
~PARAMETER INFORMATION
#MNEM.UNIT          VALUE    DESCRIPTION
#----------   ------------   ------------------------------
 EKB .M            0.0000:   Kelly bushing
 EGL .M            0.0000:   Ground level
 EDF .M           10.0000:   Drilling floor
 EPD .M           10.0000:   Permanent datum
 TD  .M         3129.0000:   Total depth
 DF  .      CONGLONGMERAT:   Deepest formation
 PROJ.       SCHLUMBERGER:   Project
 DATE.           11/24/77:   Date logged
 SRFX.M       185028.4000:   Surface X position
 SRFY.M      9281121.0000:   Surface Y position
 STUS.                  3:   1-18 API codes
 SLAT.DECIMAL DE  -6.4963:   Surface Latitude
 SLNG.DECIMAL DE 108.1521:   Surface Longitude
 BLAT.DECIMAL DE   0.0000:   Bottom Latitude
 BLNG.DECIMAL DE   0.0000:   Bottom Longitude
 SCTN.                  0:   Section Number
 NSFT.F            0.0000:   N-S Footage
 EWFT.F            0.0000:   E-F Footage
 BHT .Degf            100:   Bottom Hole Temperature
 MRT .Degf            100:   Max Recorded Temperature
 MST .Degf             87:   Mud Temperature
 RM  .Ohmm            3.0:   Mud Resistivity
 RMB .Degf  2.7 ohmm @100:   Mud BHT Resistivity
 RMC .Ohmm           4.72:   Mud Cake Resistivity
 RMF .Ohmm           1.93:   Mud Filtrate Resistivity
 DFD .G/c3           1.05:   Drilling Fluid Density
 DFV .Sec              43:   Drilling Fluid Viscosity
 DFPH.                  9:   Drilling Fluid pH
 DFL .Ml               14:   Drilling Fluid Loss
 DD  .Mtr          3129.0:   Depth driller
 DL  .Mtr          3129.8:   Depth logger
 BLI .Mtr          3129.5:   Bottom log interval
 TLI .Mtr            2767:   Top log interval
 CSS .Inch          9 5/8:   Casing size
 CTD1.Mtr   9 5/8" @ 1300:   Casing driller 1
 CTL1.Mtr          1299.7:   Casing logger 1
 BS  .Inch          8 5/8:   Bit size
 DFT . Bentonite / Q.Broxin:   Type fluid in hole
 WSS .           Flowline:   Source of sample
 EMT .Degf 0.48 ohmm @ 95:   Rm Meas. temp.
 MFT .Degf 0.31 ohmm @ 80:   Rmf Meas. temp.
 MCST.Degf 0.66 ohmm @ 26:   Rmc Meas. temp.
 MFSS.              Press:   Source Rmf.
 MCSS.              Press:   Source Rmc.
 TCS .HRS              12:   Time Circ. stopped
 LUN .               RS18:   Logging unit number
 LUL .                WJV:   Logging unit location
 ENGI.            M.Akbar:   Recorded By
 WITN.  Wardoyo / Sugipto:   Witnessed by
 RE1 .        ILD (6FF40):   Res. Electrode #1
 RE2 .      SN  (A-16" M):   Res. Electrode #2
 TLAB.Hrs              12:   Time logger at bottom
 DATE.           12/02/77:   Date logged
 DATE.           12/13/77:   Date logged
 DATE.           01/10/77:   Date logged
 DATE.           01/28/78:   Date logged
 BHT .Degf            110:   Bottom Hole Temperature
 BHT .Degf            155:   Bottom Hole Temperature
 BHT .Degf            250:   Bottom Hole Temperature
 BHT .Degf            270:   Bottom Hole Temperature
 MRT .Degf            110:   Max Recorded Temperature
 MRT .Degf            155:   Max Recorded Temperature
 MRT .Degf            250:   Max Recorded Temperature
 MRT .Degf            270:   Max Recorded Temperature
 MST .Degf             80:   Mud Temperature
 MST .Degf             85:   Mud Temperature
 MST .Degf             85:   Mud Temperature
 MST .Degf             95:   Mud Temperature
 RM  .Ohmm           2.05:   Mud Resistivity
 RM  .Ohmm           1.51:   Mud Resistivity
 RM  .Ohmm           0.71:   Mud Resistivity
 RM  .Ohmm           0.48:   Mud Resistivity
 RMB .Degf 1.6 ohmm @ 110:   Mud BHT Resistivity
 RMB .Degf 0.9 ohmm @ 155:   Mud BHT Resistivity
 RMB .Degf 0.24 ohmm @ 250:   Mud BHT Resistivity
 RMB .Degf 0.16 ohmm @ 270:   Mud BHT Resistivity
 RMC .Ohmm           2.12:   Mud Cake Resistivity
 RMC .Ohmm           1.62:   Mud Cake Resistivity
 RMC .Ohmm           1.11:   Mud Cake Resistivity
 RMC .Ohmm 0.66 ohmm @ 26:   Mud Cake Resistivity
 RMF .Ohmm           1.91:   Mud Filtrate Resistivity
 RMF .Ohmm           1.36:   Mud Filtrate Resistivity
 RMF .Ohmm           0.46:   Mud Filtrate Resistivity
 RMF .Ohmm 0.31 ohmm @ 80:   Mud Filtrate Resistivity
 DFD .G/c3           1.15:   Drilling Fluid Density
 DFD .G/c3           1.14:   Drilling Fluid Density
 DFD .G/c3           1.17:   Drilling Fluid Density
 DFD .G/c3           1.23:   Drilling Fluid Density
 DFV .Sec              42:   Drilling Fluid Viscosity
 DFV .Sec              55:   Drilling Fluid Viscosity
 DFV .Sec              65:   Drilling Fluid Viscosity
 DFV .Sec              65:   Drilling Fluid Viscosity
 DFPH.                  9:   Drilling Fluid pH
 DFPH.                  9:   Drilling Fluid pH
 DFPH.                9.5:   Drilling Fluid pH
 DFPH.                9.5:   Drilling Fluid pH
 DFL .Ml               10:   Drilling Fluid Loss
 DFL .Ml              6.5:   Drilling Fluid Loss
 DFL .Ml                5:   Drilling Fluid Loss
 DFL .Ml                5:   Drilling Fluid Loss
 DD  .Mtr             255:   Depth driller
 DD  .Mtr             635:   Depth driller
 DD  .Mtr            1305:   Depth driller
 DD  .Mtr            2798:   Depth driller
 DL  .Mtr             255:   Depth logger
 DL  .Mtr             635:   Depth logger
 DL  .Mtr            1303:   Depth logger
 DL  .Mtr          2799.3:   Depth logger
 BLI .Mtr           254.7:   Bottom log interval
 BLI .Mtr           634.7:   Bottom log interval
 BLI .Mtr            1302:   Bottom log interval
 BLI .Mtr          2799.0:   Bottom log interval
 TLI .Mtr            30.0:   Top log interval
 TLI .Mtr           259.3:   Top log interval
 TLI .Mtr           630.5:   Top log interval
 TLI .Mtr          1299.7:   Top log interval
 CSS .Inch             30:   Casing size
 CSS .Inch             20:   Casing size
 CSS .Inch         12 1/4:   Casing size
 CSS .Inch          9 5/8:   Casing size
 CTD1.Mtr              30:   Casing driller 1
 CTD1.Mtr           259.1:   Casing driller 1
 CTD1.Mtr             630:   Casing driller 1
 CTD1.Mtr            1300:   Casing driller 1
 CTL1.Mtr              30:   Casing logger 1
 CTL1.Mtr           250.5:   Casing logger 1
 CTL1.Mtr           630.5:   Casing logger 1
 CTL1.Mtr          1299.7:   Casing logger 1
 BS  .Inch          9 7/8:   Bit size
 BS  .Inch          9 7/8:   Bit size
 BS  .Inch             12:   Bit size
 BS  .Inch          8 5/8:   Bit size
 DFT .          bentonite:   Type fluid in hole
 DFT .          bentonite:   Type fluid in hole
 DFT .          bentonite:   Type fluid in hole
 DFT .          bentonite:   Type fluid in hole
 WSS .           flowline:   Source of sample
 WSS .           flowline:   Source of sample
 WSS .           flowline:   Source of sample
 WSS .           flowline:   Source of sample
 EMT .Degf  3.0 ohmm @ 87:   Rm Meas. temp.
 EMT .Degf 2.05 ohmm @ 80:   Rm Meas. temp.
 EMT .Degf 1.51 ohmm @ 85:   Rm Meas. temp.
 EMT .Degf 0.71 ohmm @ 85:   Rm Meas. temp.
 MFT .Degf 2.72 ohmm @ 87:   Rmf Meas. temp.
 MFT .Degf 1.91 ohmm @ 80:   Rmf Meas. temp.
 MFT .Degf 1.36 ohmm @ 85:   Rmf Meas. temp.
 MFT .Degf 0.46 ohmm @ 85:   Rmf Meas. temp.
 MCST.Degf 1.93 ohmm @ 87:   Rmc Meas. temp.
 MCST.Degf 2.12 ohmm @ 80:   Rmc Meas. temp.
 MCST.Degf 1.62 ohmm @ 85:   Rmc Meas. temp.
 MCST.Degf 1.11 ohmm @ 85:   Rmc Meas. temp.
 MFSS.                  p:   Source Rmf.
 MFSS.                  p:   Source Rmf.
 MFSS.                  p:   Source Rmf.
 MFSS.                  p:   Source Rmf.
 MCSS.                  p:   Source Rmc.
 MCSS.                  p:   Source Rmc.
 MCSS.                  p:   Source Rmc.
 MCSS.                  p:   Source Rmc.
 TCS .HRS             1.5:   Time Circ. stopped
 TCS .HRS               3:   Time Circ. stopped
 TCS .HRS               4:   Time Circ. stopped
 TCS .HRS               7:   Time Circ. stopped
 LUN .               4618:   Logging unit number
 LUN .               4618:   Logging unit number
 LUN .               4618:   Logging unit number
 LUL .                mjv:   Logging unit location
 LUL .                mjv:   Logging unit location
 LUL .                mjv:   Logging unit location
 LUL .                mjv:   Logging unit location
 WITN.            Sukarna:   Witnessed by
 RE1 .                ILD:   Res. Electrode #1
 RE1 .                ILD:   Res. Electrode #1
 RE1 .                ILD:   Res. Electrode #1
 RE1 .                ILD:   Res. Electrode #1
 RE2 .                 SN:   Res. Electrode #2
 RE2 .                 SN:   Res. Electrode #2
 RE2 .                 SN:   Res. Electrode #2
 RE2 .                 SN:   Res. Electrode #2
 TLAB.Hrs             1.5:   Time logger at bottom
 TLAB.Hrs               3:   Time logger at bottom
 TLAB.Hrs               4:   Time logger at bottom
 TLAB.Hrs               7:   Time logger at bottom
 DGBY.            Sukarna:   Digitized By
 DGBY.            Sukarna:   Digitized By
 DGBY.            Sukarna:   Digitized By
 DGBY.            Sukarna:   Digitized By
 DGBY.            Sukarna:   Digitized By
~A  DEPTH     CALI         GR         SP        ILD         SN       NPHI       RHOB       DRHO       PROX
# ...
 3000.2770     9.2137    59.8789    18.2358    17.2839     9.3227    18.5662     2.5770     0.1202     9.6619
 3000.4300     9.1442    55.8425    18.5625    12.9875     8.7116    19.1030     2.6032     0.1394    12.3979
 3000.5820     8.9849    53.2664    18.8868    10.7424     7.6558    18.7460     2.6143     0.0652     6.1045
 3000.7340     9.0669    51.2736    19.0700     9.4653     7.3990    18.0197     2.5931     0.0472     3.1759
 3000.8870     9.1207    48.6497    19.2831     8.8413     6.9838    17.2231     2.6455     0.0597     4.9393
 3001.0390     8.7873    50.0051    19.1233     8.1563     6.6525    16.2463     2.6380     0.0965     4.2216
 3001.1920     8.7813    53.3732    19.2273     7.6596     6.5329    16.0607     2.6398     0.0711     7.4760
 3001.3440     8.7293    51.7758    19.0296     7.4636     6.5629    16.1919     2.6213     0.0212     5.9294
 3001.4960     8.6300    49.2266    18.8318     7.7766     6.7856    16.2032     2.6047     0.0228     4.7017
 3001.6490     8.7382    47.5328    18.6322     8.6263     7.0154    15.8583     2.5936     0.0264    22.8286
 3001.8010     8.6115    45.9954    18.4711     9.4968     7.2883    15.4608     2.5816     0.0151    25.3767
 3001.9540     8.6219    44.6906    18.3922    10.6200     7.7924    14.9379     2.5942     0.0175    10.1887
 3002.1060     8.6749    42.7711    18.1945    12.0359     8.2407    14.3605     2.6068    -0.0025     8.3368
 3002.2580     8.6860    39.2333    18.1411    13.8872     8.7096    13.8040     2.5766     0.0097     6.1857
 3002.4110     8.6873    37.4109    17.9803    14.5837     9.4060    13.5136     2.5820     0.0295     6.3661
 3002.5630     8.6704    38.2563    17.9729    16.0833    10.0908    12.8301     2.5792     0.0213    14.7277
 3002.7160     8.6719    39.6674    17.8648    17.0854    10.5461    12.0171     2.5615    -0.0009    23.8618
 3002.8680     8.6744    39.3773    17.8038    19.1694    11.0659    11.9385     2.5500     0.0114    26.3024
 3003.0210     8.6759    36.0884    17.6432    20.6909    11.9818    12.3971     2.5585     0.0339    19.3549
 3003.1730     8.6781    37.0883    17.6359    22.1135    13.1117    12.6249     2.5840     0.0758    31.1535
 3003.3250     8.6851    39.7552    17.6286    22.8983    13.6130    11.8556     2.5921     0.0458    56.6443
 3003.4780     8.7224    41.7525    17.6204    24.0174    14.6123    10.8965     2.5776     0.0159    73.3556
 3003.6300     8.7505    39.8832    17.6269    24.9044    15.9221    10.2909     2.5946     0.0022    55.7758
 3003.7820     8.6311    41.3641    17.8101    26.0870    16.7341     9.6375     2.6110     0.0107    42.1215
 3003.9350     8.5229    43.5224    17.9933    26.9158    17.5854     9.1722     2.6397     0.0235    39.6465
 3004.0870     8.6212    44.9781    18.0535    28.3074    18.2453     8.7928     2.6352    -0.0033    59.6031
 3004.2400     8.7074    45.2357    18.2053    30.1606    18.8203     8.2634     2.6286     0.0029    68.8083
 3004.3920     8.6969    44.3888    18.3886    31.9590    19.3524     7.6457     2.6453     0.0256    65.7296
 3004.5440     8.6642    43.5847    18.5718    35.3679    19.7029     8.2425     2.6534     0.0178    37.7509
 3004.6970     8.6576    42.7264    18.6396    39.6521    19.9259     8.6176     2.6577     0.0010    43.5175
 3004.8490     8.6446    40.3299    18.6322    43.8113    20.2528     8.3171     2.6581    -0.0104    73.1304
 3005.0020     8.6433    38.6830    18.6249    47.0569    20.4992     7.9423     2.6680    -0.0075   120.2408
 3005.1540     8.6458    40.5720    18.6176    50.4652    21.0242     7.5773     2.6650     0.0132    99.1537
 3005.3060     8.6489    41.8426    18.6103    53.1464    21.5704     7.3394     2.6892     0.0401   115.7367
 3005.4590     8.6663    40.4583    18.7564    57.2243    21.8650     7.2643     2.7296     0.0238   105.2221
 3005.6110     8.6541    40.0823    18.7495    62.6444    22.0062     7.2467     2.7204     0.0033   233.7653
 3005.7640     8.6533    38.8133    18.8064    67.7241    22.0395     7.2090     2.6963    -0.0069   211.5872
 3005.9160     8.6553    37.4128    18.8887    72.7398    22.0165     7.2524     2.6780     0.0145   227.2626
 3006.0680     8.6379    35.2282    18.8807    75.6102    21.8387     7.4151     2.7117    -0.0040   219.6368
 3006.2210     8.6397    37.5772    18.8740    67.2686    21.8387     7.6924     2.6951     0.0070   152.2790
 3006.3730     8.6409    39.9373    18.8667    67.1439    21.8321     8.1826     2.6796     0.0044   448.4583
 3006.5260     8.6223    42.1113    18.8593    70.3055    21.6526     8.7979     2.6658     0.0124   752.6936
 3006.6780     8.5862    44.6674    18.8511    73.8439    21.4428     9.5757     2.6481    -0.0079   573.0414
 3006.8300     8.5907    46.8716    18.6779    79.3137    21.2042    10.1418     2.6499    -0.0031   369.3916
 3006.9830     8.6094    49.0320    18.5297    82.4894    20.6540    10.8296     2.6463     0.0125   356.0455
 3007.1350     8.6650    52.0270    18.3503    79.3783    20.2486    11.3499     2.6502     0.0201   533.5320
 3007.2880     8.7106    54.9277    18.0523    73.7573    19.8304    11.9482     2.6326    -0.0019   459.0176
 3007.4400     8.7438    55.3346    17.7218    67.3457    19.4250    12.9071     2.6107     0.0122   159.4885
 3007.5920     8.8268    52.8533    17.1851    57.7667    19.0492    13.5938     2.6124     0.0249   121.1559
 3007.7450     8.6587    46.9255    16.7966    54.2916    18.2575    13.8872     2.6023     0.0159   121.2471
 3007.8970     8.6051    45.3049    16.4087    50.4875    17.4158    14.0400     2.6112     0.0151    46.8528
 3008.0500     8.6599    47.5116    16.1706    47.8335    16.3955    14.2344     2.5952     0.0061    31.6395
 3008.2020     8.8377    49.7212    16.0095    42.0020    15.3336    14.6262     2.6011     0.0173    30.3200
 3008.3540     9.0747    49.3023    15.9306    36.9292    14.1075    15.4652     2.5797     0.0275    27.9329
 3008.5070     8.9992    45.9384    15.8410    31.2227    13.3325    16.8645     2.5563     0.0476    20.3594
 3008.6590     9.1594    44.7874    15.8333    24.1724    12.2581    18.6552     2.6070     0.1307    16.0650
 3008.8120     9.0007    46.1371    15.8264    22.8594    11.6845    19.3014     2.6214     0.1807    13.5059
 3008.9640     8.9093    48.3900    15.8190    21.1181    11.0696    20.2370     2.5472     0.1361    13.7275
 3009.1160     8.8707    49.7135    15.9124    16.3815    10.7739    19.0792     2.5249     0.0476    17.5153
 3009.2690     9.0180    47.7630    15.9582    12.8606    10.1055    16.8491     2.5439    -0.0014     5.2040
 3009.4210     9.0396    46.6937    15.9509    12.5891     9.7668    14.2763     2.5808    -0.0019     3.5355
 3009.5730     9.0783    47.1327    15.9436    13.0433     9.2418    11.4791     2.6270     0.0040     4.7903
 3009.7260     8.9930    47.2038    15.9362    13.7389     9.2639     9.8058     2.6203     0.0097     9.5187
 3009.8780     8.7077    45.5802    16.0819    14.6876     9.4125     8.6143     2.6002     0.0078    12.1444
 3010.0310     8.7204    42.8378    16.6388    15.7021     9.6715     8.4539     2.6089    -0.0008    18.9619
 3010.1830     8.7886    40.9132    16.5621    17.2926    10.0234     8.6015     2.6246    -0.0068    31.9647
 3010.3360     8.8194    39.3978    16.5630    20.3871    10.5276     9.0079     2.6039    -0.0008    36.7309
 3010.4880     8.7974    39.6713    16.7184    23.3143    11.3076     9.4896     2.5872     0.0083    40.2977
 3010.6400     8.7253    41.2334    16.6520    29.3134    11.8359     9.9581     2.6091     0.0163    52.7419
 3010.7930     8.6618    42.8608    16.5656    39.7916    12.5095    10.4832     2.6213     0.0373    94.8033
 3010.9450     8.5524    44.7799    16.7212    42.1903    12.9495    11.1001     2.5934     0.0167    51.1428
 3011.0980     8.5433    46.4224    16.7220    37.6433    13.3995    11.6946     2.5648     0.0031    22.5740
 3011.2500     8.6032    47.0558    16.7806    33.7702    13.5494    11.8346     2.5490    -0.0056    14.8231
