~Version Information
VERS  .          2.0                              :CWLS Log Ascii Standard - Version 2.0
WRAP  .          NO                               :One line per depth step
~Well Information Block
#MNEM.UNIT       Data Type                        Information
#---------       ---------                        -------------------------------
STRT  .M         1250.29000                       :START DEPTH
STOP  .M         2514.44800                       :STOP DEPTH
STEP  .M          0.15240                         :INCREMENT
NULL  .          -999.25                          :NULL DATA VALUE
COMP  .          PERTAMINA                        :COMPANY
WELL  .          CMS-008A                         :WELL
WBN   .          CMS-008A                         :WELLBORE
FLD   .          CEMARA SELATAN                   :FIELD
LOC   .                                           :LOCATION
PROV  .          INDONESIA                        :PROVINCE
STAT  .          INDONESIA                        :STATE
CNTY  .                                           :COUNTY
CTRY  .                                           :COUNTRY
DATE  .                                           :DATE
UWI   .          CEMARASELATAN-CMS-008A           :UNIQUE WELL UWI
LIC   .                                           :LICENSE NUMBER
API   .                                           :API NUMBER
SRVC  .                                           :SERVICE COMPANY
~Parameter Information Block
#MNEM.UNIT       Value                            Description
#---------       ---------                        -------------
LONG  .DEG       108.170925                       :Well Surface Location
LATI  .DEG       -6.422847                        :Well Surface Location
XWELL .M         187032.710000                    :X-coordinate of Well Head
YWELL .M         9289187.741000                   :Y-coordinate of Well Head
~Curve Information Block
#MNEM.UNIT       API Code            Curve    Description
#--------        --------------      -----    -------------------
DEPT  .M                             :0       Index
KGAS  .MD                            :1       Permeability to Gas           
KINT  .MD                            :2       Intrinsic Permeability        
KOIL  .MD                            :3       Permeability to Oil           
KWTR  .MD                            :4       Permeability to Water         
PHIT  .V/V                           :5       Total Porosity_ includes all forms of porosity, including that occupied by bound fluids, and is independent of rock and fluid materials and of environmental effects
PHTT  .V/V                           :6       Theoretical PHIT Value        
PIGE  .V/V                           :7       Effective Porosity Less Irreducible Water
PIGN  .V/V                           :8       Effective Porosity, VISO, VPAR, and Bound Water Removed
RHGA  .G/C3                          :9       Apparent Grain Density        
SUWI  .V/V                           :10      Non-Clay Water Intergranular Water Saturation for Undisturbed Zone
VCLC  .V/V                           :11      Volume of Calcite Relative to Total Volume
VCOA  .V/V                           :12      Volume of Coal Relative to Total Volume
VDOL  .V/V                           :13      Volume of Dolomite Relative to Total Volume
VFEL  .V/V                           :14      Volume of Feldspar Relative to Total Volume
VILL  .V/V                           :15      Volume of Illite (dry) Relative to Total Volume
VMHY  .V/V                           :16      Volume of Moved Hydrocarbon Relative to Total Volume
VORT  .V/V                           :17      Volume of Orthoclase Relative to Total Volume
VQUA  .V/V                           :18      Volume of Quartz Relative to Total Volume
VUGA  .V/V                           :19      Volume of Gas in Undisturbed Zone
VUOI  .V/V                           :20      Volume of Oil in Undisturbed Zone
VUWA  .V/V                           :21      Volume of Water in Undisturbed Zone
VXBW  .V/V                           :22      Volume of Bound Water in Flushed Zone
VXGA  .V/V                           :23      Volume of Gas in Flushed Zone 
VXOI  .V/V                           :24      Volume of Oil in Flushed Zone 
VXWA  .V/V                           :25      Volume of Water in Flushed Zone
~Ascii Data Section
# ...
   2168.95720       0.00100       0.01000       0.00100       0.01000       0.03464       0.04453       0.02557       0.02557       2.72505       1.00000       0.87583       0.00000       0.00000       0.00000       0.08953      -0.01577       0.00000       0.00000       0.00000       0.00000       0.02557       0.00907       0.01577       0.00000       0.00980 
   2169.10960       0.00100       0.01000       0.00100       0.01000       0.03571       0.04506       0.02720       0.02720       2.72413       1.00000       0.88031       0.00000       0.00000       0.00000       0.08398      -0.01434       0.00000       0.00000       0.00000       0.00000       0.02720       0.00851       0.01434       0.00000       0.01287 
   2169.26200       0.00100       0.01000       0.00100       0.01000       0.04282       0.05278       0.03406       0.03406       2.72466       1.00000       0.87068       0.00000       0.00000       0.00000       0.08650      -0.01252       0.00000       0.00000       0.00000       0.00000       0.03406       0.00876       0.01252       0.00000       0.02153 
   2169.41440       0.00100       0.01000       0.00100       0.01000       0.04482       0.05454       0.03626       0.03626       2.72436       1.00000       0.87064       0.00000       0.00000       0.00000       0.08454      -0.01238       0.00000       0.00000       0.00000       0.00000       0.03626       0.00856       0.01238       0.00000       0.02387 
   2169.56680       0.00100       0.01000       0.00100       0.01000       0.04402       0.05362       0.03543       0.03543       2.72440       1.00000       0.87113       0.00000       0.00000       0.00000       0.08485      -0.01345       0.00000       0.00000       0.00000       0.00000       0.03543       0.00860       0.01345       0.00000       0.02197 
   2169.71920       0.00100       0.01000       0.00100       0.01000       0.04584       0.05580       0.03685       0.03685       2.72510       1.00000       0.86537       0.00000       0.00000       0.00000       0.08879      -0.01468       0.00000       0.00000       0.00000       0.00000       0.03685       0.00900       0.01468       0.00000       0.02217 
   2169.87160       0.00100       0.01000       0.00100       0.01000       0.04954       0.06003       0.04002       0.04002       2.72604       1.00000       0.85651       0.00000       0.00000       0.00000       0.09395      -0.01595       0.00000       0.00000       0.00000       0.00000       0.04002       0.00952       0.01581       0.00014       0.02407 
   2170.02400       0.00100       0.01000       0.00100       0.01000       0.05178       0.06439       0.04103       0.04103       2.72815       1.00000       0.84215       0.00000       0.00000       0.00000       0.10607      -0.01272       0.00000       0.00000       0.00000       0.00000       0.04103       0.01075       0.01269       0.00002       0.02832 
   2170.17640       0.00100       0.01000       0.00100       0.01000       0.05178       0.06663       0.03973       0.03973       2.73035       1.00000       0.82926       0.00000       0.00000       0.00000       0.11896      -0.00958       0.00000       0.00000       0.00000       0.00000       0.03973       0.01205       0.00958       0.00000       0.03015 
   2170.32880       0.00100       0.01000       0.00100       0.01000       0.05809       0.07129       0.04710       0.04710       2.72868       1.00000       0.83345       0.00000       0.00000       0.00000       0.10846      -0.01098       0.00000       0.00000       0.00000       0.00000       0.04710       0.01099       0.01098       0.00000       0.03613 
   2170.48120       0.00100       0.01000       0.00100       0.01000       0.06682       0.07700       0.05785       0.05785       2.72539       1.00000       0.84462       0.00000       0.00000       0.00000       0.08856      -0.01313       0.00000       0.00000       0.00000       0.00000       0.05785       0.00897       0.01300       0.00013       0.04472 
   2170.63360       0.00100       0.01000       0.00100       0.01000       0.07318       0.08207       0.06538       0.06538       2.72348       1.00000       0.84982       0.00000       0.00000       0.00000       0.07700      -0.01104       0.00000       0.00000       0.00000       0.00000       0.06538       0.00780       0.01101       0.00002       0.05435 
   2170.78600       0.00100       0.01197       0.00100       0.01197       0.08203       0.09054       0.07456       0.07456       2.72302       1.00000       0.84429       0.00000       0.00000       0.00000       0.07369      -0.01065       0.00000       0.00000       0.00000       0.00000       0.07456       0.00747       0.01047       0.00018       0.06391 
   2170.93840       0.00100       0.01190       0.00100       0.01190       0.08514       0.09538       0.07690       0.07690       2.72441       1.00000       0.83359       0.00000       0.00000       0.00000       0.08127      -0.00589       0.00000       0.00000       0.00000       0.00000       0.07690       0.00823       0.00586       0.00003       0.07101 
   2171.09080       0.00100       0.02132       0.00100       0.02132       0.09559       0.10637       0.08729       0.08729       2.72734       1.00000       0.80506       0.00000       0.01741       0.00000       0.08194      -0.00296       0.00000       0.00000       0.00000       0.00000       0.08729       0.00830       0.00296       0.00000       0.08433 
   2171.24320       0.00100       0.03600       0.00100       0.03600       0.10332       0.11320       0.09574       0.09574       2.72896       1.00000       0.78637       0.00000       0.03551       0.00000       0.07481      -0.00239       0.00000       0.00000       0.00000       0.00000       0.09574       0.00758       0.00239       0.00000       0.09334 
   2171.39560       0.00100       0.03040       0.00100       0.03040       0.10634       0.11702       0.09817       0.09817       2.72545       1.00000       0.80769       0.00000       0.00538       0.00000       0.08058      -0.00231       0.00000       0.00000       0.00000       0.00000       0.09817       0.00816       0.00231       0.00000       0.09586 
   2171.54800       0.00100       0.02555       0.00100       0.02555       0.10777       0.12017       0.09826       0.09826       2.72706       1.00000       0.79838       0.00000       0.00001       0.00000       0.09384      -0.00296       0.00000       0.00000       0.00000       0.00000       0.09826       0.00951       0.00296       0.00000       0.09530 
   2171.70040       0.00100       0.02476       0.00100       0.02476       0.11122       0.12474       0.10061       0.10061       2.72912       1.00000       0.78401       0.00000       0.00000       0.00000       0.10477      -0.00557       0.00000       0.00000       0.00000       0.00000       0.10061       0.01061       0.00549       0.00008       0.09504 
   2171.85280       0.00100       0.02453       0.00100       0.02453       0.11122       0.12484       0.10053       0.10053       2.72924       1.00000       0.78336       0.00000       0.00000       0.00000       0.10542      -0.00551       0.00000       0.00000       0.00000       0.00000       0.10053       0.01068       0.00539       0.00013       0.09502 
   2172.00520       0.00100       0.02640       0.00100       0.02640       0.10867       0.12053       0.09916       0.09916       2.72707       1.00000       0.79753       0.00000       0.00000       0.00000       0.09380      -0.00677       0.00000       0.00000       0.00000       0.00000       0.09916       0.00950       0.00652       0.00025       0.09239 
   2172.15760       0.00100       0.02302       0.00100       0.02302       0.09642       0.10451       0.08933       0.08933       2.72258       1.00000       0.83355       0.00000       0.00000       0.00000       0.07003      -0.01028       0.00000       0.00000       0.00000       0.00000       0.08933       0.00709       0.00998       0.00031       0.07904 
