~VERSION INFORMATION
 VERS.               1.20:   CWLS LOG ASCII STANDARD - VERSION 1.20
 WRAP.                 NO:   ONE LINE PER DEPTH STEP
~WELL INFORMATION
#MNEM.UNIT      DATA TYPE    INFORMATION
#----------   ------------   ------------------------------
 STRT.M          500.1524:   START DEPTH
 STOP.M         2803.2212:   STOP DEPTH
 STEP.M            0.1524:   STEP LENGTH
 NULL.          -999.2500:   NO VALUE
 COMP.            COMPANY:   PERTAMINA
 WELL.               WELL:   CMS-005
 WBN .            CMS-005:   WELLBORE
 FLD .              FIELD:   CEMARA SELATAN
 LOC .           LOCATION:   X = - 15283.31  Y = + 8483.38
 PROV.           PROVINCE:   JAWA BARAT
 STAT.              STATE:   INDONESIA
 SRVC.    SERVICE COMPANY:   SCHLUMBERGER
 DATE.            LOGDATE:   01/24/78
 APIN.         API NUMBER:   -
 UWI .  CEMARASELATAN-005:   UNIQUE WELL ID 
~CURVE INFORMATION
#MNEM.UNIT       API CODE    CURVE DESCRIPTION
#----------   ------------   ------------------------------
 DEPT.M                  :
 CALI.inch   60 280 00 00:   Caliper
 GR  .GAPI   42 310 00 00:   Gamma Ray
 SP  .mV     60 010 01 00:   Spontaneous Potential
 ILD .ohmm   05 070 46 00:   Induction Laterolog, Deep
 SN  .ohmm   05 040 16 00:   Short Normal 16"
 PROX.ohmm   21 270 30 00:   Proximity Log
 NPHI.%      42 890 03 00:   Neu. Porosity, Ss [%]
 RHOB.kg/cm3 42 350 01 00:   Bulk Density
 CBL .mV     81 524 00 00:   Cement Bond Log
 DRHO.kg/m3  42 356 01 00:   Density Correction
~PARAMETER INFORMATION
#MNEM.UNIT          VALUE    DESCRIPTION
#----------   ------------   ------------------------------
 EKB .M            0.0000:   Kelly bushing
 EGL .M            4.7500:   Ground level
 EDF .M           10.0000:   Drilling floor
 EPD .M           10.0000:   Permanent datum
 TD  .M         2793.0000:   Total depth
 DF  .      CONGLONGMERAT:   Deepest formation
 PROJ.       SCHLUMBERGER:   Project
 DATE.           01/24/78:   Date logged
 DD  .Mtr            2793:   Depth driller
 DL  .Mtr          2762.3:   Depth logger
 BLI .Mtr            2762:   Bottom log interval
 TLI .Mtr             500:   Top log interval
 CSS .Inch             7":   Casing size
 CTD1.Mtr     7" @ 2581,7:   Casing driller 1
 CTL1.Mtr          2581,7:   Casing logger 1
 BS  .Inch          6 1/8:   Bit size
 DFT .           Spersene:   Type fluid in hole
 DFD .G/c3           1.18:   Density
 DFV .Sec              58:   Viscosity
 COL .Inch           6-16:   Column depth/dia.
 DFPH.                 10:   pH
 DFL .Ml             2.75:   Fluid loss
 WSS .           Flowline:   Source of sample
 RM  .Ohmm           1.07:   Rm
 EMT .Degf 1.07 ohmm @ 83:   Rm Meas. temp.
 RMF .Ohmm           0.57:   Rmf
 MFT .Degf 0.57 ohmm @ 83:   Rmf Meas. temp.
 RMC .Ohmm           1.78:   Rmc
 MCST.Degf 1.78 ohmm @ 83:   Rmc Meas. temp.
 MFSS.              Press:   Source Rmf.
 MCSS.              Press:   Source Rmc.
 RMB .Degf 0.4 ohmm @ 232:   Rm. at BHT
 BHT .Degf            232:   BHT.
 TCS .Hrs               7:   Time Circ. stopped
 MRT .Degf            232:   Maximum recorded temp.
 LUN .               4618:   Logging unit number
 LUL .                WJV:   Logging unit location
 ENGI.           M. Akbar:   Recorded By
 WITN.           M.Dasuki:   Witnessed by
 RE1 .       ILD  (6FF40):   Res. Electrode #1
 RE2 .      SN   (A-16"M):   Res. Electrode #2
 DATE.           02/16/78:   Date logged
 DATE.           03/13/78:   Date logged
 DD  .Mtr            1260:   Depth driller
 DD  .Mtr            2610:   Depth driller
 DL  .Mtr            1260:   Depth logger
 DL  .Mtr            2610:   Depth logger
 BLI .Mtr            1260:   Bottom log interval
 BLI .Mtr          2605.8:   Bottom log interval
 TLI .Mtr             500:   Top log interval
 TLI .Mtr          1254.5:   Top log interval
 CSS .Inch         13 3/8:   Casing size
 CSS .Inch          9 5/8:   Casing size
 CTD1.Mtr             500:   Casing driller 1
 CTD1.Mtr            1254:   Casing driller 1
 CTL1.Mtr             500:   Casing logger 1
 CTL1.Mtr          1254.5:   Casing logger 1
 BS  .Inch         12 1/4:   Bit size
 BS  .Inch          8 5/8:   Bit size
 DFT .           spersene:   Type fluid in hole
 DFT .           spersene:   Type fluid in hole
 DFD .G/c3           1.12:   Density
 DFD .G/c3           1.18:   Density
 DFV .Sec              47:   Viscosity
 DFV .Sec              58:   Viscosity
 DFPH.                  9:   pH
 DFPH.                 10:   pH
 DFL .Ml              5.5:   Fluid loss
 DFL .Ml             2.75:   Fluid loss
 WSS .           flowline:   Source of sample
 WSS .           flowline:   Source of sample
 RM  .Ohmm           1.19:   Rm
 RM  .Ohmm           1.07:   Rm
 EMT .Degf             80:   Rm Meas. temp.
 EMT .Degf             83:   Rm Meas. temp.
 RMF .Ohmm            0.8:   Rmf
 RMF .Ohmm           0.57:   Rmf
 MFT .Degf             80:   Rmf Meas. temp.
 MFT .Degf             83:   Rmf Meas. temp.
 RMC .Ohmm           1.52:   Rmc
 RMC .Ohmm           1.78:   Rmc
 MCST.Degf             80:   Rmc Meas. temp.
 MCST.Degf             83:   Rmc Meas. temp.
 MFSS.                  p:   Source Rmf.
 MFSS.                  p:   Source Rmf.
 MCSS.                  p:   Source Rmc.
 MCSS.                  p:   Source Rmc.
 RMB .Degf 0.63 ohmm @ 150:   Rm. at BHT
 RMB .Degf 0.4 ohmm @ 232:   Rm. at BHT
 BHT .Degf            150:   BHT.
 BHT .Degf            232:   BHT.
 TCS .Hrs               3:   Time Circ. stopped
 TCS .Hrs               7:   Time Circ. stopped
 MRT .Degf            150:   Maximum recorded temp.
 MRT .Degf            232:   Maximum recorded temp.
 LUN .               4618:   Logging unit number
 LUN .               4618:   Logging unit number
 LUL .                wjv:   Logging unit location
 LUL .                wjv:   Logging unit location
 ENGI.           M. Akbar:   Recorded By
 ENGI.           M. Akbar:   Recorded By
 WITN.            Y. Rais:   Witnessed by
 WITN.          M. Dasuki:   Witnessed by
 RE1 .                ILD:   Res. Electrode #1
 RE1 .                ILD:   Res. Electrode #1
 RE2 .                 SN:   Res. Electrode #2
 RE2 .                 SN:   Res. Electrode #2
 TLAB.hh:mm             3:   Time Logger At Bottom
 TLAB.hh:mm             7:   Time Logger At Bottom
 TLAB.hh:mm             7:   Time Logger At Bottom
 DGBY.            Sukarna:   Digitized By
 DGBY.            Sukarna:   Digitized By
 DGBY.            Sukarna:   Digitized By
~T 1 Tops
D1(1453-1455)                    1453.0
~OTHER INFORMATION
# Bridleless tool, Log was correlated with cs. run no.3 4M too deep compared with run.2
~A  DEPTH     CALI         GR         SP        ILD         SN       PROX       NPHI       RHOB        CBL       DRHO
# ...
 2481.0480     9.1047    29.7594    15.8871     5.1619     5.7143     4.0702     4.5436     2.6360     1.6341    -0.1460
 2481.2000     9.1365    31.1734    16.0449     4.8759     5.2844     3.8450     5.6115     2.6369     1.5364    -0.1550
 2481.3520     9.1373    32.8160    16.3576     4.5398     4.9568     7.4421     6.5862     2.6400     1.5737    -0.1463
 2481.5050     9.1381    33.7624    16.5149     4.3197     4.7173     4.0467     6.5836     2.6565     1.8797    -0.1390
 2481.6570     9.1234    33.5475    16.5178     4.1095     4.5857     4.3813     6.6287     2.6417     2.0398    -0.1541
 2481.8100     9.1398    31.7124    16.5206     3.9100     4.4588     4.6748     7.0909     2.6339     2.0790    -0.1605
 2481.9620     9.1870    30.5706    16.5235     3.5377     4.3348     1.9357     7.6471     2.6503     1.7769    -0.1487
 2482.1150     9.1879    29.4261    16.2168     3.2474     4.2144     2.0955     8.0634     2.6363     1.3593    -0.1397
 2482.2670     9.2042    29.2138    16.3744     3.2021     3.9818     3.0662     8.6193     2.6301     1.4354    -0.1312
 2482.4190     9.2050    29.2384    16.5326     3.3211     3.7890     2.6574     9.4562     2.6106     1.9038    -0.1408
 2482.5720     9.2213    29.7219    16.8440     3.5435     3.7102     4.4243    10.5220     2.6076     1.8401    -0.1663
 2482.7240     9.2840    30.2062    17.1565     3.8914     3.7383     2.3715    11.1245     2.5943     1.6010    -0.1467
 2482.8760     9.2690    30.9233    17.3141     4.2755     4.2241     2.4769    10.5141     2.5897     1.2973    -0.1373
 2483.0290     9.1773    31.1747    17.3170     5.1513     4.7024     2.1777     9.2132     2.6108     1.3123    -0.1331
 2483.1810     9.0852    31.1905    17.4747     6.6274     5.1633    18.4806     8.1861     2.6093     1.4414    -0.1327
 2483.3330     9.1639    30.2718    17.4781     8.4070     6.0058    21.5319     7.0657     2.6343     1.7319    -0.1357
 2483.4860     9.2571    27.7473    17.6352    11.1114     7.5441    33.2990     5.9979     2.6304     2.2428    -0.1466
 2483.6380     9.3197    25.6726    17.4822    14.5028     9.4238    58.7133     4.4545     2.6227     3.1381    -0.1923
 2483.7910     9.3360    24.0718    17.3308    17.2245    11.1848    45.0475     2.3192     2.6430     5.8654    -0.1743
 2483.9430     9.3060    22.6975    17.3342    19.1896    15.4338    11.6154     1.2467     2.6579     6.0351    -0.1690
 2484.0960     9.2912    20.8608    17.3371    20.6241    17.3089    46.4001     0.4079     2.6415     7.4452    -0.1474
 2484.2480     9.3231    21.1129    17.3399    21.8509    18.3344    46.7513     0.2662     2.6689     7.8356    -0.1187
 2484.4000     9.4170    21.3649    17.3428    22.6579    19.2838    27.7063     0.3106     2.6892     6.7354    -0.1361
 2484.5530     9.5102    20.9204    17.1903    20.9471    19.7080    51.3726     0.3553     2.6940     6.1020    -0.1461
 2484.7050     9.5111    19.0811    17.1937    17.7665    19.4358    59.3314     0.2132     2.6628     7.7484    -0.1388
 2484.8580     9.5428    17.0127    17.1966    15.3998    19.0315    67.5260     0.3971     2.6831     5.4529    -0.1445
 2485.0100     9.5590    16.7964    17.1989    13.6373    18.3708    29.1894     0.3950     2.6816     5.1565    -0.1405
 2485.1620     9.5134    17.9813    17.2018    11.8151    16.8660    20.3782     0.4397     2.6879     3.8904    -0.1389
 2485.3150     9.5143    20.0869    17.2046    10.0250    15.8237     9.1401     0.6697     2.6770     3.0084    -0.1550
 2485.4670     9.5306    22.1983    17.2075     8.6257    15.1610     7.2681     1.5528     2.6466     2.6058    -0.1681
 2485.6200     9.5158    23.8418    17.0550     7.7497    11.8984    15.3338     2.6193     2.6505     2.6097    -0.1474
 2485.7720     9.4703    24.5584    17.0584     6.8625    10.3179    20.5824     3.4081     2.6662     2.6434    -0.1360
 2485.9240     9.4868    25.2767    17.0613     5.6950     9.1396     4.7322     4.3839     2.6842     2.8392    -0.1217
 2486.0770     9.5185    26.2234    17.0642     4.6292     8.2746     4.8722     5.0315     2.6764     3.0869    -0.0884
 2486.2290     9.6120    27.1732    17.2219     3.9829     7.5426    11.5292     5.5419     2.7124     3.4986    -0.0842
 2486.3820     9.5974    28.1207    17.2247     3.6043     6.7313     4.1652     6.3295     2.7288     3.9150    -0.1160
 2486.5340     9.5519    30.6952    17.2277     3.1917     6.0492     3.6358     7.8624     2.7054     4.9450    -0.1542
 2486.6860     9.6147    31.8795    17.3853     3.0147     5.2449     6.6927     8.3259     2.6577     6.0448    -0.1509
 2486.8390     9.6461    33.5208    17.2328     3.1715     4.7826     2.3160     8.4626     2.6274     6.2804    -0.1271
 2486.9910     9.4302    34.9338    17.2362     3.3849     4.4545     1.3824     9.2984     2.6188     5.9129    -0.1286
 2487.1440     9.3231    37.5039    17.2391     3.7703     4.5205    13.9314     9.8071     2.5854     6.0586    -0.0971
 2487.2960     9.4169    39.3816    17.0869     4.5458     4.7547    17.1599    11.1542     2.6221     5.7407    -0.0691
 2487.4480     9.5878    39.6295    16.7794     5.6416     5.4916    18.2761    11.7102     2.6103     5.9875    -0.1151
 2487.6010     9.6349    35.9381    16.6273     6.9448     7.3572    53.7359     9.8471     2.5800     6.7648    -0.1639
 2487.7530     9.6045    31.7702    16.1653     8.0203     8.4927    28.5565     6.0260     2.6153     5.2818    -0.1610
 2487.9060     9.5284    27.1543    15.8591     8.5575     9.5223     5.6555     3.1456     2.6824     5.2290    -0.1440
 2488.0580     9.4981    26.2414    15.0885     8.4390     9.7325     5.9494     2.2132     2.6910     5.4624    -0.1718
 2488.2100     9.5613    28.1255    14.0034     7.8557     9.4605     5.2307     2.6336     2.6528     5.4780    -0.1550
 2488.3630     9.6700    29.0715    12.4627     7.0592     8.9398     5.3855     4.0228     2.6653     5.6376    -0.1545
 2488.5150     9.7326    27.2301    11.0708     6.6195     8.1494     4.1617     6.6278     2.6092     6.0252    -0.1517
 2488.6670     9.6868    25.3925    10.3012     6.3877     7.8094     4.8418     7.8831     2.6061     6.1088    -0.1494
 2488.8200     9.6416    24.4831    10.6137     5.9927     7.5400     5.1652     8.9001     2.6100     5.3481    -0.1565
 2488.9720     9.5958    24.5060    11.0829     5.5380     7.2773     6.5650     9.5494     2.5968     4.6377    -0.1256
 2489.1250     9.5657    25.4516    11.7030     4.8363     6.9756    11.8823     9.6404     2.6257     4.1989    -0.1146
 2489.2770     9.5667    26.6336    12.3256     3.3076     6.4504     7.2990     9.5448     2.6289     3.7930    -0.1380
 2489.4300     9.5057    28.2778    13.1020     2.4839     5.7153    12.2395     9.5896     2.6234     3.3959    -0.1549
 2489.5820     9.4138    31.5484    14.1884     2.0328     4.5489     5.8912     9.7730     2.6157     2.9427    -0.1595
 2489.7340     9.3373    35.5499    15.4318     1.8119     3.0482     4.5404    10.4296     2.6228     2.6034    -0.1400
 2489.8870     9.3226    45.7522    16.0512     1.5268     2.5159     0.9265    12.6525     2.6103     2.3208    -0.0998
 2490.0390     9.2772    57.1613    16.3639     1.2950     2.1200     0.8384    19.0275     2.5815     2.2650    -0.0578
 2490.1920     9.2317    69.9405    16.6761     1.1718     1.8781     0.9012    24.6951     2.5378     2.7709    -0.0362
 2490.3440     9.2014    73.6756    16.8338     1.1555     1.7620     0.9967    33.2513     2.5043     3.2715    -0.0616
 2490.4960     9.1868    74.8564    16.8366     1.2337     1.7131     0.8954    39.2501     2.4169     3.1493    -0.1060
 2490.6490     9.1878    73.9475    16.8395     1.4866     1.7260     0.8520    39.8519     2.4271     2.6688    -0.1297
 2490.8010     9.2042    70.7040    16.6868     1.7671     1.8156     0.9131    38.6381     2.4302     2.7983    -0.1491
 2490.9540     9.2668    66.5529    16.5356     2.2393     2.0359     4.3141    36.9634     2.4256     3.0940    -0.1471
 2491.1060     9.3448    60.9988    16.2289     2.9425     2.3331    10.7337    32.7275     2.4545     3.0484    -0.1245
