~VERSION INFORMATION
 VERS.               1.20:   CWLS LOG ASCII STANDARD - VERSION 1.20
 WRAP.                 NO:   ONE LINE PER DEPTH STEP
~WELL INFORMATION
#MNEM.UNIT      DATA TYPE    INFORMATION
#----------   ------------   ------------------------------
 STRT.M          500.1524:   START DEPTH
 STOP.M         2803.2212:   STOP DEPTH
 STEP.M            0.1524:   STEP LENGTH
 NULL.          -999.2500:   NO VALUE
 COMP.            COMPANY:   PERTAMINA
 WELL.               WELL:   CMS-005
 WBN .            CMS-005:   WELLBORE
 FLD .              FIELD:   CEMARA SELATAN
 LOC .           LOCATION:   X = - 15283.31  Y = + 8483.38
 PROV.           PROVINCE:   JAWA BARAT
 STAT.              STATE:   INDONESIA
 SRVC.    SERVICE COMPANY:   SCHLUMBERGER
 DATE.            LOGDATE:   01/24/78
 APIN.         API NUMBER:   -
 UWI .  CEMARASELATAN-005:   UNIQUE WELL ID 
~CURVE INFORMATION
#MNEM.UNIT       API CODE    CURVE DESCRIPTION
#----------   ------------   ------------------------------
 DEPT.M                  :
 CALI.inch   60 280 00 00:   Caliper
 GR  .GAPI   42 310 00 00:   Gamma Ray
 SP  .mV     60 010 01 00:   Spontaneous Potential
 ILD .ohmm   05 070 46 00:   Induction Laterolog, Deep
 SN  .ohmm   05 040 16 00:   Short Normal 16"
 PROX.ohmm   21 270 30 00:   Proximity Log
 NPHI.%      42 890 03 00:   Neu. Porosity, Ss [%]
 RHOB.kg/cm3 42 350 01 00:   Bulk Density
 CBL .mV     81 524 00 00:   Cement Bond Log
 DRHO.kg/m3  42 356 01 00:   Density Correction
~PARAMETER INFORMATION
#MNEM.UNIT          VALUE    DESCRIPTION
#----------   ------------   ------------------------------
 EKB .M            0.0000:   Kelly bushing
 EGL .M            4.7500:   Ground level
 EDF .M           10.0000:   Drilling floor
 EPD .M           10.0000:   Permanent datum
 TD  .M         2793.0000:   Total depth
 DF  .      CONGLONGMERAT:   Deepest formation
 PROJ.       SCHLUMBERGER:   Project
 DATE.           01/24/78:   Date logged
 DD  .Mtr            2793:   Depth driller
 DL  .Mtr          2762.3:   Depth logger
 BLI .Mtr            2762:   Bottom log interval
 TLI .Mtr             500:   Top log interval
 CSS .Inch             7":   Casing size
 CTD1.Mtr     7" @ 2581,7:   Casing driller 1
 CTL1.Mtr          2581,7:   Casing logger 1
 BS  .Inch          6 1/8:   Bit size
 DFT .           Spersene:   Type fluid in hole
 DFD .G/c3           1.18:   Density
 DFV .Sec              58:   Viscosity
 COL .Inch           6-16:   Column depth/dia.
 DFPH.                 10:   pH
 DFL .Ml             2.75:   Fluid loss
 WSS .           Flowline:   Source of sample
 RM  .Ohmm           1.07:   Rm
 EMT .Degf 1.07 ohmm @ 83:   Rm Meas. temp.
 RMF .Ohmm           0.57:   Rmf
 MFT .Degf 0.57 ohmm @ 83:   Rmf Meas. temp.
 RMC .Ohmm           1.78:   Rmc
 MCST.Degf 1.78 ohmm @ 83:   Rmc Meas. temp.
 MFSS.              Press:   Source Rmf.
 MCSS.              Press:   Source Rmc.
 RMB .Degf 0.4 ohmm @ 232:   Rm. at BHT
 BHT .Degf            232:   BHT.
 TCS .Hrs               7:   Time Circ. stopped
 MRT .Degf            232:   Maximum recorded temp.
 LUN .               4618:   Logging unit number
 LUL .                WJV:   Logging unit location
 ENGI.           M. Akbar:   Recorded By
 WITN.           M.Dasuki:   Witnessed by
 RE1 .       ILD  (6FF40):   Res. Electrode #1
 RE2 .      SN   (A-16"M):   Res. Electrode #2
 DATE.           02/16/78:   Date logged
 DATE.           03/13/78:   Date logged
 DD  .Mtr            1260:   Depth driller
 DD  .Mtr            2610:   Depth driller
 DL  .Mtr            1260:   Depth logger
 DL  .Mtr            2610:   Depth logger
 BLI .Mtr            1260:   Bottom log interval
 BLI .Mtr          2605.8:   Bottom log interval
 TLI .Mtr             500:   Top log interval
 TLI .Mtr          1254.5:   Top log interval
 CSS .Inch         13 3/8:   Casing size
 CSS .Inch          9 5/8:   Casing size
 CTD1.Mtr             500:   Casing driller 1
 CTD1.Mtr            1254:   Casing driller 1
 CTL1.Mtr             500:   Casing logger 1
 CTL1.Mtr          1254.5:   Casing logger 1
 BS  .Inch         12 1/4:   Bit size
 BS  .Inch          8 5/8:   Bit size
 DFT .           spersene:   Type fluid in hole
 DFT .           spersene:   Type fluid in hole
 DFD .G/c3           1.12:   Density
 DFD .G/c3           1.18:   Density
 DFV .Sec              47:   Viscosity
 DFV .Sec              58:   Viscosity
 DFPH.                  9:   pH
 DFPH.                 10:   pH
 DFL .Ml              5.5:   Fluid loss
 DFL .Ml             2.75:   Fluid loss
 WSS .           flowline:   Source of sample
 WSS .           flowline:   Source of sample
 RM  .Ohmm           1.19:   Rm
 RM  .Ohmm           1.07:   Rm
 EMT .Degf             80:   Rm Meas. temp.
 EMT .Degf             83:   Rm Meas. temp.
 RMF .Ohmm            0.8:   Rmf
 RMF .Ohmm           0.57:   Rmf
 MFT .Degf             80:   Rmf Meas. temp.
 MFT .Degf             83:   Rmf Meas. temp.
 RMC .Ohmm           1.52:   Rmc
 RMC .Ohmm           1.78:   Rmc
 MCST.Degf             80:   Rmc Meas. temp.
 MCST.Degf             83:   Rmc Meas. temp.
 MFSS.                  p:   Source Rmf.
 MFSS.                  p:   Source Rmf.
 MCSS.                  p:   Source Rmc.
 MCSS.                  p:   Source Rmc.
 RMB .Degf 0.63 ohmm @ 150:   Rm. at BHT
 RMB .Degf 0.4 ohmm @ 232:   Rm. at BHT
 BHT .Degf            150:   BHT.
 BHT .Degf            232:   BHT.
 TCS .Hrs               3:   Time Circ. stopped
 TCS .Hrs               7:   Time Circ. stopped
 MRT .Degf            150:   Maximum recorded temp.
 MRT .Degf            232:   Maximum recorded temp.
 LUN .               4618:   Logging unit number
 LUN .               4618:   Logging unit number
 LUL .                wjv:   Logging unit location
 LUL .                wjv:   Logging unit location
 ENGI.           M. Akbar:   Recorded By
 ENGI.           M. Akbar:   Recorded By
 WITN.            Y. Rais:   Witnessed by
 WITN.          M. Dasuki:   Witnessed by
 RE1 .                ILD:   Res. Electrode #1
 RE1 .                ILD:   Res. Electrode #1
 RE2 .                 SN:   Res. Electrode #2
 RE2 .                 SN:   Res. Electrode #2
 TLAB.hh:mm             3:   Time Logger At Bottom
 TLAB.hh:mm             7:   Time Logger At Bottom
 TLAB.hh:mm             7:   Time Logger At Bottom
 DGBY.            Sukarna:   Digitized By
 DGBY.            Sukarna:   Digitized By
 DGBY.            Sukarna:   Digitized By
~T 1 Tops
D1(1453-1455)                    1453.0
~OTHER INFORMATION
# Bridleless tool, Log was correlated with cs. run no.3 4M too deep compared with run.2
~A  DEPTH     CALI         GR         SP        ILD         SN       PROX       NPHI       RHOB        CBL       DRHO
# ...
  969.8490    15.2625  -999.2500   -20.8202     0.4633     0.5550     0.7913  -999.2500  -999.2500  -999.2500  -999.2500
  970.0020    15.2470  -999.2500   -20.8285     0.4633     0.5550     0.8144  -999.2500  -999.2500  -999.2500  -999.2500
  970.1540    15.2470  -999.2500   -20.8367     0.4632     0.5511     0.7322  -999.2500  -999.2500  -999.2500  -999.2500
  970.3060    15.2469  -999.2500   -20.8450     0.4631     0.5551     0.7536  -999.2500  -999.2500  -999.2500  -999.2500
  970.4590    15.2622  -999.2500   -20.8532     0.4631     0.5551     0.7327  -999.2500  -999.2500  -999.2500  -999.2500
  970.6110    15.2621  -999.2500   -21.0165     0.4630     0.5551     0.7434  -999.2500  -999.2500  -999.2500  -999.2500
  970.7640    15.2466  -999.2500   -21.4879     0.4629     0.5551     0.7384  -999.2500  -999.2500  -999.2500  -999.2500
  970.9160    15.2466  -999.2500   -21.6490     0.4596     0.5592     0.7281  -999.2500  -999.2500  -999.2500  -999.2500
  971.0680    15.2465  -999.2500   -21.5019     0.4628     0.5592     0.7656  -999.2500  -999.2500  -999.2500  -999.2500
  971.2210    15.2464  -999.2500   -21.2018     0.4628     0.5592     0.7497  -999.2500  -999.2500  -999.2500  -999.2500
  971.3730    15.2463  -999.2500   -20.7478     0.4660     0.5552     0.7446  -999.2500  -999.2500  -999.2500  -999.2500
  971.5260    15.2463  -999.2500   -20.6001     0.4659     0.5552     0.7555  -999.2500  -999.2500  -999.2500  -999.2500
  971.6780    15.2462  -999.2500   -20.4537     0.4692     0.5552     0.7398  -999.2500  -999.2500  -999.2500  -999.2500
  971.8300    15.2615  -999.2500   -20.6182     0.4759     0.5513     0.6892  -999.2500  -999.2500  -999.2500  -999.2500
  971.9830    15.2614  -999.2500   -20.4702     0.4861     0.5593     0.8178  -999.2500  -999.2500  -999.2500  -999.2500
  972.1350    15.2922  -999.2500   -20.6332     0.4930     0.5675     0.7565  -999.2500  -999.2500  -999.2500  -999.2500
  972.2880    15.2921  -999.2500   -20.7958     0.5001     0.5758     0.7302  -999.2500  -999.2500  -999.2500  -999.2500
  972.4400    15.3074  -999.2500   -20.9586     0.5072     0.5970     0.7900  -999.2500  -999.2500  -999.2500  -999.2500
  972.5920    15.3073  -999.2500   -21.4309     0.5071     0.6146     0.7681  -999.2500  -999.2500  -999.2500  -999.2500
  972.7450    15.3073  -999.2500   -21.5933     0.5107     0.6101     0.8133  -999.2500  -999.2500  -999.2500  -999.2500
  972.8970    15.3226  -999.2500   -21.6015     0.5143     0.5971     0.8021  -999.2500  -999.2500  -999.2500  -999.2500
  973.0500    15.3225  -999.2500   -21.4536     0.5105     0.5885     0.7687  -999.2500  -999.2500  -999.2500  -999.2500
  973.2020    15.3224  -999.2500   -21.3072     0.5105     0.5801     0.7913  -999.2500  -999.2500  -999.2500  -999.2500
  973.3540    15.3224  -999.2500   -21.1605     0.5104     0.5801     0.7972  -999.2500  -999.2500  -999.2500  -999.2500
  973.5070    15.3377  -999.2500   -21.0146     0.5067     0.5801     0.7750  -999.2500  -999.2500  -999.2500  -999.2500
  973.6590    15.3376  -999.2500   -21.1790     0.5030     0.5886     0.7920  -999.2500  -999.2500  -999.2500  -999.2500
  973.8120    15.3375  -999.2500   -21.1873     0.5030     0.5929     0.8036  -999.2500  -999.2500  -999.2500  -999.2500
  973.9640    15.3529  -999.2500   -21.1955     0.5029     0.6059     0.7925  -999.2500  -999.2500  -999.2500  -999.2500
  974.1160    15.3528  -999.2500   -21.2037     0.5028     0.6059     0.7596  -999.2500  -999.2500  -999.2500  -999.2500
  974.2690    15.3527  -999.2500   -21.0558     0.4956     0.6016     0.7762  -999.2500  -999.2500  -999.2500  -999.2500
  974.4210    15.3372  -999.2500   -21.0640     0.4920     0.6016     0.7546  -999.2500  -999.2500  -999.2500  -999.2500
  974.5740    15.3063  -999.2500   -21.0722     0.4885     0.5930     0.7823  -999.2500  -999.2500  -999.2500  -999.2500
  974.7260    15.3063  -999.2500   -21.0805     0.4781     0.5887     0.7715  -999.2500  -999.2500  -999.2500  -999.2500
  974.8780    15.3062  -999.2500   -21.0887     0.4780     0.5803     0.7395  -999.2500  -999.2500  -999.2500  -999.2500
  975.0310    15.3061  -999.2500   -21.0969     0.4745     0.5761     0.7503  -999.2500  -999.2500  -999.2500  -999.2500
  975.1830    15.3214  -999.2500   -21.1052     0.4745     0.5597     0.7667  -999.2500  -999.2500  -999.2500  -999.2500
  975.3360    15.3368  -999.2500   -21.1134     0.4710     0.5517     0.7401  -999.2500  -999.2500  -999.2500  -999.2500
  975.4880    15.3367  -999.2500   -20.9654     0.4676     0.5517     0.7351  -999.2500  -999.2500  -999.2500  -999.2500
  975.6400    15.3520  -999.2500   -20.6646     0.4676     0.5557     0.7620  -999.2500  -999.2500  -999.2500  -999.2500
  975.7930    15.3519  -999.2500   -20.8290     0.4675     0.5598     0.7568  -999.2500  -999.2500  -999.2500  -999.2500
  975.9450    15.3673  -999.2500   -20.9920     0.4776     0.5680     0.7790  -999.2500  -999.2500  -999.2500  -999.2500
  976.0980    15.3672  -999.2500   -21.1546     0.4878     0.5763     0.7519  -999.2500  -999.2500  -999.2500  -999.2500
  976.2500    15.3671  -999.2500   -21.4719     0.4912     0.5805     0.8020  -999.2500  -999.2500  -999.2500  -999.2500
  976.4020    15.3670  -999.2500   -21.7893     0.4912     0.5805     0.8195  -999.2500  -999.2500  -999.2500  -999.2500
  976.5550    15.3669  -999.2500   -21.7975     0.4911     0.5805     0.7799  -999.2500  -999.2500  -999.2500  -999.2500
  976.7070    15.3669  -999.2500   -21.8041     0.4910     0.5805     0.7803  -999.2500  -999.2500  -999.2500  -999.2500
  976.8600    15.3668  -999.2500   -21.6561     0.4910     0.5805     0.8203  -999.2500  -999.2500  -999.2500  -999.2500
  977.0120    15.3667  -999.2500   -21.3553     0.4909     0.5848     0.7919  -999.2500  -999.2500  -999.2500  -999.2500
  977.1640    15.3666  -999.2500   -21.2089     0.4944     0.5890     0.7644  -999.2500  -999.2500  -999.2500  -999.2500
  977.3170    15.3666  -999.2500   -21.2188     0.5014     0.5848     0.7981  -999.2500  -999.2500  -999.2500  -999.2500
  977.4690    15.3665  -999.2500   -21.2271     0.5049     0.5891     0.8214  -999.2500  -999.2500  -999.2500  -999.2500
  977.6220    15.3664  -999.2500   -21.2353     0.5085     0.5934     0.8043  -999.2500  -999.2500  -999.2500  -999.2500
  977.7740    15.3663  -999.2500   -21.3981     0.5157     0.6064     0.8396  -999.2500  -999.2500  -999.2500  -999.2500
  977.9260    15.3662  -999.2500   -21.7162     0.5230     0.6198     0.8828  -999.2500  -999.2500  -999.2500  -999.2500
  978.0790    15.3662  -999.2500   -22.0328     0.5305     0.6288     0.9022  -999.2500  -999.2500  -999.2500  -999.2500
  978.2310    15.3661  -999.2500   -22.3501     0.5342     0.6334     0.8709  -999.2500  -999.2500  -999.2500  -999.2500
  978.3840    15.3660  -999.2500   -22.3584     0.5457     0.6426     0.8588  -999.2500  -999.2500  -999.2500  -999.2500
  978.5360    15.3659  -999.2500   -22.2104     0.5534     0.6473     0.8776  -999.2500  -999.2500  -999.2500  -999.2500
  978.6880    15.3658  -999.2500   -21.9091     0.5654     0.6474     0.8234  -999.2500  -999.2500  -999.2500  -999.2500
  978.8410    15.3504  -999.2500   -21.7632     0.5816     0.6616     0.8006  -999.2500  -999.2500  -999.2500  -999.2500
  978.9930    15.3195  -999.2500   -21.4621     0.5857     0.6861     1.5982  -999.2500  -999.2500  -999.2500  -999.2500
  979.1460    15.3040  -999.2500   -21.3143     0.5856     0.7269     2.1243  -999.2500  -999.2500  -999.2500  -999.2500
  979.2980    15.3039  -999.2500   -21.1679     0.5814     0.8161     3.8361  -999.2500  -999.2500  -999.2500  -999.2500
  979.4500    15.3038  -999.2500   -20.8671     0.5813     0.7928     0.9045  -999.2500  -999.2500  -999.2500  -999.2500
  979.6030    15.3191  -999.2500   -20.8770     0.5812     0.7429     0.8309  -999.2500  -999.2500  -999.2500  -999.2500
  979.7550    15.3191  -999.2500   -20.7307     0.5770     0.6910     0.8675  -999.2500  -999.2500  -999.2500  -999.2500
  979.9080    15.3190  -999.2500   -20.8935     0.5647     0.6429     0.8739  -999.2500  -999.2500  -999.2500  -999.2500
