~Version Information
VERS  .          2.0                              :CWLS Log Ascii Standard - Version 2.0
WRAP  .          NO                               :One line per depth step
~Well Information Block
#MNEM.UNIT       Data Type                        Information
#---------       ---------                        -------------------------------
STRT  .M         501.09100                        :START DEPTH
STOP  .M         2801.87400                       :STOP DEPTH
STEP  .M          0.15240                         :INCREMENT
NULL  .          -999.25                          :NULL DATA VALUE
COMP  .          PERTAMINA                        :COMPANY
WELL  .          CMS-005                          :WELL
WBN   .          CMS-005                          :WELLBORE
FLD   .          CEMARA SELATAN                   :FIELD
LOC   .                                           :LOCATION
PROV  .          INDONESIA                        :PROVINCE
STAT  .          INDONESIA                        :STATE
CNTY  .                                           :COUNTY
CTRY  .                                           :COUNTRY
DATE  .                                           :DATE
UWI   .          CEMARASELATAN-005                :UNIQUE WELL UWI
LIC   .                                           :LICENSE NUMBER
API   .                                           :API NUMBER
SRVC  .                                           :SERVICE COMPANY
~Parameter Information Block
#MNEM.UNIT       Value                            Description
#---------       ---------                        -------------
LONG  .DEG       108.170923                       :Well Surface Location
LATI  .DEG       -6.423032                        :Well Surface Location
XWELL .M         187032.670000                    :X-coordinate of Well Head
YWELL .M         9289167.261000                   :Y-coordinate of Well Head
~Curve Information Block
#MNEM.UNIT       API Code            Curve    Description
#--------        --------------      -----    -------------------
DEPT  .M                             :0       Index
KGAS  .MD                            :1       Permeability to Gas           
KINT  .MD                            :2       Intrinsic Permeability        
KOIL  .MD                            :3       Permeability to Oil           
KWTR  .MD                            :4       Permeability to Water         
PHIT  .V/V                           :5       Total Porosity_ includes all forms of porosity, including that occupied by bound fluids, and is independent of rock and fluid materials and of environmental effects
PHTT  .V/V                           :6       Theoretical PHIT Value        
PIGE  .V/V                           :7       Effective Porosity Less Irreducible Water
PIGN  .V/V                           :8       Effective Porosity, VISO, VPAR, and Bound Water Removed
SUWI  .V/V                           :9       Non-Clay Water Intergranular Water Saturation for Undisturbed Zone
VILL  .V/V                           :10      Volume of Illite (dry) Relative to Total Volume
~Ascii Data Section
# ...
   2070.20140       0.00100       0.57091       0.00100       0.57091       0.22333       0.23342       0.21583       0.21583       1.00000       0.08115 
   2070.35380       0.00100       0.43397       0.00100       0.43397       0.22097       0.23320       0.21195       0.21195       1.00000       0.09757 
   2070.50620       0.00100       0.36230       0.00100       0.36230       0.21690       0.23024       0.20719       0.20719       1.00000       0.10514 
   2070.65860       0.00100       0.34247       0.00100       0.34247       0.21024       0.22285       0.20098       0.20098       1.00000       0.10028 
   2070.81100       0.00100       0.31577       0.00100       0.31577       0.20520       0.21739       0.19604       0.19604       1.00000       0.09915 
   2070.96340       0.00100       0.24377       0.00100       0.24377       0.20154       0.21483       0.19114       0.19114       1.00000       0.11262 
   2071.11580       0.00100       0.21741       0.00100       0.21741       0.20296       0.21685       0.19161       0.19161       1.00000       0.12286 
   2071.26820       0.00100       0.21144       0.00100       1.69150       0.20935       0.22387       0.19701       0.19701       1.00000       0.13366 
   2071.42060       0.00100       0.16504       0.00100       0.02063       0.21018       0.22741       0.19609       0.19609       1.00000       0.15258 
   2071.57300       0.00100       0.15096       0.00100       0.15096       0.22026       0.24048       0.20438       0.20438       1.00000       0.17199 
   2071.72540       0.00100       0.12480       0.00100       0.12480       0.22697       0.25077       0.20908       0.20908       1.00000       0.19379 
   2071.87780       0.00100       0.14189       0.00100       0.14189       0.23556       0.25971       0.21759       0.21759       1.00000       0.19464 
   2072.03020       0.00100       4.48082       0.00100       4.48082       0.22808       0.26007       0.20705       0.20705       1.00000       0.22749 
   2072.18260       0.00100       2.45815       0.00100       2.45815       0.22460       0.26062       0.20119       0.20119       1.00000       0.25327 
   2072.33500       0.00100       2.37261       0.00100       2.37261       0.22488       0.26125       0.20130       0.20130       1.00000       0.25511 
   2072.48740       0.00100       3.60820       0.00100       3.60820       0.22903       0.26283       0.20701       0.20701       1.00000       0.23821 
   2072.63980       0.00100       5.82252       0.00100       5.82252       0.22841       0.25883       0.20849       0.20849       1.00000       0.21550 
   2072.79220       0.00100       7.54276       0.00100       7.51184       0.22989       0.25851       0.21100       0.21100       0.99963       0.20444 
   2072.94460       0.00100       8.00080       0.00100       8.00080       0.22112       0.24874       0.20304       0.20304       1.00000       0.19561 
   2073.09700       0.00100       8.93185       0.00100       8.93185       0.22023       0.24702       0.20269       0.20269       1.00000       0.18981 
   2073.24940       0.00100       8.87632       0.00100       8.87632       0.21620       0.24261       0.19890       0.19890       1.00000       0.18713 
   2073.40180       0.00100       7.77083       0.00100       7.77083       0.20853       0.23517       0.19120       0.19120       1.00000       0.18750 
   2073.55420       0.00100       9.65287       0.00100       9.65287       0.20117       0.22571       0.18534       0.18534       1.00000       0.17120 
   2073.70660       0.00100      21.71943       0.00100      21.71943       0.20809       0.22771       0.19528       0.19528       1.00000       0.13858 
   2073.85900       0.00100      43.15605       0.00100      43.15605       0.21443       0.23001       0.20412       0.20412       1.00000       0.11151 
   2074.01140       0.00100      50.70116       0.00100      49.09189       0.22435       0.23986       0.21401       0.21401       0.99478       0.11189 
   2074.16380       0.00100      21.94755       0.00100      21.94755       0.22995       0.25190       0.21563       0.21563       1.00000       0.15490 
   2074.31620       0.00100       5.81743       0.00100       5.61216       0.23882       0.27047       0.21829       0.21829       0.99739       0.22218 
   2074.46860       0.00100       6.04200       0.00100       6.04200       0.24164       0.27314       0.22111       0.22111       1.00000       0.22214 
   2074.62100       0.00100       9.83754       0.00100       9.05709       0.24791       0.27639       0.22910       0.22910       0.99296       0.20350 
   2074.77340       0.00100       9.41510       0.00100       9.41510       0.24556       0.27418       0.22669       0.22669       1.00000       0.20411 
   2074.92580       0.00100       5.69425       0.00100       5.69425       0.23730       0.26894       0.21675       0.21675       1.00000       0.22223 
   2075.07820       0.00100       5.87870       0.00100       5.87870       0.23542       0.26688       0.21513       0.21513       1.00000       0.21959 
   2075.23060       0.00100       8.73719       0.00100       8.73719       0.24191       0.27115       0.22293       0.22293       1.00000       0.20534 
   2075.38300       0.00100       6.27020       0.00100       6.27020       0.23532       0.26631       0.21530       0.21530       1.00000       0.21654 
   2075.53540       0.00100       5.01348       0.00100       5.01348       0.23018       0.26236       0.20951       0.20951       1.00000       0.22363 
   2075.68780       0.00100       6.74886       0.00100       6.74886       0.23988       0.27058       0.21992       0.21992       1.00000       0.21598 
   2075.84020       0.00100       6.43826       0.00100       6.43826       0.24800       0.27940       0.22739       0.22739       1.00000       0.22295 
   2075.99260       0.00100       5.61044       0.00100       5.61044       0.24886       0.28121       0.22763       0.22763       1.00000       0.22973 
   2076.14500       0.00100       4.64762       0.00100       4.64762       0.24004       0.27354       0.21848       0.21848       1.00000       0.23328 
   2076.29740       0.00100       4.57121       0.00100       4.57121       0.23576       0.26905       0.21436       0.21436       1.00000       0.23145 
   2076.44980       0.00100       5.20837       0.00100       5.20837       0.23756       0.27015       0.21662       0.21662       1.00000       0.22652 
   2076.60220       0.00100       4.24747       0.00100       4.24747       0.23932       0.27341       0.21741       0.21741       1.00000       0.23701 
   2076.75460       0.00100       5.50489       0.00100       5.50489       0.24407       0.27685       0.22301       0.22301       1.00000       0.22786 
   2076.90700       0.00100       7.33967       0.00100       7.33967       0.24752       0.27853       0.22749       0.22749       1.00000       0.21667 
   2077.05940       0.00100       9.32535       0.00100       9.32535       0.24888       0.27841       0.22979       0.22979       1.00000       0.20651 
   2077.21180       0.00100       7.64433       0.00100       7.64433       0.25280       0.28385       0.23267       0.23267       1.00000       0.21782 
   2077.36420       0.00100       5.67503       0.00100       5.67503       0.25176       0.28462       0.23042       0.23042       1.00000       0.23081 
   2077.51660       0.00100       8.13448       0.00100       8.13448       0.25585       0.28640       0.23583       0.23583       1.00000       0.21667 
   2077.66900       0.00100      10.00357       0.00100      10.00357       0.25359       0.28242       0.23454       0.23454       1.00000       0.20602 
   2077.82140       0.00100      10.19086       0.00100      10.19086       0.24863       0.27688       0.22993       0.22993       1.00000       0.20232 
   2077.97380       0.00100      10.60687       0.00100      10.60687       0.24679       0.27464       0.22836       0.22836       1.00000       0.19940 
