~VERSION INFORMATION
 VERS.               1.20:   CWLS LOG ASCII STANDARD - VERSION 1.20
 WRAP.                 NO:   ONE LINE PER DEPTH STEP
~WELL INFORMATION
#MNEM.UNIT      DATA TYPE    INFORMATION
#----------   ------------   ------------------------------
 STRT.M          500.1524:   START DEPTH
 STOP.M         2803.2212:   STOP DEPTH
 STEP.M            0.1524:   STEP LENGTH
 NULL.          -999.2500:   NO VALUE
 COMP.            COMPANY:   PERTAMINA
 WELL.               WELL:   CMS-005
 WBN .            CMS-005:   WELLBORE
 FLD .              FIELD:   CEMARA SELATAN
 LOC .           LOCATION:   X = - 15283.31  Y = + 8483.38
 PROV.           PROVINCE:   JAWA BARAT
 STAT.              STATE:   INDONESIA
 SRVC.    SERVICE COMPANY:   SCHLUMBERGER
 DATE.            LOGDATE:   01/24/78
 APIN.         API NUMBER:   -
 UWI .  CEMARASELATAN-005:   UNIQUE WELL ID 
~CURVE INFORMATION
#MNEM.UNIT       API CODE    CURVE DESCRIPTION
#----------   ------------   ------------------------------
 DEPT.M                  :
 CALI.inch   60 280 00 00:   Caliper
 GR  .GAPI   42 310 00 00:   Gamma Ray
 SP  .mV     60 010 01 00:   Spontaneous Potential
 ILD .ohmm   05 070 46 00:   Induction Laterolog, Deep
 SN  .ohmm   05 040 16 00:   Short Normal 16"
 PROX.ohmm   21 270 30 00:   Proximity Log
 NPHI.%      42 890 03 00:   Neu. Porosity, Ss [%]
 RHOB.kg/cm3 42 350 01 00:   Bulk Density
 CBL .mV     81 524 00 00:   Cement Bond Log
 DRHO.kg/m3  42 356 01 00:   Density Correction
~PARAMETER INFORMATION
#MNEM.UNIT          VALUE    DESCRIPTION
#----------   ------------   ------------------------------
 EKB .M            0.0000:   Kelly bushing
 EGL .M            4.7500:   Ground level
 EDF .M           10.0000:   Drilling floor
 EPD .M           10.0000:   Permanent datum
 TD  .M         2793.0000:   Total depth
 DF  .      CONGLONGMERAT:   Deepest formation
 PROJ.       SCHLUMBERGER:   Project
 DATE.           01/24/78:   Date logged
 DD  .Mtr            2793:   Depth driller
 DL  .Mtr          2762.3:   Depth logger
 BLI .Mtr            2762:   Bottom log interval
 TLI .Mtr             500:   Top log interval
 CSS .Inch             7":   Casing size
 CTD1.Mtr     7" @ 2581,7:   Casing driller 1
 CTL1.Mtr          2581,7:   Casing logger 1
 BS  .Inch          6 1/8:   Bit size
 DFT .           Spersene:   Type fluid in hole
 DFD .G/c3           1.18:   Density
 DFV .Sec              58:   Viscosity
 COL .Inch           6-16:   Column depth/dia.
 DFPH.                 10:   pH
 DFL .Ml             2.75:   Fluid loss
 WSS .           Flowline:   Source of sample
 RM  .Ohmm           1.07:   Rm
 EMT .Degf 1.07 ohmm @ 83:   Rm Meas. temp.
 RMF .Ohmm           0.57:   Rmf
 MFT .Degf 0.57 ohmm @ 83:   Rmf Meas. temp.
 RMC .Ohmm           1.78:   Rmc
 MCST.Degf 1.78 ohmm @ 83:   Rmc Meas. temp.
 MFSS.              Press:   Source Rmf.
 MCSS.              Press:   Source Rmc.
 RMB .Degf 0.4 ohmm @ 232:   Rm. at BHT
 BHT .Degf            232:   BHT.
 TCS .Hrs               7:   Time Circ. stopped
 MRT .Degf            232:   Maximum recorded temp.
 LUN .               4618:   Logging unit number
 LUL .                WJV:   Logging unit location
 ENGI.           M. Akbar:   Recorded By
 WITN.           M.Dasuki:   Witnessed by
 RE1 .       ILD  (6FF40):   Res. Electrode #1
 RE2 .      SN   (A-16"M):   Res. Electrode #2
 DATE.           02/16/78:   Date logged
 DATE.           03/13/78:   Date logged
 DD  .Mtr            1260:   Depth driller
 DD  .Mtr            2610:   Depth driller
 DL  .Mtr            1260:   Depth logger
 DL  .Mtr            2610:   Depth logger
 BLI .Mtr            1260:   Bottom log interval
 BLI .Mtr          2605.8:   Bottom log interval
 TLI .Mtr             500:   Top log interval
 TLI .Mtr          1254.5:   Top log interval
 CSS .Inch         13 3/8:   Casing size
 CSS .Inch          9 5/8:   Casing size
 CTD1.Mtr             500:   Casing driller 1
 CTD1.Mtr            1254:   Casing driller 1
 CTL1.Mtr             500:   Casing logger 1
 CTL1.Mtr          1254.5:   Casing logger 1
 BS  .Inch         12 1/4:   Bit size
 BS  .Inch          8 5/8:   Bit size
 DFT .           spersene:   Type fluid in hole
 DFT .           spersene:   Type fluid in hole
 DFD .G/c3           1.12:   Density
 DFD .G/c3           1.18:   Density
 DFV .Sec              47:   Viscosity
 DFV .Sec              58:   Viscosity
 DFPH.                  9:   pH
 DFPH.                 10:   pH
 DFL .Ml              5.5:   Fluid loss
 DFL .Ml             2.75:   Fluid loss
 WSS .           flowline:   Source of sample
 WSS .           flowline:   Source of sample
 RM  .Ohmm           1.19:   Rm
 RM  .Ohmm           1.07:   Rm
 EMT .Degf             80:   Rm Meas. temp.
 EMT .Degf             83:   Rm Meas. temp.
 RMF .Ohmm            0.8:   Rmf
 RMF .Ohmm           0.57:   Rmf
 MFT .Degf             80:   Rmf Meas. temp.
 MFT .Degf             83:   Rmf Meas. temp.
 RMC .Ohmm           1.52:   Rmc
 RMC .Ohmm           1.78:   Rmc
 MCST.Degf             80:   Rmc Meas. temp.
 MCST.Degf             83:   Rmc Meas. temp.
 MFSS.                  p:   Source Rmf.
 MFSS.                  p:   Source Rmf.
 MCSS.                  p:   Source Rmc.
 MCSS.                  p:   Source Rmc.
 RMB .Degf 0.63 ohmm @ 150:   Rm. at BHT
 RMB .Degf 0.4 ohmm @ 232:   Rm. at BHT
 BHT .Degf            150:   BHT.
 BHT .Degf            232:   BHT.
 TCS .Hrs               3:   Time Circ. stopped
 TCS .Hrs               7:   Time Circ. stopped
 MRT .Degf            150:   Maximum recorded temp.
 MRT .Degf            232:   Maximum recorded temp.
 LUN .               4618:   Logging unit number
 LUN .               4618:   Logging unit number
 LUL .                wjv:   Logging unit location
 LUL .                wjv:   Logging unit location
 ENGI.           M. Akbar:   Recorded By
 ENGI.           M. Akbar:   Recorded By
 WITN.            Y. Rais:   Witnessed by
 WITN.          M. Dasuki:   Witnessed by
 RE1 .                ILD:   Res. Electrode #1
 RE1 .                ILD:   Res. Electrode #1
 RE2 .                 SN:   Res. Electrode #2
 RE2 .                 SN:   Res. Electrode #2
 TLAB.hh:mm             3:   Time Logger At Bottom
 TLAB.hh:mm             7:   Time Logger At Bottom
 TLAB.hh:mm             7:   Time Logger At Bottom
 DGBY.            Sukarna:   Digitized By
 DGBY.            Sukarna:   Digitized By
 DGBY.            Sukarna:   Digitized By
~T 1 Tops
D1(1453-1455)                    1453.0
~OTHER INFORMATION
# Bridleless tool, Log was correlated with cs. run no.3 4M too deep compared with run.2
~A  DEPTH     CALI         GR         SP        ILD         SN       PROX       NPHI       RHOB        CBL       DRHO
# ...
 1112.8000    14.4776  -999.2500   -13.3488     0.5178     0.6340     0.8213  -999.2500  -999.2500     1.2552  -999.2500
 1112.9530    14.6008  -999.2500   -13.6596     0.5215     0.6295     0.8040  -999.2500  -999.2500     1.6065  -999.2500
 1113.1050    14.6626  -999.2500   -13.9701     0.5214     0.6295     0.7984  -999.2500  -999.2500     1.9122  -999.2500
 1113.2580    14.6473  -999.2500   -14.1258     0.5213     0.6295     0.7651  -999.2500  -999.2500     1.4952  -999.2500
 1113.4100    14.6475  -999.2500   -14.1273     0.5176     0.6296     0.7929  -999.2500  -999.2500     0.7139  -999.2500
 1113.5620    14.6632  -999.2500   -14.1291     0.5175     0.6250     0.7653  -999.2500  -999.2500     0.6370  -999.2500
 1113.7150    14.6634  -999.2500   -14.2847     0.5175     0.6251     0.7600  -999.2500  -999.2500     0.6639  -999.2500
 1113.8670    14.6636  -999.2500   -14.2861     0.5174     0.6206     0.7989  -999.2500  -999.2500     0.7185  -999.2500
 1114.0200    14.6483  -999.2500   -14.1327     0.5137     0.6161     0.7877  -999.2500  -999.2500     0.7203  -999.2500
 1114.1720    14.6640  -999.2500   -13.9796     0.5099     0.6117     0.7822  -999.2500  -999.2500     0.7217  -999.2500
 1114.3240    14.7106  -999.2500   -13.8251     0.5063     0.6117     0.7935  -999.2500  -999.2500     0.7233  -999.2500
 1114.4770    14.7722  -999.2500   -13.3645     0.5026     0.6117     0.7184  -999.2500  -999.2500     0.8074  -999.2500
 1114.6290    14.7878  -999.2500   -13.2113     0.4954     0.6030     0.7551  -999.2500  -999.2500     1.6657  -999.2500
 1114.7820    14.7880  -999.2500   -13.2128     0.4953     0.5986     0.7938  -999.2500  -999.2500     2.3740  -999.2500
 1114.9340    14.8036  -999.2500   -13.2142     0.4953     0.5987     0.7883  -999.2500  -999.2500     2.6272  -999.2500
 1115.0860    14.8038  -999.2500   -13.3702     0.4952     0.5987     0.7772  -999.2500  -999.2500     2.2222  -999.2500
 1115.2390    14.7886  -999.2500   -13.3716     0.4952     0.6031     0.7885  -999.2500  -999.2500     2.2708  -999.2500
 1115.3910    14.6654  -999.2500   -13.5276     0.4951     0.5987     0.7830  -999.2500  -999.2500     3.5513  -999.2500
 1115.5440    14.6041  -999.2500   -13.5290     0.4986     0.5987     0.7720  -999.2500  -999.2500     4.0221  -999.2500
 1115.6960    14.6043  -999.2500   -13.3756     0.4950     0.5944     0.7832  -999.2500  -999.2500     2.3455  -999.2500
 1115.8480    14.6199  -999.2500   -13.2224     0.4949     0.5902     0.8059  -999.2500  -999.2500     2.8825  -999.2500
 1116.0010    14.6201  -999.2500   -13.2239     0.4914     0.5817     0.8060  -999.2500  -999.2500     2.7753  -999.2500
 1116.1530    14.6203  -999.2500   -13.0705     0.4913     0.5860     0.8533  -999.2500  -999.2500     2.4084  -999.2500
 1116.3060    14.6205  -999.2500   -13.0722     0.4912     0.5945     0.8474  -999.2500  -999.2500     2.0543  -999.2500
 1116.4580    14.6052  -999.2500   -13.2282     0.4842     0.5989     0.7671  -999.2500  -999.2500     1.8677  -999.2500
 1116.6100    14.6055  -999.2500   -13.2296     0.4842     0.5989     0.8007  -999.2500  -999.2500     1.8426  -999.2500
 1116.7630    14.6057  -999.2500   -13.2310     0.4841     0.5946     0.8180  -999.2500  -999.2500     1.9222  -999.2500
 1116.9150    14.6059  -999.2500   -13.5419     0.4806     0.5903     0.7839  -999.2500  -999.2500     1.7860  -999.2500
 1117.0680    14.5906  -999.2500   -13.8521     0.4805     0.5903     0.8067  -999.2500  -999.2500     1.5933  -999.2500
 1117.2200    14.5754  -999.2500   -14.0082     0.4737     0.5990     0.8068  -999.2500  -999.2500     1.4579  -999.2500
 1117.3720    14.5448  -999.2500   -14.3186     0.4669     0.5990     0.8185  -999.2500  -999.2500     1.2784  -999.2500
 1117.5250    14.5604  -999.2500   -14.1655     0.4668     0.5990     0.7843  -999.2500  -999.2500     1.0426  -999.2500
 1117.6770    14.5606  -999.2500   -14.1669     0.4668     0.5904     0.8071  -999.2500  -999.2500     0.9013  -999.2500
 1117.8300    14.5608  -999.2500   -14.0135     0.4667     0.5820     0.7901  -999.2500  -999.2500     0.8381  -999.2500
 1117.9820    14.5765  -999.2500   -14.0152     0.4734     0.5862     0.7412  -999.2500  -999.2500     0.7613  -999.2500
 1118.1340    14.5920  -999.2500   -14.1712     0.4801     0.5820     0.8074  -999.2500  -999.2500     0.8896  -999.2500
 1118.2870    14.6076  -999.2500   -14.1726     0.4870     0.5905     0.7961  -999.2500  -999.2500     1.2576  -999.2500
 1118.4390    14.6078  -999.2500   -14.0190     0.4939     0.6035     0.9180  -999.2500  -999.2500     1.3466  -999.2500
 1118.5920    14.6080  -999.2500   -13.8661     0.5045     0.6303     0.8987  -999.2500  -999.2500     0.6037  -999.2500
 1118.7440    14.5928  -999.2500   -13.5581     0.5081     0.6630     0.9052  -999.2500  -999.2500     0.5063  -999.2500
 1118.8960    14.6084  -999.2500   -13.4046     0.5117     0.6825     0.9053  -999.2500  -999.2500     1.0500  -999.2500
 1119.0490    14.5932  -999.2500   -13.2518     0.5153     0.6875     0.8313  -999.2500  -999.2500     1.2423  -999.2500
 1119.2010    14.5934  -999.2500   -13.2535     0.5152     0.6777     0.8080  -999.2500  -999.2500     1.1654  -999.2500
 1119.3540    14.5782  -999.2500   -13.2550     0.5151     0.6679     0.7967  -999.2500  -999.2500     0.9548  -999.2500
 1119.5060    14.5938  -999.2500   -13.2564     0.5151     0.6584     0.7264  -999.2500  -999.2500     0.6652  -999.2500
 1119.6580    14.6094  -999.2500   -13.4124     0.5150     0.6489     0.7317  -999.2500  -999.2500     0.4880  -999.2500
 1119.8110    14.6096  -999.2500   -13.4138     0.5336     0.6490     0.7163  -999.2500  -999.2500     0.6241  -999.2500
 1119.9630    14.5944  -999.2500   -13.4152     0.5530     0.6491     0.8462  -999.2500  -999.2500     0.7040  -999.2500
 1120.1160    14.5638  -999.2500   -13.4167     0.5938     0.7404     2.6927  -999.2500  -999.2500     0.7067  -999.2500
 1120.2680    14.5486  -999.2500   -13.5729     0.6655     0.9649     2.8305  -999.2500  -999.2500     0.6697  -999.2500
 1120.4200    14.6104  -999.2500   -14.3501     0.7678     1.2141     2.2538  -999.2500  -999.2500     0.4409  -999.2500
 1120.5730    14.6106  -999.2500   -15.7393     0.9172     1.5810     2.0406  -999.2500  -999.2500     0.3826  -999.2500
 1120.7250    14.6108  -999.2500   -17.9096     1.1945     1.8115     2.3532  -999.2500  -999.2500     0.7200  -999.2500
 1120.8780    14.6110  -999.2500   -21.3063     1.4476     1.8249     1.9698  -999.2500  -999.2500     1.2086  -999.2500
 1121.0300    14.6112  -999.2500   -21.4623     1.6341     1.7994     1.4301  -999.2500  -999.2500     1.2398  -999.2500
 1121.1820    14.5652  -999.2500   -20.9977     1.8187     1.7742     1.9990  -999.2500  -999.2500     1.0403  -999.2500
 1121.3350    14.6116  -999.2500   -20.0741     1.9250     1.7620     2.1463  -999.2500  -999.2500     0.8115  -999.2500
 1121.4870    14.6734  -999.2500   -19.1469     1.9386     1.8530     3.1987  -999.2500  -999.2500     0.6577  -999.2500
 1121.6400    14.6582  -999.2500   -18.0674     1.9245     1.9625     4.1322  -999.2500  -999.2500     0.7094  -999.2500
 1121.7920    14.6276  -999.2500   -17.7594     1.8305     2.1542     5.7746  -999.2500  -999.2500     0.6160  -999.2500
 1121.9440    14.5968  -999.2500   -17.7647     1.7160     2.2172     3.1479  -999.2500  -999.2500     0.5898  -999.2500
 1122.0970    14.5509  -999.2500   -18.9991     1.5311     2.1552     1.0391  -999.2500  -999.2500     0.6713  -999.2500
 1122.2490    14.5049  -999.2500   -19.4639     1.2897     1.9084     0.8275  -999.2500  -999.2500     0.6746  -999.2500
 1122.4020    14.4897  -999.2500   -18.8471     1.0563     1.4973     1.0543  -999.2500  -999.2500     0.6333  -999.2500
 1122.5540    14.5515  -999.2500   -18.2302     0.9423     1.1495     1.6392  -999.2500  -999.2500     0.5252  -999.2500
 1122.7060    14.6134  -999.2500   -17.3029     0.8898     1.0703     1.1987  -999.2500  -999.2500     0.6095  -999.2500
 1122.8590    14.6290  -999.2500   -16.5332     0.8647     1.0629     1.2511  -999.2500  -999.2500     0.6878  -999.2500
