~Version Information
VERS  .          2.0                              :CWLS Log Ascii Standard - Version 2.0
WRAP  .          NO                               :One line per depth step
~Well Information Block
#MNEM.UNIT       Data Type                        Information
#---------       ---------                        -------------------------------
STRT  .M         501.09100                        :START DEPTH
STOP  .M         2801.87400                       :STOP DEPTH
STEP  .M          0.15240                         :INCREMENT
NULL  .          -999.25                          :NULL DATA VALUE
COMP  .          PERTAMINA                        :COMPANY
WELL  .          CMS-005                          :WELL
WBN   .          CMS-005                          :WELLBORE
FLD   .          CEMARA SELATAN                   :FIELD
LOC   .                                           :LOCATION
PROV  .          INDONESIA                        :PROVINCE
STAT  .          INDONESIA                        :STATE
CNTY  .                                           :COUNTY
CTRY  .                                           :COUNTRY
DATE  .                                           :DATE
UWI   .          CEMARASELATAN-005                :UNIQUE WELL UWI
LIC   .                                           :LICENSE NUMBER
API   .                                           :API NUMBER
SRVC  .                                           :SERVICE COMPANY
~Parameter Information Block
#MNEM.UNIT       Value                            Description
#---------       ---------                        -------------
LONG  .DEG       108.170923                       :Well Surface Location
LATI  .DEG       -6.423032                        :Well Surface Location
XWELL .M         187032.670000                    :X-coordinate of Well Head
YWELL .M         9289167.261000                   :Y-coordinate of Well Head
~Curve Information Block
#MNEM.UNIT       API Code            Curve    Description
#--------        --------------      -----    -------------------
DEPT  .M                             :0       Index
KGAS  .MD                            :1       Permeability to Gas           
KINT  .MD                            :2       Intrinsic Permeability        
KOIL  .MD                            :3       Permeability to Oil           
KWTR  .MD                            :4       Permeability to Water         
PHIT  .V/V                           :5       Total Porosity_ includes all forms of porosity, including that occupied by bound fluids, and is independent of rock and fluid materials and of environmental effects
PHTT  .V/V                           :6       Theoretical PHIT Value        
PIGE  .V/V                           :7       Effective Porosity Less Irreducible Water
PIGN  .V/V                           :8       Effective Porosity, VISO, VPAR, and Bound Water Removed
SUWI  .V/V                           :9       Non-Clay Water Intergranular Water Saturation for Undisturbed Zone
VILL  .V/V                           :10      Volume of Illite (dry) Relative to Total Volume
~Ascii Data Section
# ...
   2791.35820       0.00100   13682.69141       0.00100   13682.69141       0.22393       0.24840       0.22393       0.22393       1.00000       0.00001 
   2791.51060       0.00100   14765.72070       0.00100   14765.72070       0.23206       0.25530       0.23206       0.23206       1.00000       0.00001 
   2791.66300       0.00100   12852.96875       0.00100   12852.96875       0.22928       0.25227       0.22928       0.22928       1.00000       0.00001 
   2791.81540       0.00100   11271.25098       0.00100   11271.25098       0.22425       0.24712       0.22424       0.22424       1.00000       0.00001 
   2791.96780       0.00100   11462.41797       0.00100   11462.41797       0.22088       0.24444       0.22088       0.22088       1.00000       0.00001 
   2792.12020       0.00100   10676.76172       0.00100   10676.76172       0.21854       0.24182       0.21854       0.21854       1.00000       0.00001 
   2792.27260       0.00100    9538.67090       0.00100    9538.67090       0.21469       0.23784       0.21469       0.21469       1.00000       0.00001 
   2792.42500       0.00100    9301.50391       0.00100    9301.50391       0.21105       0.23489       0.21105       0.21105       1.00000       0.00001 
   2792.57740       0.00100   10888.29980       0.00100   10888.29980       0.21603       0.24031       0.21603       0.21603       1.00000       0.00001 
   2792.72980       0.00100   12074.87207       0.00100   12074.87207       0.21851       0.24277       0.21851       0.21851       1.00000       0.00001 
   2792.88220       0.00100   12953.43750       0.00100   12953.43750       0.22328       0.24662       0.22328       0.22328       1.00000       0.00001 
   2793.03460       0.00100   13435.13086       0.00100   13435.13086       0.22928       0.25139       0.22928       0.22928       1.00000       0.00001 
   2793.18700       0.00100   14390.95508       0.00100   14390.95508       0.23377       0.25579       0.23377       0.23377       1.00000       0.00001 
   2793.33940       0.00100   16042.61230       0.00100   16042.61230       0.23877       0.26049       0.23876       0.23876       1.00000       0.00001 
   2793.49180       0.00100   17995.59375       0.00100   17995.59375       0.24217       0.26374       0.24217       0.24217       1.00000       0.00001 
   2793.64420       0.00100   19653.74414       0.00100   19653.74414       0.24529       0.26640       0.24529       0.24529       1.00000       0.00001 
   2793.79660       0.00100   20206.52539       0.00100   20206.52539       0.24399       0.26576       0.24399       0.24399       1.00000       0.00001 
   2793.94900       0.00100   23035.13281       0.00100   23035.13281       0.24463       0.26729       0.24463       0.24463       1.00000       0.00001 
   2794.10140       0.00100   22883.81055       0.00100   22883.81055       0.24656       0.26849       0.24656       0.24656       1.00000       0.00001 
   2794.25380       0.00100   20444.30859       0.00100   20444.30859       0.24669       0.26757       0.24669       0.24669       1.00000       0.00001 
   2794.40620       0.00100   19049.37500       0.00100   19049.37500       0.24380       0.26501       0.24380       0.24380       1.00000       0.00001 
   2794.55860       0.00100   17902.08398       0.00100   17902.08398       0.24086       0.26222       0.24086       0.24086       1.00000       0.00001 
   2794.71100       0.00100   19132.79883       0.00100   19132.79883       0.24479       0.26545       0.24479       0.24479       1.00000       0.00001 
   2794.86340       0.00100   18065.75586       0.00100   18065.75586       0.24529       0.26550       0.24529       0.24529       1.00000       0.00001 
   2795.01580       0.00100   16557.31836       0.00100   16557.31836       0.24530       0.26502       0.24530       0.24530       1.00000       0.00001 
   2795.16820       0.00100   11335.91309       0.00100   11335.91309       0.24844       0.26474       0.24844       0.24844       1.00000       0.00001 
   2795.32060    -999.25000    -999.25000    -999.25000    -999.25000    -999.25000    -999.25000    -999.25000    -999.25000    -999.25000    -999.25000 
   2795.47300    -999.25000    -999.25000    -999.25000    -999.25000    -999.25000    -999.25000    -999.25000    -999.25000    -999.25000    -999.25000 
   2795.62540    -999.25000    -999.25000    -999.25000    -999.25000    -999.25000    -999.25000    -999.25000    -999.25000    -999.25000    -999.25000 
   2795.77780    -999.25000    -999.25000    -999.25000    -999.25000    -999.25000    -999.25000    -999.25000    -999.25000    -999.25000    -999.25000 
   2795.93020    -999.25000    -999.25000    -999.25000    -999.25000    -999.25000    -999.25000    -999.25000    -999.25000    -999.25000    -999.25000 
   2796.08260    -999.25000    -999.25000    -999.25000    -999.25000    -999.25000    -999.25000    -999.25000    -999.25000    -999.25000    -999.25000 
   2796.23500    -999.25000    -999.25000    -999.25000    -999.25000    -999.25000    -999.25000    -999.25000    -999.25000    -999.25000    -999.25000 
   2796.38740    -999.25000    -999.25000    -999.25000    -999.25000    -999.25000    -999.25000    -999.25000    -999.25000    -999.25000    -999.25000 
   2796.53980    -999.25000    -999.25000    -999.25000    -999.25000    -999.25000    -999.25000    -999.25000    -999.25000    -999.25000    -999.25000 
   2796.69220    -999.25000    -999.25000    -999.25000    -999.25000    -999.25000    -999.25000    -999.25000    -999.25000    -999.25000    -999.25000 
   2796.84460    -999.25000    -999.25000    -999.25000    -999.25000    -999.25000    -999.25000    -999.25000    -999.25000    -999.25000    -999.25000 
   2796.99700    -999.25000    -999.25000    -999.25000    -999.25000    -999.25000    -999.25000    -999.25000    -999.25000    -999.25000    -999.25000 
   2797.14940    -999.25000    -999.25000    -999.25000    -999.25000    -999.25000    -999.25000    -999.25000    -999.25000    -999.25000    -999.25000 
   2797.30180    -999.25000    -999.25000    -999.25000    -999.25000    -999.25000    -999.25000    -999.25000    -999.25000    -999.25000    -999.25000 
   2797.45420    -999.25000    -999.25000    -999.25000    -999.25000    -999.25000    -999.25000    -999.25000    -999.25000    -999.25000    -999.25000 
   2797.60660    -999.25000    -999.25000    -999.25000    -999.25000    -999.25000    -999.25000    -999.25000    -999.25000    -999.25000    -999.25000 
   2797.75900    -999.25000    -999.25000    -999.25000    -999.25000    -999.25000    -999.25000    -999.25000    -999.25000    -999.25000    -999.25000 
   2797.91140    -999.25000    -999.25000    -999.25000    -999.25000    -999.25000    -999.25000    -999.25000    -999.25000    -999.25000    -999.25000 
   2798.06380    -999.25000    -999.25000    -999.25000    -999.25000    -999.25000    -999.25000    -999.25000    -999.25000    -999.25000    -999.25000 
   2798.21620    -999.25000    -999.25000    -999.25000    -999.25000    -999.25000    -999.25000    -999.25000    -999.25000    -999.25000    -999.25000 
   2798.36860    -999.25000    -999.25000    -999.25000    -999.25000    -999.25000    -999.25000    -999.25000    -999.25000    -999.25000    -999.25000 
   2798.52100    -999.25000    -999.25000    -999.25000    -999.25000    -999.25000    -999.25000    -999.25000    -999.25000    -999.25000    -999.25000 
   2798.67340    -999.25000    -999.25000    -999.25000    -999.25000    -999.25000    -999.25000    -999.25000    -999.25000    -999.25000    -999.25000 
   2798.82580    -999.25000    -999.25000    -999.25000    -999.25000    -999.25000    -999.25000    -999.25000    -999.25000    -999.25000    -999.25000 
   2798.97820    -999.25000    -999.25000    -999.25000    -999.25000    -999.25000    -999.25000    -999.25000    -999.25000    -999.25000    -999.25000 
   2799.13060    -999.25000    -999.25000    -999.25000    -999.25000    -999.25000    -999.25000    -999.25000    -999.25000    -999.25000    -999.25000 
