~VERSION INFORMATION
 VERS.               1.20:   CWLS LOG ASCII STANDARD - VERSION 1.20
 WRAP.                 NO:   ONE LINE PER DEPTH STEP
~WELL INFORMATION
#MNEM.UNIT      DATA TYPE    INFORMATION
#----------   ------------   ------------------------------
 STRT.M          500.1524:   START DEPTH
 STOP.M         2803.2212:   STOP DEPTH
 STEP.M            0.1524:   STEP LENGTH
 NULL.          -999.2500:   NO VALUE
 COMP.            COMPANY:   PERTAMINA
 WELL.               WELL:   CMS-005
 WBN .            CMS-005:   WELLBORE
 FLD .              FIELD:   CEMARA SELATAN
 LOC .           LOCATION:   X = - 15283.31  Y = + 8483.38
 PROV.           PROVINCE:   JAWA BARAT
 STAT.              STATE:   INDONESIA
 SRVC.    SERVICE COMPANY:   SCHLUMBERGER
 DATE.            LOGDATE:   01/24/78
 APIN.         API NUMBER:   -
 UWI .  CEMARASELATAN-005:   UNIQUE WELL ID 
~CURVE INFORMATION
#MNEM.UNIT       API CODE    CURVE DESCRIPTION
#----------   ------------   ------------------------------
 DEPT.M                  :
 CALI.inch   60 280 00 00:   Caliper
 GR  .GAPI   42 310 00 00:   Gamma Ray
 SP  .mV     60 010 01 00:   Spontaneous Potential
 ILD .ohmm   05 070 46 00:   Induction Laterolog, Deep
 SN  .ohmm   05 040 16 00:   Short Normal 16"
 PROX.ohmm   21 270 30 00:   Proximity Log
 NPHI.%      42 890 03 00:   Neu. Porosity, Ss [%]
 RHOB.kg/cm3 42 350 01 00:   Bulk Density
 CBL .mV     81 524 00 00:   Cement Bond Log
 DRHO.kg/m3  42 356 01 00:   Density Correction
~PARAMETER INFORMATION
#MNEM.UNIT          VALUE    DESCRIPTION
#----------   ------------   ------------------------------
 EKB .M            0.0000:   Kelly bushing
 EGL .M            4.7500:   Ground level
 EDF .M           10.0000:   Drilling floor
 EPD .M           10.0000:   Permanent datum
 TD  .M         2793.0000:   Total depth
 DF  .      CONGLONGMERAT:   Deepest formation
 PROJ.       SCHLUMBERGER:   Project
 DATE.           01/24/78:   Date logged
 DD  .Mtr            2793:   Depth driller
 DL  .Mtr          2762.3:   Depth logger
 BLI .Mtr            2762:   Bottom log interval
 TLI .Mtr             500:   Top log interval
 CSS .Inch             7":   Casing size
 CTD1.Mtr     7" @ 2581,7:   Casing driller 1
 CTL1.Mtr          2581,7:   Casing logger 1
 BS  .Inch          6 1/8:   Bit size
 DFT .           Spersene:   Type fluid in hole
 DFD .G/c3           1.18:   Density
 DFV .Sec              58:   Viscosity
 COL .Inch           6-16:   Column depth/dia.
 DFPH.                 10:   pH
 DFL .Ml             2.75:   Fluid loss
 WSS .           Flowline:   Source of sample
 RM  .Ohmm           1.07:   Rm
 EMT .Degf 1.07 ohmm @ 83:   Rm Meas. temp.
 RMF .Ohmm           0.57:   Rmf
 MFT .Degf 0.57 ohmm @ 83:   Rmf Meas. temp.
 RMC .Ohmm           1.78:   Rmc
 MCST.Degf 1.78 ohmm @ 83:   Rmc Meas. temp.
 MFSS.              Press:   Source Rmf.
 MCSS.              Press:   Source Rmc.
 RMB .Degf 0.4 ohmm @ 232:   Rm. at BHT
 BHT .Degf            232:   BHT.
 TCS .Hrs               7:   Time Circ. stopped
 MRT .Degf            232:   Maximum recorded temp.
 LUN .               4618:   Logging unit number
 LUL .                WJV:   Logging unit location
 ENGI.           M. Akbar:   Recorded By
 WITN.           M.Dasuki:   Witnessed by
 RE1 .       ILD  (6FF40):   Res. Electrode #1
 RE2 .      SN   (A-16"M):   Res. Electrode #2
 DATE.           02/16/78:   Date logged
 DATE.           03/13/78:   Date logged
 DD  .Mtr            1260:   Depth driller
 DD  .Mtr            2610:   Depth driller
 DL  .Mtr            1260:   Depth logger
 DL  .Mtr            2610:   Depth logger
 BLI .Mtr            1260:   Bottom log interval
 BLI .Mtr          2605.8:   Bottom log interval
 TLI .Mtr             500:   Top log interval
 TLI .Mtr          1254.5:   Top log interval
 CSS .Inch         13 3/8:   Casing size
 CSS .Inch          9 5/8:   Casing size
 CTD1.Mtr             500:   Casing driller 1
 CTD1.Mtr            1254:   Casing driller 1
 CTL1.Mtr             500:   Casing logger 1
 CTL1.Mtr          1254.5:   Casing logger 1
 BS  .Inch         12 1/4:   Bit size
 BS  .Inch          8 5/8:   Bit size
 DFT .           spersene:   Type fluid in hole
 DFT .           spersene:   Type fluid in hole
 DFD .G/c3           1.12:   Density
 DFD .G/c3           1.18:   Density
 DFV .Sec              47:   Viscosity
 DFV .Sec              58:   Viscosity
 DFPH.                  9:   pH
 DFPH.                 10:   pH
 DFL .Ml              5.5:   Fluid loss
 DFL .Ml             2.75:   Fluid loss
 WSS .           flowline:   Source of sample
 WSS .           flowline:   Source of sample
 RM  .Ohmm           1.19:   Rm
 RM  .Ohmm           1.07:   Rm
 EMT .Degf             80:   Rm Meas. temp.
 EMT .Degf             83:   Rm Meas. temp.
 RMF .Ohmm            0.8:   Rmf
 RMF .Ohmm           0.57:   Rmf
 MFT .Degf             80:   Rmf Meas. temp.
 MFT .Degf             83:   Rmf Meas. temp.
 RMC .Ohmm           1.52:   Rmc
 RMC .Ohmm           1.78:   Rmc
 MCST.Degf             80:   Rmc Meas. temp.
 MCST.Degf             83:   Rmc Meas. temp.
 MFSS.                  p:   Source Rmf.
 MFSS.                  p:   Source Rmf.
 MCSS.                  p:   Source Rmc.
 MCSS.                  p:   Source Rmc.
 RMB .Degf 0.63 ohmm @ 150:   Rm. at BHT
 RMB .Degf 0.4 ohmm @ 232:   Rm. at BHT
 BHT .Degf            150:   BHT.
 BHT .Degf            232:   BHT.
 TCS .Hrs               3:   Time Circ. stopped
 TCS .Hrs               7:   Time Circ. stopped
 MRT .Degf            150:   Maximum recorded temp.
 MRT .Degf            232:   Maximum recorded temp.
 LUN .               4618:   Logging unit number
 LUN .               4618:   Logging unit number
 LUL .                wjv:   Logging unit location
 LUL .                wjv:   Logging unit location
 ENGI.           M. Akbar:   Recorded By
 ENGI.           M. Akbar:   Recorded By
 WITN.            Y. Rais:   Witnessed by
 WITN.          M. Dasuki:   Witnessed by
 RE1 .                ILD:   Res. Electrode #1
 RE1 .                ILD:   Res. Electrode #1
 RE2 .                 SN:   Res. Electrode #2
 RE2 .                 SN:   Res. Electrode #2
 TLAB.hh:mm             3:   Time Logger At Bottom
 TLAB.hh:mm             7:   Time Logger At Bottom
 TLAB.hh:mm             7:   Time Logger At Bottom
 DGBY.            Sukarna:   Digitized By
 DGBY.            Sukarna:   Digitized By
 DGBY.            Sukarna:   Digitized By
~T 1 Tops
D1(1453-1455)                    1453.0
~OTHER INFORMATION
# Bridleless tool, Log was correlated with cs. run no.3 4M too deep compared with run.2
~A  DEPTH     CALI         GR         SP        ILD         SN       PROX       NPHI       RHOB        CBL       DRHO
# ...
 1419.1240    14.3224    63.4302    -7.9079     1.5358     1.1882     1.0594    37.1292     2.2705     6.6799    -0.1514
 1419.2770    14.0166    66.4506    -7.7526     1.3510     1.1067     0.8497    41.4454     2.2604    10.6232    -0.1649
 1419.4290    13.1069    69.7105    -7.5967     1.0976     1.0378     0.8439    43.8173     2.2791     9.9712    -0.1661
 1419.5820    12.3077    69.9603    -7.4413     1.0007     0.9875     0.8687    42.9773     2.2705    10.3761    -0.1831
 1419.7340    12.4024    69.0493    -7.1312     0.9455     0.9667     0.8505    42.1840     2.2674    11.0199    -0.1936
 1419.8860    12.4970    70.9237    -6.9758     0.9260     0.9531     0.8693    42.0867     2.2737    10.0136    -0.1826
 1420.0390    11.4497    70.9424    -6.9726     0.9201     0.9397     0.8633    41.2954     2.2961    10.4558    -0.1672
 1420.1910    11.0504    70.2654    -6.9643     0.9479     0.9467     0.8699    41.1541     2.3171    11.4937    -0.1616
 1420.3440    10.9904    69.1279    -6.9560     1.0340     0.9673     0.8954    41.6175     2.3372     5.9056    -0.1552
 1420.4960    10.9310    67.2939    -6.9478     1.1117     1.0171     0.8767    42.3141     2.3543     7.1638    -0.1484
 1420.6480    10.3004    62.4456    -7.0938     1.1871     1.1009     0.8462    42.4986     2.3598     6.5758    -0.1424
 1420.8010    10.2554    60.1563    -6.9312     1.2581     1.2252     0.8525    42.7752     2.3799     5.6804    -0.1482
 1420.9530    10.4917    57.3849    -6.9229     1.3053     1.4239     0.8780    39.1398     2.4172     5.4494    -0.1636
 1421.1060    12.3587    50.6992    -6.9147     1.3638     1.5077     1.2634    37.4646     2.4505     5.8904    -0.1739
 1421.2580    13.6570    48.3994    -6.9064     1.4353     1.6082     1.9258    32.2492     2.4707     6.3695    -0.1802
 1421.4100    13.9997    49.8141    -6.8998     1.5328     1.6201     2.9569    30.3852     2.4909     6.9323    -0.1612
 1421.5630    14.4790    51.2183    -6.8915     1.7453     1.6436     2.2390    31.1279     2.4660     7.2503    -0.1433
 1421.7150    14.3726    51.7000    -7.5027     2.0170     1.6795     1.0733    34.8519     2.4358     7.7296    -0.1366
 1421.8680    14.6683    50.5613    -7.8026     2.2640     1.6918     0.8669    36.3841     2.4272     8.3186    -0.1354
 1422.0200    14.7162    45.4874    -7.4840     2.2175     1.8436     0.9051    31.4475     2.4528     9.2477    -0.0983
 1422.1720    14.2709    40.6450    -7.4757     1.9496     1.9948     1.6194    28.4080     2.5002    10.0494    -0.1356
 1422.3250    14.1960    40.6637    -7.7761     1.7649     2.0675    12.1809    23.9027     2.5157    10.1290    -0.1267
 1422.4770    14.0414    43.4645    -8.5396     1.7160     1.9667    31.9498    22.4115     2.5366     9.7013    -0.0712
 1422.6300    12.1236    47.8771    -8.6872     1.6808     1.6812    34.8142    26.4586     2.5164     9.6082    -0.0411
 1422.7820    10.8066    53.9152    -8.5228     1.6701     1.5655     4.7170    33.5329     2.4823     9.9038    -0.0536
 1422.9340    10.5284    62.0345    -8.0499     1.6238     1.5001     0.8090    42.8400     2.4092     9.9833    -0.0839
 1423.0870    10.6688    63.2073    -7.4261     1.5456     1.4896     0.8209    43.0704     2.3611     9.5046    -0.1275
 1423.2390    12.7183    61.1370    -7.1092     1.3788     1.4899     0.8573    41.4785     2.3813     9.4125    -0.1356
 1423.3920    14.4225    56.5317    -7.4096     1.2751     1.4585     0.9961    39.0166     2.3976     9.8357    -0.1476
 1423.5440    16.0205    54.9263    -7.5558     1.2309     1.4278     1.5523    33.4285     2.3961     9.7600    -0.1523
 1423.6960    16.5947    59.1300    -7.8584     1.2681     1.4178     4.4326    32.6358     2.4170     9.2468    -0.0943
 1423.8490    15.4638    65.3842    -8.1581     1.3060     1.3880     1.7279    38.0794     2.3813     9.3750    -0.1213
 1424.0010    15.9770    68.6463    -8.7673     1.3163     1.3017     1.0485    41.4308     2.3479     9.9233    -0.1471
 1424.1540    16.4423    70.5142    -8.9148     1.2262     1.2297     0.9628    42.8232     2.3230     9.3038    -0.1621
 1424.3060    17.2649    71.4588    -8.5962     1.0783     1.1699     0.9562    43.1935     2.3137     8.8399    -0.1510
 1424.4580    16.4420    70.7778    -8.4336     1.0334     1.1209     0.9635    42.9582     2.3269     9.0586    -0.1366
 1424.6110    15.6076    68.7184    -8.4254     0.9980     1.0974     0.9366    42.7704     2.3416     9.4925    -0.1328
 1424.7630    15.9963    65.9575    -8.5731     0.9988     1.0820     0.9641    42.8619     2.3292    10.1675    -0.1544
 1424.9160    15.2995    64.8169    -8.5631     1.0068     1.0822     0.9713    42.5801     2.3106    10.8297    -0.1619
 1425.0680    15.2537    64.3690    -8.5549     1.0370     1.0901     0.9998    42.6830     2.3082    11.9556    -0.1590
 1425.2200    15.4262    64.8603    -8.3923     1.0758     1.0981     0.9930    42.6801     2.3405    12.9294    -0.1537
 1425.3730    15.7517    66.9564    -8.3840     1.1078     1.1141     1.0221    42.4920     2.3514    14.4116    -0.1485
 1425.5250    15.6280    68.1330    -8.0669     1.1576     1.1466     1.0371    41.0927     2.3553    16.0797    -0.1323
 1425.6780    15.2417    68.6142    -7.9045     1.2182     1.1801     1.0010    40.6719     2.3724    17.7379    -0.1218
 1425.8300    13.3820    68.4010    -7.5875     1.3006     1.2232     1.0528    40.0640     2.3786    19.3928    -0.1249
 1425.9820    13.1348    67.0267    -7.2703     1.3789     1.2771     1.1558    39.1750     2.3802    20.5224    -0.1503
 1426.1350    14.2676    64.9666    -7.1097     1.4719     1.3237     1.2239    38.0115     2.3724    21.0582    -0.1357
 1426.2870    15.2920    63.5197    -6.9472     1.5604     1.3820     1.2873    37.0751     2.3910    20.2061    -0.1329
 1426.4400    15.4320    61.4507    -7.0949     1.6539     1.4427     1.4127    35.0281     2.4004    21.1643    -0.1425
 1426.5920    14.9679    60.5363    -7.2409     1.7406     1.4953     1.6070    32.7914     2.4136    21.4619    -0.1532
 1426.7440    14.5189    60.0843    -7.6960     1.7928     1.5612     1.7265    31.8078     2.4136    21.6890    -0.1609
 1426.8970    14.4114    59.8626    -7.8417     1.8465     1.6066     1.7395    30.3196     2.4089    20.3472    -0.1398
 1427.0490    14.4901    60.5723    -7.8318     1.8747     1.6069     1.8034    29.8052     2.4198    18.0821    -0.1284
 1427.2020    14.5684    61.5083    -7.8235     1.8762     1.6303     1.8562    29.8959     2.4501    15.8735    -0.1230
 1427.3540    14.5691    61.5198    -7.8152     1.8640     1.6541     1.6446    30.9641     2.4439    14.5259    -0.1085
 1427.5060    14.3823    61.5297    -7.9633     1.8259     1.6543     1.7051    31.1020     2.4509    11.3745    -0.1129
 1427.6590    13.7957    61.7720    -8.1090     1.8011     1.6665     1.7674    31.1921     2.4160     8.6764    -0.1264
 1427.8110    12.7720    62.4779    -8.4091     1.7768     1.7029     1.7934    32.0751     2.4184     7.0210    -0.1183
 1427.9640    11.5804    62.4894    -8.7081     1.8039     1.7401     1.6704    33.0026     2.4253     5.4494    -0.1302
 1428.1160    11.2710    62.7325    -9.0101     1.8580     1.7781     1.5228    33.6985     2.4044     4.0860    -0.1420
 1428.2680    11.5373    63.2069    -9.1566     1.9557     1.8301     1.5675    33.5073     2.4013     3.9273    -0.1413
 1428.4210    12.1102    62.0610    -9.3006     2.0579     1.9104     1.5792    32.6231     2.4231     3.8575    -0.1184
 1428.5730    12.2522    56.9729    -9.2939     2.1816     2.0822     1.5243    30.9346     2.4595     3.9824    -0.1050
 1428.7260    13.4608    51.6673    -9.4417     2.3627     2.3680     1.6261    27.7778     2.4719     4.5051    -0.1342
 1428.8780    13.7717    46.3548    -9.5877     2.7496     2.8519     1.8630    23.9585     2.4882     5.7280    -0.1540
 1429.0300    13.8966    43.1188   -10.1982     3.2240     3.6911     1.9219    20.6897     2.5092     6.2734    -0.1713
 1429.1830    13.8973    40.3592   -10.8041     3.6446     4.5069     3.6735    17.3440     2.5154     5.8228    -0.1790
