~VERSION INFORMATION
 VERS.               1.20:   CWLS LOG ASCII STANDARD - VERSION 1.20
 WRAP.                 NO:   ONE LINE PER DEPTH STEP
~WELL INFORMATION
#MNEM.UNIT      DATA TYPE    INFORMATION
#----------   ------------   ------------------------------
 STRT.M          500.1524:   START DEPTH
 STOP.M         2803.2212:   STOP DEPTH
 STEP.M            0.1524:   STEP LENGTH
 NULL.          -999.2500:   NO VALUE
 COMP.            COMPANY:   PERTAMINA
 WELL.               WELL:   CMS-005
 WBN .            CMS-005:   WELLBORE
 FLD .              FIELD:   CEMARA SELATAN
 LOC .           LOCATION:   X = - 15283.31  Y = + 8483.38
 PROV.           PROVINCE:   JAWA BARAT
 STAT.              STATE:   INDONESIA
 SRVC.    SERVICE COMPANY:   SCHLUMBERGER
 DATE.            LOGDATE:   01/24/78
 APIN.         API NUMBER:   -
 UWI .  CEMARASELATAN-005:   UNIQUE WELL ID 
~CURVE INFORMATION
#MNEM.UNIT       API CODE    CURVE DESCRIPTION
#----------   ------------   ------------------------------
 DEPT.M                  :
 CALI.inch   60 280 00 00:   Caliper
 GR  .GAPI   42 310 00 00:   Gamma Ray
 SP  .mV     60 010 01 00:   Spontaneous Potential
 ILD .ohmm   05 070 46 00:   Induction Laterolog, Deep
 SN  .ohmm   05 040 16 00:   Short Normal 16"
 PROX.ohmm   21 270 30 00:   Proximity Log
 NPHI.%      42 890 03 00:   Neu. Porosity, Ss [%]
 RHOB.kg/cm3 42 350 01 00:   Bulk Density
 CBL .mV     81 524 00 00:   Cement Bond Log
 DRHO.kg/m3  42 356 01 00:   Density Correction
~PARAMETER INFORMATION
#MNEM.UNIT          VALUE    DESCRIPTION
#----------   ------------   ------------------------------
 EKB .M            0.0000:   Kelly bushing
 EGL .M            4.7500:   Ground level
 EDF .M           10.0000:   Drilling floor
 EPD .M           10.0000:   Permanent datum
 TD  .M         2793.0000:   Total depth
 DF  .      CONGLONGMERAT:   Deepest formation
 PROJ.       SCHLUMBERGER:   Project
 DATE.           01/24/78:   Date logged
 DD  .Mtr            2793:   Depth driller
 DL  .Mtr          2762.3:   Depth logger
 BLI .Mtr            2762:   Bottom log interval
 TLI .Mtr             500:   Top log interval
 CSS .Inch             7":   Casing size
 CTD1.Mtr     7" @ 2581,7:   Casing driller 1
 CTL1.Mtr          2581,7:   Casing logger 1
 BS  .Inch          6 1/8:   Bit size
 DFT .           Spersene:   Type fluid in hole
 DFD .G/c3           1.18:   Density
 DFV .Sec              58:   Viscosity
 COL .Inch           6-16:   Column depth/dia.
 DFPH.                 10:   pH
 DFL .Ml             2.75:   Fluid loss
 WSS .           Flowline:   Source of sample
 RM  .Ohmm           1.07:   Rm
 EMT .Degf 1.07 ohmm @ 83:   Rm Meas. temp.
 RMF .Ohmm           0.57:   Rmf
 MFT .Degf 0.57 ohmm @ 83:   Rmf Meas. temp.
 RMC .Ohmm           1.78:   Rmc
 MCST.Degf 1.78 ohmm @ 83:   Rmc Meas. temp.
 MFSS.              Press:   Source Rmf.
 MCSS.              Press:   Source Rmc.
 RMB .Degf 0.4 ohmm @ 232:   Rm. at BHT
 BHT .Degf            232:   BHT.
 TCS .Hrs               7:   Time Circ. stopped
 MRT .Degf            232:   Maximum recorded temp.
 LUN .               4618:   Logging unit number
 LUL .                WJV:   Logging unit location
 ENGI.           M. Akbar:   Recorded By
 WITN.           M.Dasuki:   Witnessed by
 RE1 .       ILD  (6FF40):   Res. Electrode #1
 RE2 .      SN   (A-16"M):   Res. Electrode #2
 DATE.           02/16/78:   Date logged
 DATE.           03/13/78:   Date logged
 DD  .Mtr            1260:   Depth driller
 DD  .Mtr            2610:   Depth driller
 DL  .Mtr            1260:   Depth logger
 DL  .Mtr            2610:   Depth logger
 BLI .Mtr            1260:   Bottom log interval
 BLI .Mtr          2605.8:   Bottom log interval
 TLI .Mtr             500:   Top log interval
 TLI .Mtr          1254.5:   Top log interval
 CSS .Inch         13 3/8:   Casing size
 CSS .Inch          9 5/8:   Casing size
 CTD1.Mtr             500:   Casing driller 1
 CTD1.Mtr            1254:   Casing driller 1
 CTL1.Mtr             500:   Casing logger 1
 CTL1.Mtr          1254.5:   Casing logger 1
 BS  .Inch         12 1/4:   Bit size
 BS  .Inch          8 5/8:   Bit size
 DFT .           spersene:   Type fluid in hole
 DFT .           spersene:   Type fluid in hole
 DFD .G/c3           1.12:   Density
 DFD .G/c3           1.18:   Density
 DFV .Sec              47:   Viscosity
 DFV .Sec              58:   Viscosity
 DFPH.                  9:   pH
 DFPH.                 10:   pH
 DFL .Ml              5.5:   Fluid loss
 DFL .Ml             2.75:   Fluid loss
 WSS .           flowline:   Source of sample
 WSS .           flowline:   Source of sample
 RM  .Ohmm           1.19:   Rm
 RM  .Ohmm           1.07:   Rm
 EMT .Degf             80:   Rm Meas. temp.
 EMT .Degf             83:   Rm Meas. temp.
 RMF .Ohmm            0.8:   Rmf
 RMF .Ohmm           0.57:   Rmf
 MFT .Degf             80:   Rmf Meas. temp.
 MFT .Degf             83:   Rmf Meas. temp.
 RMC .Ohmm           1.52:   Rmc
 RMC .Ohmm           1.78:   Rmc
 MCST.Degf             80:   Rmc Meas. temp.
 MCST.Degf             83:   Rmc Meas. temp.
 MFSS.                  p:   Source Rmf.
 MFSS.                  p:   Source Rmf.
 MCSS.                  p:   Source Rmc.
 MCSS.                  p:   Source Rmc.
 RMB .Degf 0.63 ohmm @ 150:   Rm. at BHT
 RMB .Degf 0.4 ohmm @ 232:   Rm. at BHT
 BHT .Degf            150:   BHT.
 BHT .Degf            232:   BHT.
 TCS .Hrs               3:   Time Circ. stopped
 TCS .Hrs               7:   Time Circ. stopped
 MRT .Degf            150:   Maximum recorded temp.
 MRT .Degf            232:   Maximum recorded temp.
 LUN .               4618:   Logging unit number
 LUN .               4618:   Logging unit number
 LUL .                wjv:   Logging unit location
 LUL .                wjv:   Logging unit location
 ENGI.           M. Akbar:   Recorded By
 ENGI.           M. Akbar:   Recorded By
 WITN.            Y. Rais:   Witnessed by
 WITN.          M. Dasuki:   Witnessed by
 RE1 .                ILD:   Res. Electrode #1
 RE1 .                ILD:   Res. Electrode #1
 RE2 .                 SN:   Res. Electrode #2
 RE2 .                 SN:   Res. Electrode #2
 TLAB.hh:mm             3:   Time Logger At Bottom
 TLAB.hh:mm             7:   Time Logger At Bottom
 TLAB.hh:mm             7:   Time Logger At Bottom
 DGBY.            Sukarna:   Digitized By
 DGBY.            Sukarna:   Digitized By
 DGBY.            Sukarna:   Digitized By
~T 1 Tops
D1(1453-1455)                    1453.0
~OTHER INFORMATION
# Bridleless tool, Log was correlated with cs. run no.3 4M too deep compared with run.2
~A  DEPTH     CALI         GR         SP        ILD         SN       PROX       NPHI       RHOB        CBL       DRHO
# ...
 2327.8850     9.7135    60.2222    12.0033     3.5394     5.1081     2.3324    14.4646     2.5977     5.9897    -0.1599
 2328.0380     9.8377    59.0761    12.1624     3.2962     4.1857     2.4712    15.2036     2.5993     6.7335    -0.1671
 2328.1900     9.7920    56.0645    12.1674     3.0909     3.4512     3.0026    14.6398     2.5844     7.2559    -0.1861
 2328.3430     9.6851    54.2249    12.1723     2.9621     3.1466     3.8031    13.5247     2.5651     7.1371    -0.1923
 2328.4950     9.6707    52.3797    12.1773     2.9208     3.0152     3.9154    11.3820     2.5643     6.3057    -0.1994
 2328.6480     9.6253    52.1575    12.3370     2.9431     2.9942     3.8336     9.7992     2.5808     4.7514    -0.1993
 2328.8000     9.5489    49.8505    12.3419     3.0737     3.1712     8.6258     9.4718     2.5956     4.3603    -0.1905
 2328.9520     9.5342    47.0766    12.3474     3.1873     3.6338    12.7106     9.7498     2.6011     3.6744    -0.1845
 2329.1050     9.5354    48.9466    12.5066     3.2576     3.8477     3.5216    10.2575     2.6082     3.5057    -0.1837
 2329.2570     9.6137    51.5137    12.6663     3.2824     3.8486     2.4262    10.8613     2.5887     3.7591    -0.1787
 2329.4100     9.6766    51.9901    12.6713     3.3549     3.7409     2.8016    12.0674     2.5786     5.9251    -0.1815
 2329.5620     9.6930    50.8416    12.6762     3.4291     3.5592     3.3774    13.0889     2.5638     9.0542    -0.2007
 2329.7140     9.6630    48.9905    12.6811     3.5560     3.5599     3.7108    12.5264     2.5733    11.4259    -0.1767
 2329.8670     9.6178    47.1513    12.6861     3.7134     3.6378     4.6677    11.6885     2.6162    13.9822    -0.1590
 2330.0190     9.6341    45.5342    12.6912     3.9062     3.7711     9.7059     9.6843     2.6342    13.4247    -0.1471
 2330.1720     9.5889    43.9230    12.8498     4.1383     3.9652     8.3520     7.7770     2.6608    11.4814    -0.1705
 2330.3240     9.5743    42.5398    12.8547     4.3219     4.3522     7.8324     6.7514     2.6437     9.3801    -0.1790
 2330.4760     9.6530    44.1846    12.7041     4.4816     4.9872     8.5413     6.1915     2.6265     7.4096    -0.1564
 2330.6290     9.7311    46.2823    12.3992     4.6135     5.5119     8.8553     6.8865     2.6375     6.3500    -0.1468
 2330.7810     9.7937    49.5503    11.9401     4.6152     5.6729     5.0620     8.0024     2.6180     6.0522    -0.1643
 2330.9340     9.7947    53.2732    11.4813     4.6165     5.6335     4.1435     9.5331     2.6040     6.6206    -0.1635
 2331.0860     9.7801    56.5369    11.4863     4.5521     5.3600     3.6168    10.6008     2.5900     7.7256    -0.1676
 2331.2380     9.7502    57.7074    11.8014     4.4567     5.0262     3.9783    11.1583     2.5579     8.2866    -0.1876
 2331.3910     9.7514    54.4716    12.1153     4.2710     4.5174     6.6599    11.8984     2.5354     9.7046    -0.1976
 2331.5430     9.7988    52.3942    12.2752     3.9478     4.1468     7.4729    13.3401     2.5011     9.3015    -0.1935
 2331.6960     9.8152    54.0321    12.4347     3.5215     3.9740     4.8612    14.7315     2.4738     7.7319    -0.1741
 2331.8480     9.9556    56.3679    12.5945     2.9654     3.8626     1.8596    18.0376     2.4004     9.5567    -0.0865
 2332.0000    10.3607    58.4713    12.5994     2.4611     3.5448     1.5106    27.1573     2.3074    11.9950     0.0031
 2332.1530    11.3175    59.4100    12.4486     2.1337     3.0093     1.2911    31.6085     2.2382    11.9619     0.0137
 2332.3050    11.8289    59.1854    12.4545     1.9164     2.4634     1.1598    33.7927     2.1227    20.7239    -0.0123
 2332.4580    12.0150    57.8071    12.4594     1.6852     2.0323     1.1855    34.0691     2.1352     9.6745    -0.0458
 2332.6100    12.0779    56.6560    12.3086     1.4091     1.7495     1.3303    32.7179     2.2313    11.2238    -0.0671
 2332.7620    11.9853    55.9658    12.3135     1.2840     1.5944     1.5266    30.4293     2.3135    11.1983    -0.0799
 2332.9150    11.6778    52.9683    12.1627     1.2482     1.4850     2.0474    27.8762     2.3781    10.7402    -0.1099
 2333.0670    10.5193    50.6541    12.1689     1.2578     1.4747     1.6281    26.1460     2.4375    11.0741    -0.1470
 2333.2190    10.3195    48.3373    12.3283     1.3330     1.4754     1.6656    22.6513     2.4431    18.7379    -0.1837
 2333.3720    10.3826    45.3431    12.3332     1.4844     1.5401     2.0205    19.8694     2.4790    11.0968    -0.1774
 2333.5240    10.2129    42.5620    12.3382     1.7022     1.6552     2.6547    18.2779     2.5080    12.9663    -0.1625
 2333.6770     9.9982    40.2597    12.3431     1.8554     1.8686     2.3174    15.7719     2.5274    15.2600    -0.1629
 2333.8290     9.8910    38.4132    12.3481     2.0376     2.0219     1.8295    13.2571     2.5345    18.5120    -0.1875
 2333.9820     9.8764    36.3372    12.3530     2.2213     2.1412     2.1587    11.9069     2.5181    16.4894    -0.1975
 2334.1340     9.9547    34.7243    12.3579     2.4745     2.4183     7.1035    10.8818     2.5447    14.1082    -0.1827
 2334.2860     9.6924    34.5021    12.3629     2.7378     2.8521     3.7534     9.2485     2.5752    14.3376    -0.1827
 2334.4390     9.4778    35.4458    12.3678     3.0055     3.2198     4.4284     8.3196     2.5799    13.9351    -0.1923
 2334.5910     9.5097    35.9202    12.3727     3.3008     3.3858     4.6580     9.2474     2.5886    14.1188    -0.1991
 2334.7440     9.5571    33.6106    12.3777     3.5985     3.5600     2.6822     9.6174     2.5730    15.8854    -0.1793
 2334.8960     9.6508    31.9977    12.3826     3.7046     3.7168    10.5614     9.0565     2.5925    14.8083    -0.1665
 2335.0480     9.7289    32.2447    12.0777     3.6267     3.8256     9.7568     8.8681     2.5848     9.9282    -0.1611
 2335.2010     9.6990    33.4158    11.9271     3.4015     3.9091     6.1715     8.8194     2.6137     8.7177    -0.1747
 2335.3530     9.6381    34.5906    11.7761     3.0554     4.0233     7.0761     8.9108     2.5918     8.5434    -0.1936
 2335.5060     9.5465    35.7627    11.6264     2.7846     4.0531     2.0174     9.4660     2.5388     8.7114    -0.1944
 2335.6580     9.5318    37.4014    11.6323     2.7069     3.8014     1.7735    11.0462     2.5225     9.8624    -0.1977
 2335.8100     9.6568    40.1994    11.7921     2.6500     3.3423     1.5483    14.5789     2.5077    10.6376    -0.2201
 2335.9630     9.7195    39.7475    11.7970     2.5578     2.8577     2.0489    15.0876     2.5210    10.7623    -0.2191
 2336.1150     9.6587    39.0605    11.8019     2.3646     2.6995     5.0246    13.3616     2.5413    12.6258    -0.1982
 2336.2680     9.7370    38.8411    11.8069     2.4169     2.6808     3.2686    11.5942     2.5703    13.9709    -0.2037
 2336.4200     9.7535    39.0882    11.6560     2.5791     2.7202     2.3675    11.0343     2.5844    15.4285    -0.2124
 2336.5730     9.7236    37.9397    11.6619     2.7719     2.8399     1.7399    11.6375     2.5688    16.8800    -0.2021
 2336.7250     9.7092    35.3980    11.3573     3.0658     3.1618     4.8554    12.3325     2.5798    16.2755    -0.1920
 2336.8770     9.6482    32.8508    11.2062     3.3428     3.3250     7.3103    10.6048     2.5954    13.2807    -0.2022
 2337.0300     9.5566    31.0062    11.0576     3.4906     3.4959     4.0325     8.0950     2.6111    14.5203    -0.2062
 2337.1820     9.5265    31.2540    11.0625     3.6195     3.9205     3.1382     7.3950     2.5955    13.4437    -0.1928
 2337.3340     9.5275    32.1965    10.9116     3.7539     4.2725     6.3415     7.2061     2.6025    12.4273    -0.1897
 2337.4870     9.4820    32.9036    11.0724     4.0918     4.4284     4.6266     6.9719     2.6096    11.5068    -0.1943
 2337.6390     9.4214    31.9847    11.0776     4.3982     4.6569     7.7577     6.6438     2.6175    10.9416    -0.1957
 2337.7920     9.4067    30.6066    11.2360     4.5929     4.8270     5.6607     6.4558     2.6269    10.2417    -0.1874
 2337.9440     9.4079    30.1521    11.2410     4.6945     5.1121     6.9221     6.2209     2.6300     9.7643    -0.1819
