~Version Information
VERS  .          2.0                              :CWLS Log Ascii Standard - Version 2.0
WRAP  .          NO                               :One line per depth step
~Well Information Block
#MNEM.UNIT       Data Type                        Information
#---------       ---------                        -------------------------------
STRT  .M         501.09100                        :START DEPTH
STOP  .M         2801.87400                       :STOP DEPTH
STEP  .M          0.15240                         :INCREMENT
NULL  .          -999.25                          :NULL DATA VALUE
COMP  .          PERTAMINA                        :COMPANY
WELL  .          CMS-005                          :WELL
WBN   .          CMS-005                          :WELLBORE
FLD   .          CEMARA SELATAN                   :FIELD
LOC   .                                           :LOCATION
PROV  .          INDONESIA                        :PROVINCE
STAT  .          INDONESIA                        :STATE
CNTY  .                                           :COUNTY
CTRY  .                                           :COUNTRY
DATE  .                                           :DATE
UWI   .          CEMARASELATAN-005                :UNIQUE WELL UWI
LIC   .                                           :LICENSE NUMBER
API   .                                           :API NUMBER
SRVC  .                                           :SERVICE COMPANY
~Parameter Information Block
#MNEM.UNIT       Value                            Description
#---------       ---------                        -------------
LONG  .DEG       108.170923                       :Well Surface Location
LATI  .DEG       -6.423032                        :Well Surface Location
XWELL .M         187032.670000                    :X-coordinate of Well Head
YWELL .M         9289167.261000                   :Y-coordinate of Well Head
~Curve Information Block
#MNEM.UNIT       API Code            Curve    Description
#--------        --------------      -----    -------------------
DEPT  .M                             :0       Index
KGAS  .MD                            :1       Permeability to Gas           
KINT  .MD                            :2       Intrinsic Permeability        
KOIL  .MD                            :3       Permeability to Oil           
KWTR  .MD                            :4       Permeability to Water         
PHIT  .V/V                           :5       Total Porosity_ includes all forms of porosity, including that occupied by bound fluids, and is independent of rock and fluid materials and of environmental effects
PHTT  .V/V                           :6       Theoretical PHIT Value        
PIGE  .V/V                           :7       Effective Porosity Less Irreducible Water
PIGN  .V/V                           :8       Effective Porosity, VISO, VPAR, and Bound Water Removed
SUWI  .V/V                           :9       Non-Clay Water Intergranular Water Saturation for Undisturbed Zone
VILL  .V/V                           :10      Volume of Illite (dry) Relative to Total Volume
~Ascii Data Section
# ...
   1666.03660       0.00100       0.04556       0.00100       0.04556       0.23634       0.26441       0.16593       0.16593       1.00000       0.38508 
   1666.18900       0.00100       0.02588       0.00100       0.02588       0.23330       0.26337       0.15800       0.15800       1.00000       0.41185 
   1666.34140       0.00100       0.09867       0.00100       0.09867       0.24178       0.26934       0.17258       0.17258       1.00000       0.37844 
   1666.49380       0.00100       0.20360       0.00100       0.20360       0.24403       0.26918       0.18028       0.18028       1.00000       0.34863 
   1666.64620       0.00100       0.10009       0.00100       0.10009       0.23513       0.26152       0.16891       0.16891       1.00000       0.36215 
   1666.79860       0.00100       0.08759       0.00100       0.08759       0.23205       0.25751       0.16823       0.16823       1.00000       0.34906 
   1666.95100       0.00100       0.09810       0.00100       0.09810       0.22732       0.25194       0.16565       0.16565       1.00000       0.33727 
   1667.10340       0.00100       0.53642       0.00100       0.53642       0.23818       0.26017       0.18262       0.18262       1.00000       0.30390 
   1667.25580       0.00100       0.70534       0.00100       0.70534       0.23603       0.25684       0.18284       0.18284       1.00000       0.29092 
   1667.40820       0.00100       1.89759       0.00100       1.89759       0.24410       0.26186       0.19774       0.19774       1.00000       0.25353 
   1667.56060       0.00157       1.85033       0.00100       0.71635       0.26842       0.28701       0.21955       0.21955       0.99333       0.26729 
   1667.71300       0.00100       0.69528       0.00100       0.69528       0.26942       0.29146       0.21295       0.21295       1.00000       0.30886 
   1667.86540       0.00100       0.64716       0.00100       0.64716       0.26385       0.28586       0.20728       0.20728       1.00000       0.30936 
   1668.01780       0.00100       0.29287       0.00100       0.29287       0.25270       0.27688       0.19097       0.19097       1.00000       0.33764 
   1668.17020       0.00100       0.12984       0.00100       0.12984       0.23943       0.26590       0.17263       0.17263       1.00000       0.36536 
   1668.32260       0.00100       0.11286       0.00100       0.11286       0.23392       0.26056       0.16660       0.16660       1.00000       0.36818 
   1668.47500       0.00100       0.10231       0.00100       0.10231       0.23931       0.26653       0.17065       0.17065       1.00000       0.37552 
   1668.62740       0.00100       0.09825       0.00100       0.09825       0.23416       0.26127       0.16573       0.16573       1.00000       0.37428 
   1668.77980       0.00100       0.11160       0.00100       0.11160       0.22772       0.25404       0.16101       0.16101       1.00000       0.36485 
   1668.93220       0.00100       0.11964       0.00100       0.11964       0.22545       0.25142       0.15956       0.15956       1.00000       0.36040 
   1669.08460       0.00100       0.09405       0.00100       0.09405       0.22074       0.24741       0.15353       0.15353       1.00000       0.36762 
   1669.23700       0.00100       0.05642       0.00100       0.05642       0.21224       0.24022       0.14211       0.14211       1.00000       0.38353 
   1669.38940       0.00100       0.04581       0.00100       0.04581       0.20631       0.23463       0.13538       0.13538       1.00000       0.38793 
   1669.54180       0.00100       0.06943       0.00100       0.06943       0.21118       0.23835       0.14282       0.14282       1.00000       0.37383 
   1669.69420       0.00100       0.16793       0.00100       0.16793       0.22485       0.24942       0.16169       0.16169       1.00000       0.34543 
   1669.84660       0.00100       0.24395       0.00100       0.24395       0.23347       0.25724       0.17225       0.17225       1.00000       0.33483 
   1669.99900       0.00100       0.22825       0.00100       0.22825       0.24391       0.26858       0.18107       0.18107       1.00000       0.34368 
   1670.15140       0.00100       0.14777       0.00100       0.14777       0.25618       0.28268       0.18957       0.18957       1.00000       0.36429 
   1670.30380       0.00100       0.05364       0.00100       0.05364       0.26230       0.29145       0.18928       0.18928       1.00000       0.39933 
   1670.45620       0.00100       0.01239       0.00100       0.01239       0.28619       0.31928       0.20333       0.20333       1.00000       0.45321 
   1670.60860       0.00100       0.02857       0.00100       0.02857       0.30891       0.34045       0.22991       0.22991       1.00000       0.43206 
   1670.76100       0.00100       0.06837       0.00100       0.06837       0.31238       0.34255       0.23684       0.23684       1.00000       0.41318 
   1670.91340       0.00100       0.15197       0.00100       0.01000       0.31493       0.34317       0.24418       0.24418       0.99879       0.38694 
   1671.06580       0.00100       0.14090       0.00100       0.14090       0.31485       0.34333       0.24354       0.24354       1.00000       0.39004 
   1671.21820       0.00100       0.08952       0.00100       0.08952       0.30891       0.33866       0.23439       0.23439       1.00000       0.40755 
   1671.37060       0.00100       0.01832       0.00100       0.01832       0.28856       0.32025       0.20918       0.20918       1.00000       0.43416 
   1671.52300       0.00100       0.04180       0.00100       0.04180       0.28287       0.31218       0.20948       0.20948       1.00000       0.40141 
   1671.67540       0.00100       0.02048       0.00100       0.02048       0.25657       0.28567       0.18369       0.18369       1.00000       0.39859 
   1671.82780       0.00100       0.02176       0.00100       0.02176       0.23848       0.26638       0.16855       0.16855       1.00000       0.38242 
   1671.98020       0.00100       0.03480       0.00100       0.03480       0.21476       0.24096       0.14913       0.14913       1.00000       0.35890 
   1672.13260       0.00100       0.03995       0.00100       0.03995       0.21054       0.23701       0.14426       0.14426       1.00000       0.36254 
   1672.28500       0.00100       0.10311       0.00100       0.10311       0.22697       0.25381       0.15974       0.15974       1.00000       0.36770 
   1672.43740       0.00100       0.14096       0.00100       0.14096       0.24145       0.26780       0.17508       0.17508       1.00000       0.36296 
   1672.58980       0.00100       0.11974       0.00100       0.11974       0.24631       0.27340       0.17819       0.17819       1.00000       0.37257 
   1672.74220       0.00100       0.05628       0.00100       0.05628       0.24202       0.27141       0.16839       0.16839       1.00000       0.40266 
   1672.89460       0.00100       0.02569       0.00100       0.02569       0.24034       0.27213       0.16072       0.16072       1.00000       0.43546 
   1673.04700       0.00100       0.01540       0.00100       0.01540       0.23442       0.26757       0.15138       0.15138       1.00000       0.45413 
   1673.19940       0.00100       0.01379       0.00100       0.01379       0.22828       0.26044       0.14775       0.14775       1.00000       0.44045 
   1673.35180       0.00100       0.01898       0.00100       0.01898       0.23493       0.26603       0.15703       0.15703       1.00000       0.42603 
   1673.50420       0.00100       0.02313       0.00100       0.02313       0.24233       0.27452       0.16168       0.16168       1.00000       0.44105 
   1673.65660       0.00100       0.02876       0.00100       0.02876       0.24659       0.27827       0.16725       0.16725       1.00000       0.43390 
   1673.80900       0.00100       0.03765       0.00100       0.03765       0.24066       0.27127       0.16401       0.16401       1.00000       0.41921 
