~Version Information
VERS  .          2.0                              :CWLS Log Ascii Standard - Version 2.0
WRAP  .          NO                               :One line per depth step
~Well Information Block
#MNEM.UNIT       Data Type                        Information
#---------       ---------                        -------------------------------
STRT  .M         1190.09200                       :START DEPTH
STOP  .M         2429.86500                       :STOP DEPTH
STEP  .M          0.15240                         :INCREMENT
NULL  .          -999.25                          :NULL DATA VALUE
COMP  .                                           :COMPANY
WELL  .          CMS-001                          :WELL
WBN   .          CMS-001                          :WELLBORE
FLD   .          CEMARA SELATAN                   :FIELD
LOC   .                                           :LOCATION
PROV  .                                           :PROVINCE
STAT  .                                           :STATE
CNTY  .                                           :COUNTY
CTRY  .                                           :COUNTRY
DATE  .                                           :DATE
UWI   .          CEMARASELATAN-001                :UNIQUE WELL UWI
LIC   .                                           :LICENSE NUMBER
API   .                                           :API NUMBER
SRVC  .                                           :SERVICE COMPANY
~Parameter Information Block
#MNEM.UNIT       Value                            Description
#---------       ---------                        -------------
LONG  .DEG       108.170925                       :Well Surface Location
LATI  .DEG       -6.422919                        :Well Surface Location
XWELL .M         187032.780005                    :X-coordinate of Well Head
YWELL .M         9289179.840752                   :Y-coordinate of Well Head
~Curve Information Block
#MNEM.UNIT       API Code            Curve    Description
#--------        --------------      -----    -------------------
DEPT  .M                             :0       Index
KGAS  .MD                            :1       Permeability to Gas           
KINT  .MD                            :2       Intrinsic Permeability        
KOIL  .MD                            :3       Permeability to Oil           
KWTR  .MD                            :4       Permeability to Water         
PHIT  .V/V                           :5       Total Porosity_ includes all forms of porosity, including that occupied by bound fluids, and is independent of rock and fluid materials and of environmental effects
PHTT  .V/V                           :6       Theoretical PHIT Value        
PIGE  .V/V                           :7       Effective Porosity Less Irreducible Water
PIGN  .V/V                           :8       Effective Porosity, VISO, VPAR, and Bound Water Removed
RHGA  .G/C3                          :9       Apparent Grain Density        
SUWI  .V/V                           :10      Non-Clay Water Intergranular Water Saturation for Undisturbed Zone
VCHL  .V/V                           :11      Volume of Chlorite Relative to Total Volume
VCL   .V/V                           :12      Volume of Clay Type Material Relative to Total Volume
VCLC  .V/V                           :13      Volume of Calcite Relative to Total Volume
VCOA  .V/V                           :14      Volume of Coal Relative to Total Volume
VDOL  .V/V                           :15      Volume of Dolomite Relative to Total Volume
VFEL  .V/V                           :16      Volume of Feldspar Relative to Total Volume
VIGN  .V/V                           :17      Volume of Igneous Rock Relative to Total Volume
VILL  .V/V                           :18      Volume of Illite (dry) Relative to Total Volume
VMHY  .V/V                           :19      Volume of Moved Hydrocarbon Relative to Total Volume
VQUA  .V/V                           :20      Volume of Quartz Relative to Total Volume
VUGA  .V/V                           :21      Volume of Gas in Undisturbed Zone
VUOI  .V/V                           :22      Volume of Oil in Undisturbed Zone
VUWA  .V/V                           :23      Volume of Water in Undisturbed Zone
VXBW  .V/V                           :24      Volume of Bound Water in Flushed Zone
VXGA  .V/V                           :25      Volume of Gas in Flushed Zone 
VXOI  .V/V                           :26      Volume of Oil in Flushed Zone 
VXWA  .V/V                           :27      Volume of Water in Flushed Zone
~Ascii Data Section
# ...
   1932.58480       0.00100       0.04112       0.00100       0.04112       0.19226       0.22974       0.13197       0.13197       2.71617       1.00000       0.00000       0.46023       0.00000       0.00000       0.00000       0.00000       0.00000       0.39995      -0.01189       0.40780       0.00000       0.00000       0.13197       0.06028       0.01189       0.00000       0.12009 
   1932.73720       0.00100       0.01000       0.00100       0.01000       0.18564       0.22402       0.12018       0.12018       2.72715       1.00000       0.00000       0.49968       0.08004       0.00000       0.00000       0.00000       0.00000       0.43423      -0.02827       0.30009       0.00000       0.00000       0.12018       0.06545       0.02827       0.00000       0.09191 
   1932.88960       0.00100       0.01000       0.00100       0.08000       0.17246       0.21180       0.10006       0.10006       2.74465       1.00000       0.00000       0.55274       0.23565       0.00000       0.00000       0.00000       0.00000       0.48034      -0.05212       0.11155       0.00000       0.00000       0.10006       0.07240       0.05212       0.00000       0.04794 
   1933.04200       0.00100       0.01000       0.00100       0.01000       0.16394       0.20297       0.09840       0.09840       2.72888       1.00000       0.00000       0.50035       0.13078       0.00000       0.00000       0.00000       0.00000       0.43481      -0.02436       0.27048       0.00000       0.00000       0.09840       0.06554       0.02436       0.00000       0.07404 
   1933.19440       0.00100       0.03671       0.00100       0.03671       0.16433       0.20136       0.10748       0.10748       2.71032       1.00000       0.00000       0.43404       0.00000       0.00000       0.00000       0.00000       0.00000       0.37719       0.00000       0.45848       0.00000       0.00000       0.10748       0.05685       0.00000       0.00000       0.10748 
   1933.34680       0.00100       0.04867       0.00100       0.04867       0.15959       0.19483       0.10549       0.10549       2.70713       1.00000       0.00000       0.41304       0.00081       0.00000       0.00000       0.00000       0.00000       0.35893       0.00000       0.48066       0.00000       0.00000       0.10549       0.05410       0.00000       0.00000       0.10549 
   1933.49920       0.00100       0.03264       0.00100       0.03264       0.14964       0.18411       0.09672       0.09672       2.70839       1.00000       0.00000       0.40400       0.04560       0.00000       0.00000       0.00000       0.00000       0.35108       0.00000       0.45367       0.00000       0.00000       0.09672       0.05292       0.00000       0.00000       0.09672 
   1933.65160       0.00100       0.01672       0.00100       0.01672       0.13834       0.17260       0.08574       0.08574       2.71113       1.00000       0.00000       0.40159       0.10067       0.00000       0.00000       0.00000       0.00000       0.34898       0.00000       0.41201       0.00000       0.00000       0.08574       0.05260       0.00000       0.00000       0.08574 
   1933.80400       0.00100       0.01000       0.00100       0.01000       0.12986       0.16589       0.07455       0.07455       2.71154       1.00000       0.00000       0.42230       0.07506       0.00000       0.00000       0.00000       0.00000       0.36698       0.00000       0.42809       0.00000       0.00000       0.07455       0.05532       0.00000       0.00000       0.07455 
   1933.95640       0.00100       0.02019       0.00100       0.02019       0.13366       0.16916       0.07916       0.07916       2.70580       1.00000       0.00000       0.41613       0.00026       0.00000       0.00000       0.00000       0.00000       0.36162       0.00000       0.50445       0.00000       0.00000       0.07916       0.05451       0.00000       0.00000       0.07916 
   1934.10880       0.00100       0.05488       0.00100       0.05488       0.14656       0.17968       0.09572       0.09572       2.70282       1.00000       0.00000       0.38820       0.00000       0.00000       0.00000       0.00000       0.00000       0.33735       0.00000       0.51608       0.00000       0.00000       0.09572       0.05085       0.00000       0.00000       0.09572 
   1934.26120       0.00100       0.08122       0.00100       0.08122       0.16530       0.19763       0.11359       0.11359       2.70491       1.00000       0.00000       0.39471       0.00000       0.00000       0.00000       0.00000       0.00000       0.34301      -0.00896       0.49170       0.00000       0.00000       0.11359       0.05170       0.00896       0.00000       0.10463 
   1934.41360       0.00100       0.04259       0.00100       0.04259       0.17876       0.21302       0.12059       0.12059       2.71280       1.00000       0.00000       0.44410       0.00000       0.00000       0.00000       0.00000       0.00000       0.38593      -0.02420       0.43531       0.00000       0.00000       0.12059       0.05817       0.02420       0.00000       0.09639 
   1934.56600       0.00100       0.02097       0.00100       0.02097       0.18688       0.22308       0.12278       0.12278       2.71989       1.00000       0.00000       0.48935       0.00000       0.00000       0.00000       0.00000       0.00000       0.42525      -0.03700       0.38787       0.00000       0.00000       0.12278       0.06410       0.03700       0.00000       0.08578 
   1934.71840       0.00100       0.01334       0.00100       0.01334       0.18873       0.22670       0.12134       0.12134       2.72364       1.00000       0.00000       0.51446       0.00000       0.00000       0.00000       0.00000       0.00000       0.44708      -0.03951       0.36419       0.00000       0.00000       0.12134       0.06739       0.03951       0.00000       0.08183 
   1934.87080       0.00100       0.01037       0.00100       0.01037       0.18877       0.22772       0.11969       0.11969       2.72550       1.00000       0.00000       0.52740       0.00000       0.00000       0.00000       0.00000       0.00000       0.45832      -0.04033       0.35291       0.00000       0.00000       0.11969       0.06908       0.04033       0.00000       0.07936 
   1935.02320       0.00100       0.01135       0.00100       0.01000       0.18765       0.22621       0.11933       0.11933       2.72457       1.00000       0.00000       0.52160       0.00000       0.00000       0.00000       0.00000       0.00000       0.45328      -0.03960       0.35907       0.00000       0.00000       0.11933       0.06832       0.03960       0.00000       0.07973 
   1935.17560       0.00100       0.01582       0.00100       0.01582       0.18631       0.22407       0.12040       0.12040       2.72181       1.00000       0.00000       0.50318       0.00000       0.00000       0.00000       0.00000       0.00000       0.43727      -0.03448       0.37642       0.00000       0.00000       0.12040       0.06591       0.03448       0.00000       0.08592 
   1935.32800       0.00100       0.02847       0.00100       0.02847       0.18506       0.22178       0.12327       0.12327       2.71722       1.00000       0.00000       0.47172       0.00000       0.00000       0.00000       0.00000       0.00000       0.40993      -0.02351       0.40501       0.00000       0.00000       0.12327       0.06179       0.02351       0.00000       0.09976 
   1935.48040       0.00100       0.03341       0.00100       0.03341       0.18257       0.21975       0.12221       0.12221       2.71547       1.00000       0.00000       0.46082       0.00000       0.00000       0.00000       0.00000       0.00000       0.40046      -0.01424       0.41697       0.00000       0.00000       0.12221       0.06036       0.01424       0.00000       0.10797 
   1935.63280       0.00100       0.03954       0.00100       0.03954       0.18431       0.22140       0.12484       0.12484       2.71464       1.00000       0.00000       0.45406       0.00000       0.00000       0.00000       0.00000       0.00000       0.39458      -0.01100       0.42111       0.00000       0.00000       0.12484       0.05948       0.01100       0.00000       0.11383 
