~Version Information
VERS  .          2.0                              :CWLS Log Ascii Standard - Version 2.0
WRAP  .          NO                               :One line per depth step
~Well Information Block
#MNEM.UNIT       Data Type                        Information
#---------       ---------                        -------------------------------
STRT  .M         1190.09200                       :START DEPTH
STOP  .M         2429.86500                       :STOP DEPTH
STEP  .M          0.15240                         :INCREMENT
NULL  .          -999.25                          :NULL DATA VALUE
COMP  .                                           :COMPANY
WELL  .          CMS-001                          :WELL
WBN   .          CMS-001                          :WELLBORE
FLD   .          CEMARA SELATAN                   :FIELD
LOC   .                                           :LOCATION
PROV  .                                           :PROVINCE
STAT  .                                           :STATE
CNTY  .                                           :COUNTY
CTRY  .                                           :COUNTRY
DATE  .                                           :DATE
UWI   .          CEMARASELATAN-001                :UNIQUE WELL UWI
LIC   .                                           :LICENSE NUMBER
API   .                                           :API NUMBER
SRVC  .                                           :SERVICE COMPANY
~Parameter Information Block
#MNEM.UNIT       Value                            Description
#---------       ---------                        -------------
LONG  .DEG       108.170925                       :Well Surface Location
LATI  .DEG       -6.422919                        :Well Surface Location
XWELL .M         187032.780005                    :X-coordinate of Well Head
YWELL .M         9289179.840752                   :Y-coordinate of Well Head
~Curve Information Block
#MNEM.UNIT       API Code            Curve    Description
#--------        --------------      -----    -------------------
DEPT  .M                             :0       Index
KGAS  .MD                            :1       Permeability to Gas           
KINT  .MD                            :2       Intrinsic Permeability        
KOIL  .MD                            :3       Permeability to Oil           
KWTR  .MD                            :4       Permeability to Water         
PHIT  .V/V                           :5       Total Porosity_ includes all forms of porosity, including that occupied by bound fluids, and is independent of rock and fluid materials and of environmental effects
PHTT  .V/V                           :6       Theoretical PHIT Value        
PIGE  .V/V                           :7       Effective Porosity Less Irreducible Water
PIGN  .V/V                           :8       Effective Porosity, VISO, VPAR, and Bound Water Removed
RHGA  .G/C3                          :9       Apparent Grain Density        
SUWI  .V/V                           :10      Non-Clay Water Intergranular Water Saturation for Undisturbed Zone
VCHL  .V/V                           :11      Volume of Chlorite Relative to Total Volume
VCL   .V/V                           :12      Volume of Clay Type Material Relative to Total Volume
VCLC  .V/V                           :13      Volume of Calcite Relative to Total Volume
VCOA  .V/V                           :14      Volume of Coal Relative to Total Volume
VDOL  .V/V                           :15      Volume of Dolomite Relative to Total Volume
VFEL  .V/V                           :16      Volume of Feldspar Relative to Total Volume
VIGN  .V/V                           :17      Volume of Igneous Rock Relative to Total Volume
VILL  .V/V                           :18      Volume of Illite (dry) Relative to Total Volume
VMHY  .V/V                           :19      Volume of Moved Hydrocarbon Relative to Total Volume
VQUA  .V/V                           :20      Volume of Quartz Relative to Total Volume
VUGA  .V/V                           :21      Volume of Gas in Undisturbed Zone
VUOI  .V/V                           :22      Volume of Oil in Undisturbed Zone
VUWA  .V/V                           :23      Volume of Water in Undisturbed Zone
VXBW  .V/V                           :24      Volume of Bound Water in Flushed Zone
VXGA  .V/V                           :25      Volume of Gas in Flushed Zone 
VXOI  .V/V                           :26      Volume of Oil in Flushed Zone 
VXWA  .V/V                           :27      Volume of Water in Flushed Zone
~Ascii Data Section
# ...
   2099.00560       0.00100       0.01000       0.00100       0.01000       0.15954       0.20838       0.12488       0.12488       2.72837       1.00000       0.00000       0.39860       0.47652       0.00000       0.00000       0.00000       0.00000       0.36393      -0.01807       0.00000       0.00000       0.00000       0.12488       0.03467       0.01807       0.00000       0.10681 
   2099.15800       0.00100       0.01000       0.00100       0.01000       0.15840       0.20990       0.12317       0.12317       2.72864       1.00000       0.00000       0.40501       0.47181       0.00000       0.00000       0.00000       0.00000       0.36979      -0.00587       0.00000       0.00000       0.00000       0.12317       0.03523       0.00587       0.00000       0.11731 
   2099.31040       0.00100       0.01000       0.00100       0.01000       0.15732       0.20870       0.12266       0.12266       2.72831       1.00000       0.00000       0.39851       0.47883       0.00000       0.00000       0.00000       0.00000       0.36385      -0.00102       0.00000       0.00000       0.00000       0.12266       0.03466       0.00102       0.00000       0.12164 
   2099.46280       0.00100       0.01000       0.00100       0.01000       0.15153       0.19778       0.11998       0.11998       2.72656       1.00000       0.00000       0.36284       0.51718       0.00000       0.00000       0.00000       0.00000       0.33128      -0.00453       0.00000       0.00000       0.00000       0.11998       0.03156       0.00453       0.00000       0.11545 
   2099.61520       0.00100       0.01000       0.00100       0.01000       0.14485       0.18570       0.11686       0.11686       2.72458       1.00000       0.00000       0.32187       0.56127       0.00000       0.00000       0.00000       0.00000       0.29388      -0.00520       0.00000       0.00000       0.00000       0.11686       0.02799       0.00520       0.00000       0.11166 
   2099.76760       0.00100       0.01000       0.00100       0.01000       0.13585       0.17125       0.11181       0.11181       2.72238       1.00000       0.00000       0.27633       0.61186       0.00000       0.00000       0.00000       0.00000       0.25229      -0.00222       0.00000       0.00000       0.00000       0.11181       0.02403       0.00222       0.00000       0.10960 
   2099.92000       0.00100       0.01091       0.00100       0.01091       0.12465       0.15308       0.10531       0.10531       2.71983       1.00000       0.00000       0.22231       0.67238       0.00000       0.00000       0.00000       0.00000       0.20297      -0.00212       0.00000       0.00000       0.00000       0.10531       0.01933       0.00212       0.00000       0.10320 
   2100.07240       0.00100       0.01171       0.00100       0.01171       0.11331       0.13661       0.09719       0.09719       2.71809       1.00000       0.00000       0.18535       0.71746       0.00000       0.00000       0.00000       0.00000       0.16923      -0.00444       0.00000       0.00000       0.00000       0.09719       0.01612       0.00444       0.00000       0.09275 
   2100.22480       0.00100       0.01011       0.00100       0.01011       0.10406       0.12514       0.08934       0.08934       2.71731       1.00000       0.00000       0.16922       0.74144       0.00000       0.00000       0.00000       0.00000       0.15450      -0.00535       0.00000       0.00000       0.00000       0.08934       0.01472       0.00535       0.00000       0.08399 
   2100.37720       0.00100       0.01151       0.00100       0.01151       0.09519       0.11103       0.08384       0.08384       2.71559       1.00000       0.00000       0.13053       0.78563       0.00000       0.00000       0.00000       0.00000       0.11918      -0.00694       0.00000       0.00000       0.00000       0.08384       0.01135       0.00694       0.00000       0.07690 
   2100.52960       0.00100       0.01270       0.00100       0.01270       0.08804       0.09859       0.07948       0.07948       2.71418       1.00000       0.00000       0.09843       0.82209       0.00000       0.00000       0.00000       0.00000       0.08987      -0.01450       0.00000       0.00000       0.00000       0.07948       0.00856       0.01450       0.00000       0.06497 
   2100.68200       0.00100       0.01277       0.00100       0.01277       0.08769       0.09798       0.07928       0.07928       2.71411       1.00000       0.00000       0.09679       0.82393       0.00000       0.00000       0.00000       0.00000       0.08837      -0.01488       0.00000       0.00000       0.00000       0.07928       0.00842       0.01488       0.00000       0.06440 
   2100.83440       0.00100       0.01000       0.00100       0.01000       0.08876       0.10046       0.07837       0.07837       2.71508       1.00000       0.00000       0.11954       0.80210       0.00000       0.00000       0.00000       0.00000       0.10914      -0.02509       0.00000       0.00000       0.00000       0.07837       0.01040       0.02509       0.00000       0.05328 
   2100.98680       0.00100       0.01000       0.00100       0.01000       0.08394       0.09860       0.07157       0.07157       2.71601       1.00000       0.00000       0.14217       0.78625       0.00000       0.00000       0.00000       0.00000       0.12981      -0.02482       0.00000       0.00000       0.00000       0.07157       0.01237       0.02482       0.00000       0.04675 
   2101.13920       0.00100       0.01309       0.00100       0.01309       0.08184       0.09208       0.07177       0.07177       2.72804       1.00000       0.00000       0.11571       0.72429       0.00000       0.08823       0.00000       0.00000       0.10565      -0.03148       0.00000       0.00000       0.00000       0.07177       0.01006       0.03148       0.00000       0.04029 
   2101.29160       0.00100       0.03747       0.00100       0.03747       0.08670       0.09231       0.07899       0.07899       2.73809       1.00000       0.00000       0.08863       0.67015       0.00000       0.16223       0.00000       0.00000       0.08092      -0.03899       0.00000       0.00000       0.00000       0.07899       0.00771       0.03899       0.00000       0.04000 
   2101.44400       0.00100       0.03116       0.00100       0.03116       0.09314       0.09788       0.08769       0.08769       2.71779       1.00000       0.00000       0.06267       0.81580       0.00000       0.03384       0.00000       0.00000       0.05722      -0.02242       0.00000       0.00000       0.00000       0.08769       0.00545       0.02242       0.00000       0.06527 
   2101.59640       0.00100       0.02621       0.00100       0.02621       0.10097       0.10837       0.09359       0.09359       2.71375       1.00000       0.00000       0.08485       0.82094       0.00000       0.00062       0.00000       0.00000       0.07747      -0.02381       0.00000       0.00000       0.00000       0.09359       0.00738       0.02381       0.00000       0.06978 
   2101.74880       0.00100       0.02774       0.00100       0.22190       0.11444       0.12458       0.10402       0.10402       2.71524       1.00000       0.00000       0.11984       0.77614       0.00000       0.00000       0.00000       0.00000       0.10942      -0.03575       0.00000       0.00000       0.00000       0.10402       0.01042       0.03575       0.00000       0.06827 
   2101.90120       0.00100       0.03319       0.00100       0.03319       0.13213       0.14587       0.11892       0.11892       2.71678       1.00000       0.00000       0.15189       0.72918       0.00000       0.00000       0.00000       0.00000       0.13868      -0.03939       0.00000       0.00000       0.00000       0.11892       0.01321       0.03939       0.00000       0.07953 
   2102.05360       0.00100       0.02867       0.00100       0.02867       0.14771       0.16591       0.13031       0.13031       2.71909       1.00000       0.00000       0.20005       0.66965       0.00000       0.00000       0.00000       0.00000       0.18265      -0.05112       0.00000       0.00000       0.00000       0.13031       0.01740       0.05112       0.00000       0.07919 
