~Version Information
VERS  .          2.0                              :CWLS Log Ascii Standard - Version 2.0
WRAP  .          NO                               :One line per depth step
~Well Information Block
#MNEM.UNIT       Data Type                        Information
#---------       ---------                        -------------------------------
STRT  .M         501.09100                        :START DEPTH
STOP  .M         2801.87400                       :STOP DEPTH
STEP  .M          0.15240                         :INCREMENT
NULL  .          -999.25                          :NULL DATA VALUE
COMP  .          PERTAMINA                        :COMPANY
WELL  .          CMS-005                          :WELL
WBN   .          CMS-005                          :WELLBORE
FLD   .          CEMARA SELATAN                   :FIELD
LOC   .                                           :LOCATION
PROV  .          INDONESIA                        :PROVINCE
STAT  .          INDONESIA                        :STATE
CNTY  .                                           :COUNTY
CTRY  .                                           :COUNTRY
DATE  .                                           :DATE
UWI   .          CEMARASELATAN-005                :UNIQUE WELL UWI
LIC   .                                           :LICENSE NUMBER
API   .                                           :API NUMBER
SRVC  .                                           :SERVICE COMPANY
~Parameter Information Block
#MNEM.UNIT       Value                            Description
#---------       ---------                        -------------
LONG  .DEG       108.170923                       :Well Surface Location
LATI  .DEG       -6.423032                        :Well Surface Location
XWELL .M         187032.670000                    :X-coordinate of Well Head
YWELL .M         9289167.261000                   :Y-coordinate of Well Head
~Curve Information Block
#MNEM.UNIT       API Code            Curve    Description
#--------        --------------      -----    -------------------
DEPT  .M                             :0       Index
KGAS  .MD                            :1       Permeability to Gas           
KINT  .MD                            :2       Intrinsic Permeability        
KOIL  .MD                            :3       Permeability to Oil           
KWTR  .MD                            :4       Permeability to Water         
PHIT  .V/V                           :5       Total Porosity_ includes all forms of porosity, including that occupied by bound fluids, and is independent of rock and fluid materials and of environmental effects
PHTT  .V/V                           :6       Theoretical PHIT Value        
PIGE  .V/V                           :7       Effective Porosity Less Irreducible Water
PIGN  .V/V                           :8       Effective Porosity, VISO, VPAR, and Bound Water Removed
SUWI  .V/V                           :9       Non-Clay Water Intergranular Water Saturation for Undisturbed Zone
VILL  .V/V                           :10      Volume of Illite (dry) Relative to Total Volume
~Ascii Data Section
# ...
   2379.26860       0.00100       0.01000       0.00100       0.01000       0.03637       0.03721       0.03431       0.03431       0.94934       0.02058 
   2379.42100       0.00100       0.01000       0.00100       0.01000       0.03194       0.03517       0.02814       0.02814       1.00000       0.03803 
   2379.57340       0.00100       0.01000       0.00100       0.01000       0.02382       0.03019       0.01813       0.01813       1.00000       0.05709 
   2379.72580       0.00100       0.01000       0.00100       0.01000       0.02774       0.03344       0.02267       0.02267       1.00000       0.05088 
   2379.87820       0.00100       0.01000       0.00100       0.01000       0.03606       0.04024       0.03201       0.03201       1.00000       0.04066 
   2380.03060       0.00100       0.01000       0.00100       0.01000       0.04137       0.04507       0.03771       0.03771       1.00000       0.03668 
   2380.18300       0.00100       0.01000       0.00100       0.01000       0.03695       0.04243       0.03242       0.03242       1.00000       0.04549 
   2380.33540       0.00100       0.01000       0.00100       0.01000       0.03406       0.04067       0.02897       0.02897       1.00000       0.05105 
   2380.48780       0.00100       0.01000       0.00100       0.01000       0.05287       0.05556       0.05015       0.05015       1.00000       0.02727 
   2380.64020       0.00100       0.01330       0.00100       0.01330       0.06954       0.07105       0.06741       0.06741       1.00000       0.02133 
   2380.79260       0.00100       0.01570       0.00100       0.01570       0.07660       0.08017       0.07314       0.07314       1.00000       0.03471 
   2380.94500       0.00100       0.02565       0.00100       0.02565       0.09316       0.10005       0.08789       0.08789       1.00000       0.05289 
   2381.09740       0.00100       0.04182       0.00100       0.01233       0.10894       0.11716       0.10280       0.10280       0.98603       0.06160 
   2381.24980       0.02056       0.12214       0.00100       0.01000       0.13874       0.14470       0.13342       0.13342       0.83167       0.05329 
   2381.40220       0.07239       0.30803       0.00100       0.01000       0.16462       0.16727       0.16104       0.16104       0.76498       0.03594 
   2381.55460       0.11303       0.45177       0.00100       0.01000       0.18053       0.18277       0.17703       0.17703       0.74980       0.03510 
   2381.70700       0.10012       0.44991       0.00100       0.01000       0.18375       0.18681       0.17972       0.17972       0.77746       0.04044 
   2381.85940       0.05907       0.36680       0.00100       0.01000       0.17709       0.18107       0.17267       0.17267       0.83896       0.04433 
   2382.01180       0.03360       0.30310       0.00100       0.01000       0.16884       0.17306       0.16443       0.16443       0.88916       0.04426 
   2382.16420       0.02190       0.26681       0.00100       0.01000       0.16230       0.16625       0.15810       0.15810       0.91792       0.04209 
   2382.31660       0.01379       0.23312       0.00100       0.01000       0.15626       0.15994       0.15218       0.15218       0.94085       0.04092 
   2382.46900       0.00137       0.20365       0.00100       0.04686       0.14629       0.14882       0.14311       0.14311       0.97211       0.03193 
   2382.62140       0.00100       0.19423       0.00100       0.09110       0.13894       0.13963       0.13686       0.13686       0.97963       0.02082 
   2382.77380       0.00100       0.16388       0.00100       0.10158       0.12998       0.12949       0.12856       0.12856       0.98460       0.01430 
   2382.92620       0.00100       0.12550       0.00100       0.08778       0.12087       0.11999       0.11957       0.11957       0.98761       0.01308 
   2383.07860       0.00119       0.09543       0.00100       0.02006       0.11193       0.11049       0.11080       0.11080       0.95246       0.01137 
   2383.23100       0.00530       0.06105       0.00100       0.01000       0.10055       0.09928       0.09919       0.09919       0.89674       0.01367 
   2383.38340       0.00251       0.03302       0.00100       0.01000       0.08704       0.08664       0.08526       0.08526       0.90109       0.01785 
   2383.53580       0.00100       0.01625       0.00100       0.01119       0.07236       0.07246       0.07055       0.07055       0.98414       0.01813 
   2383.68820       0.00100       0.01000       0.00100       0.01000       0.06064       0.06082       0.05903       0.05903       1.00000       0.01612 
   2383.84060       0.00100       0.01000       0.00100       0.01000       0.05133       0.05102       0.05028       0.05028       1.00000       0.01049 
   2383.99300       0.00100       0.01000       0.00100       0.01000       0.04698       0.04519       0.04698       0.04698       1.00000       0.00001 
   2384.14540       0.00100       0.01000       0.00100       0.01000       0.04257       0.04050       0.04257       0.04257       1.00000       0.00001 
   2384.29780       0.00100       0.01000       0.00100       0.01000       0.03678       0.03470       0.03678       0.03678       1.00000       0.00001 
   2384.45020       0.00100       0.01000       0.00100       0.01000       0.02882       0.02730       0.02882       0.02882       1.00000       0.00001 
   2384.60260       0.00100       0.01000       0.00100       0.01000       0.02255       0.02146       0.02255       0.02255       1.00000       0.00001 
   2384.75500       0.00100       0.01000       0.00100       0.01000       0.02014       0.01915       0.02014       0.02014       1.00000       0.00001 
   2384.90740       0.00100       0.01000       0.00100       0.01000       0.01973       0.01864       0.01972       0.01972       1.00000       0.00001 
   2385.05980       0.00100       0.01000       0.00100       0.01000       0.01574       0.01564       0.01512       0.01512       1.00000       0.00623 
   2385.21220       0.00100       0.01000       0.00100       0.01000       0.00834       0.01069       0.00616       0.00616       1.00000       0.02185 
   2385.36460       0.00100       0.01000       0.00100       0.01000       0.01311       0.01505       0.01099       0.01099       1.00000       0.02125 
   2385.51700       0.00100       0.01000       0.00100       0.01000       0.00938       0.01343       0.00589       0.00589       1.00000       0.03506 
   2385.66940       0.00100       0.01000       0.00100       0.01000       0.00923       0.01429       0.00504       0.00504       1.00000       0.04209 
   2385.82180       0.00100       0.01000       0.00100       0.01000       0.01963       0.02231       0.01670       0.01670       1.00000       0.02934 
   2385.97420       0.00100       0.01000       0.00100       0.01000       0.01577       0.01988       0.01185       0.01185       1.00000       0.03928 
   2386.12660       0.00100       0.01000       0.00100       0.01000       0.01076       0.01630       0.00611       0.00611       1.00000       0.04669 
   2386.27900       0.00100       0.01000       0.00100       0.01000       0.00702       0.01368       0.00200       0.00200       1.00000       0.05037 
   2386.43140       0.00100       0.01000       0.00100       0.01000       0.00641       0.01275       0.00165       0.00165       1.00000       0.04770 
   2386.58380       0.00100       0.01000       0.00100       0.01000       0.01398       0.01787       0.01054       0.01054       1.00000       0.03457 
   2386.73620       0.00100       0.01000       0.00100       0.01000       0.01230       0.01529       0.00954       0.00954       1.00000       0.02769 
   2386.88860       0.00100       0.01000       0.00100       0.01000       0.00975       0.01408       0.00600       0.00600       1.00000       0.03759 
   2387.04100       0.00100       0.01000       0.00100       0.01000       0.00856       0.01249       0.00516       0.00516       1.00000       0.03408 
