~Version Information
VERS  .          2.0                              :CWLS Log Ascii Standard - Version 2.0
WRAP  .          NO                               :One line per depth step
~Well Information Block
#MNEM.UNIT       Data Type                        Information
#---------       ---------                        -------------------------------
STRT  .M         1250.29000                       :START DEPTH
STOP  .M         2514.44800                       :STOP DEPTH
STEP  .M          0.15240                         :INCREMENT
NULL  .          -999.25                          :NULL DATA VALUE
COMP  .          PERTAMINA                        :COMPANY
WELL  .          CMS-008A                         :WELL
WBN   .          CMS-008A                         :WELLBORE
FLD   .          CEMARA SELATAN                   :FIELD
LOC   .                                           :LOCATION
PROV  .          INDONESIA                        :PROVINCE
STAT  .          INDONESIA                        :STATE
CNTY  .                                           :COUNTY
CTRY  .                                           :COUNTRY
DATE  .                                           :DATE
UWI   .          CEMARASELATAN-CMS-008A           :UNIQUE WELL UWI
LIC   .                                           :LICENSE NUMBER
API   .                                           :API NUMBER
SRVC  .                                           :SERVICE COMPANY
~Parameter Information Block
#MNEM.UNIT       Value                            Description
#---------       ---------                        -------------
LONG  .DEG       108.170925                       :Well Surface Location
LATI  .DEG       -6.422847                        :Well Surface Location
XWELL .M         187032.710000                    :X-coordinate of Well Head
YWELL .M         9289187.741000                   :Y-coordinate of Well Head
~Curve Information Block
#MNEM.UNIT       API Code            Curve    Description
#--------        --------------      -----    -------------------
DEPT  .M                             :0       Index
KGAS  .MD                            :1       Permeability to Gas           
KINT  .MD                            :2       Intrinsic Permeability        
KOIL  .MD                            :3       Permeability to Oil           
KWTR  .MD                            :4       Permeability to Water         
PHIT  .V/V                           :5       Total Porosity_ includes all forms of porosity, including that occupied by bound fluids, and is independent of rock and fluid materials and of environmental effects
PHTT  .V/V                           :6       Theoretical PHIT Value        
PIGE  .V/V                           :7       Effective Porosity Less Irreducible Water
PIGN  .V/V                           :8       Effective Porosity, VISO, VPAR, and Bound Water Removed
RHGA  .G/C3                          :9       Apparent Grain Density        
SUWI  .V/V                           :10      Non-Clay Water Intergranular Water Saturation for Undisturbed Zone
VCLC  .V/V                           :11      Volume of Calcite Relative to Total Volume
VCOA  .V/V                           :12      Volume of Coal Relative to Total Volume
VDOL  .V/V                           :13      Volume of Dolomite Relative to Total Volume
VFEL  .V/V                           :14      Volume of Feldspar Relative to Total Volume
VILL  .V/V                           :15      Volume of Illite (dry) Relative to Total Volume
VMHY  .V/V                           :16      Volume of Moved Hydrocarbon Relative to Total Volume
VORT  .V/V                           :17      Volume of Orthoclase Relative to Total Volume
VQUA  .V/V                           :18      Volume of Quartz Relative to Total Volume
VUGA  .V/V                           :19      Volume of Gas in Undisturbed Zone
VUOI  .V/V                           :20      Volume of Oil in Undisturbed Zone
VUWA  .V/V                           :21      Volume of Water in Undisturbed Zone
VXBW  .V/V                           :22      Volume of Bound Water in Flushed Zone
VXGA  .V/V                           :23      Volume of Gas in Flushed Zone 
VXOI  .V/V                           :24      Volume of Oil in Flushed Zone 
VXWA  .V/V                           :25      Volume of Water in Flushed Zone
~Ascii Data Section
# ...
   2420.41720       0.00100       0.02689       0.00100       0.02689       0.28876       0.35847       0.23659       0.23659       2.81058       1.00000       0.00000       0.00000       0.00000       0.00000       0.51129       0.00000       0.00000       0.19995       0.00000       0.00000       0.23659       0.05216       0.00000       0.00000       0.23659 
   2420.56960       0.00100       0.01072       0.00100       0.01072       0.32353       0.39450       0.27042       0.27042       2.82199       1.00000       0.00000       0.00000       0.00000       0.00000       0.52053       0.00000       0.00000       0.15594       0.00000       0.00000       0.27042       0.05311       0.00000       0.00000       0.27042 
   2420.72200       0.00100       0.01012       0.00100       0.01012       0.06326       0.16349       0.03896       0.03896       2.12569       1.00000       0.00000       0.67639       0.00000       0.00000       0.23907       0.00000       0.00000       0.02129       0.00000       0.00000       0.03887       0.02439       0.00000       0.00000       0.03887 
   2420.87440       0.00100       0.01000       0.00100       0.01000       0.00631       0.10792       0.00010       0.00010       1.86711       1.00000       0.00000       0.93187       0.00000       0.00000       0.06183       0.00000       0.00000       0.00000       0.00000       0.00000       0.00000       0.00631       0.00000       0.00000       0.00000 
   2421.02680       0.00100       0.01000       0.00100       0.01000       0.00066       0.10073       0.00010       0.00010       1.80627       1.00000       0.00000       0.99375       0.00000       0.00000       0.00567       0.00000       0.00000       0.00000       0.00000       0.00000       0.00000       0.00058       0.00000       0.00000       0.00000 
   2421.17920       0.00100       0.01000       0.00100       0.01000       0.00010       0.10000       0.00010       0.00010       1.80018       1.00000       0.00000       1.00000       0.00000       0.00000       0.00000       0.00000       0.00000       0.00000       0.00000       0.00000       0.00000       0.00000       0.00000       0.00000       0.00000 
   2421.33160       0.00100       0.01000       0.00100       0.01000       0.00452       0.10566       0.00010       0.00010       1.84771       1.00000       0.00000       0.95130       0.00000       0.00000       0.04419       0.00000       0.00000       0.00000       0.00000       0.00000       0.00000       0.00451       0.00000       0.00000       0.00000 
   2421.48400       0.66159       0.77659       0.00100       0.01000       0.28100       0.32637       0.25140       0.25140       2.63213       0.26672       0.00000       0.13266       0.00000       0.00000       0.29029       0.16419       0.00000       0.29605       0.21450       0.00000       0.03688       0.02962       0.04985       0.00046       0.20108 
   2421.63640       0.19888       0.30513       0.00100       0.01000       0.23752       0.28173       0.20141       0.20141       2.75382       0.44307       0.00000       0.00000       0.00000       0.00000       0.35394       0.08936       0.00000       0.40854       0.11659       0.00000       0.08482       0.03611       0.02696       0.00026       0.17418 
   2421.78880       0.01569       0.06995       0.00100       0.04218       0.18258       0.23506       0.14297       0.14297       2.75611       0.92850       0.00000       0.00000       0.00000       0.00000       0.38827       0.01023       0.00000       0.42915       0.01333       0.00000       0.12964       0.03961       0.00308       0.00003       0.13986 
   2421.94120       0.00100       0.02263       0.00100       0.02263       0.16955       0.22760       0.12610       0.12610       2.76456       1.00000       0.00000       0.00000       0.00000       0.00000       0.42582       0.00000       0.00000       0.40464       0.00000       0.00000       0.12610       0.04344       0.00000       0.00000       0.12610 
   2422.09360       0.00100       0.01667       0.00100       0.01667       0.17564       0.23606       0.13042       0.13042       2.77014       1.00000       0.00000       0.00000       0.00000       0.00000       0.44321       0.00000       0.00000       0.38115       0.00000       0.00000       0.13042       0.04522       0.00000       0.00000       0.13042 
   2422.24600       0.00100       0.01208       0.00100       0.01208       0.18543       0.24918       0.13772       0.13772       2.77828       1.00000       0.00000       0.00000       0.00000       0.00000       0.46762       0.00000       0.00000       0.34696       0.00000       0.00000       0.13772       0.04771       0.00000       0.00000       0.13772 
   2422.39840       0.00100       0.01199       0.00100       0.01199       0.18601       0.24983       0.13825       0.13825       2.77850       1.00000       0.00000       0.00000       0.00000       0.00000       0.46811       0.00000       0.00000       0.34588       0.00000       0.00000       0.13825       0.04776       0.00000       0.00000       0.13825 
   2422.55080       0.00100       0.01619       0.00100       0.01619       0.19047       0.25285       0.14380       0.14380       2.77628       1.00000       0.00000       0.00000       0.00000       0.00000       0.45750       0.00000       0.00000       0.35202       0.00000       0.00000       0.14380       0.04668       0.00000       0.00000       0.14380 
   2422.70320       0.00100       0.01096       0.00100       0.01096       0.18991       0.25579       0.14061       0.14061       2.78328       1.00000       0.00000       0.00000       0.00000       0.00000       0.48320       0.00000       0.00000       0.32689       0.00000       0.00000       0.14061       0.04930       0.00000       0.00000       0.14061 
   2422.85560       0.00100       0.01000       0.00100       0.01000       0.19253       0.26481       0.13845       0.13845       2.79671       1.00000       0.00000       0.00000       0.00000       0.00000       0.53013       0.00000       0.00000       0.27733       0.00000       0.00000       0.13845       0.05409       0.00000       0.00000       0.13845 
   2423.00800       0.00100       0.01000       0.00100       0.01000       0.19968       0.27942       0.14001       0.14001       2.81331       1.00000       0.00000       0.00000       0.00000       0.00000       0.58486       0.00000       0.00000       0.21546       0.00000       0.00000       0.14001       0.05967       0.00000       0.00000       0.14001 
   2423.16040       0.00100       0.01000       0.00100       0.01000       0.19289       0.28102       0.12694       0.12694       2.82893       1.00000       0.00000       0.00000       0.00000       0.00000       0.64641       0.00000       0.00000       0.16070       0.00000       0.00000       0.12694       0.06595       0.00000       0.00000       0.12694 
   2423.31280       0.00100       0.01000       0.00100       0.01000       0.17070       0.26231       0.10214       0.10214       2.83105       1.00000       0.00000       0.00000       0.00000       0.00000       0.67196       0.00000       0.00000       0.15735       0.00000       0.00000       0.10214       0.06856       0.00000       0.00000       0.10214 
   2423.46520       0.00100       0.01000       0.00100       0.01000       0.16484       0.25381       0.09827       0.09827       2.82459       1.00000       0.00000       0.00000       0.00000       0.00000       0.65254       0.00000       0.00000       0.18261       0.00000       0.00000       0.09827       0.06658       0.00000       0.00000       0.09827 
   2423.61760       0.00100       0.01000       0.00100       0.01000       0.15702       0.24541       0.09088       0.09088       2.82184       1.00000       0.00000       0.00000       0.00000       0.00000       0.64830       0.00000       0.00000       0.19468       0.00000       0.00000       0.09088       0.06614       0.00000       0.00000       0.09088 
