~VERSION INFORMATION
 VERS.               1.20:   CWLS LOG ASCII STANDARD - VERSION 1.20
 WRAP.                 NO:   ONE LINE PER DEPTH STEP
~WELL INFORMATION
#MNEM.UNIT      DATA TYPE    INFORMATION
#----------   ------------   ------------------------------
 STRT.M          630.6096:   START DEPTH
 STOP.M         3133.6272:   STOP DEPTH
 STEP.M            0.1524:   STEP LENGTH
 NULL.          -999.2500:   NO VALUE
 COMP.            COMPANY:   PERTAMINA
 WELL.               WELL:   CMS-004
 WBN .            CMS-004:   WELLBORE
 FLD .              FIELD:   CEMARA SELATAN
 LOC .           LOCATION:   X = + 149636.27  Y = - 719813.7
 PROV.           PROVINCE:   JAWA BARAT
 STAT.              STATE:   INDONESIA
 SRVC.    SERVICE COMPANY:   SCHLUMBERGER
 DATE.            LOGDATE:   11/24/77
 APIN.         API NUMBER:   -
 UWI .  CEMARASELATAN-004:   UNIQUE WELL ID 
~CURVE INFORMATION
#MNEM.UNIT       API CODE    CURVE DESCRIPTION
#----------   ------------   ------------------------------
 DEPT.M                  :
 CALI.inch   60 280 00 00:   Caliper
 GR  .GAPI   60 310 00 00:   Gamma Ray
 SP  .mV     60 010 01 00:   Spontaneous Potential
 ILD .ohmm   05 070 46 00:   Induction Laterolog, Deep
 SN  .ohmm   05 040 16 00:   Short Normal 16"
 NPHI.%      42 890 03 00:   Neu. Porosity, Ss [%]
 RHOB.kg/cm3 42 350 01 00:   Bulk Density
 DRHO.g/cc   42 356 01 00:   Density Correction
 PROX.ohmm   21 270 30 00:   Proximity Log
~PARAMETER INFORMATION
#MNEM.UNIT          VALUE    DESCRIPTION
#----------   ------------   ------------------------------
 EKB .M            0.0000:   Kelly bushing
 EGL .M            0.0000:   Ground level
 EDF .M           10.0000:   Drilling floor
 EPD .M           10.0000:   Permanent datum
 TD  .M         3129.0000:   Total depth
 DF  .      CONGLONGMERAT:   Deepest formation
 PROJ.       SCHLUMBERGER:   Project
 DATE.           11/24/77:   Date logged
 SRFX.M       185028.4000:   Surface X position
 SRFY.M      9281121.0000:   Surface Y position
 STUS.                  3:   1-18 API codes
 SLAT.DECIMAL DE  -6.4963:   Surface Latitude
 SLNG.DECIMAL DE 108.1521:   Surface Longitude
 BLAT.DECIMAL DE   0.0000:   Bottom Latitude
 BLNG.DECIMAL DE   0.0000:   Bottom Longitude
 SCTN.                  0:   Section Number
 NSFT.F            0.0000:   N-S Footage
 EWFT.F            0.0000:   E-F Footage
 BHT .Degf            100:   Bottom Hole Temperature
 MRT .Degf            100:   Max Recorded Temperature
 MST .Degf             87:   Mud Temperature
 RM  .Ohmm            3.0:   Mud Resistivity
 RMB .Degf  2.7 ohmm @100:   Mud BHT Resistivity
 RMC .Ohmm           4.72:   Mud Cake Resistivity
 RMF .Ohmm           1.93:   Mud Filtrate Resistivity
 DFD .G/c3           1.05:   Drilling Fluid Density
 DFV .Sec              43:   Drilling Fluid Viscosity
 DFPH.                  9:   Drilling Fluid pH
 DFL .Ml               14:   Drilling Fluid Loss
 DD  .Mtr          3129.0:   Depth driller
 DL  .Mtr          3129.8:   Depth logger
 BLI .Mtr          3129.5:   Bottom log interval
 TLI .Mtr            2767:   Top log interval
 CSS .Inch          9 5/8:   Casing size
 CTD1.Mtr   9 5/8" @ 1300:   Casing driller 1
 CTL1.Mtr          1299.7:   Casing logger 1
 BS  .Inch          8 5/8:   Bit size
 DFT . Bentonite / Q.Broxin:   Type fluid in hole
 WSS .           Flowline:   Source of sample
 EMT .Degf 0.48 ohmm @ 95:   Rm Meas. temp.
 MFT .Degf 0.31 ohmm @ 80:   Rmf Meas. temp.
 MCST.Degf 0.66 ohmm @ 26:   Rmc Meas. temp.
 MFSS.              Press:   Source Rmf.
 MCSS.              Press:   Source Rmc.
 TCS .HRS              12:   Time Circ. stopped
 LUN .               RS18:   Logging unit number
 LUL .                WJV:   Logging unit location
 ENGI.            M.Akbar:   Recorded By
 WITN.  Wardoyo / Sugipto:   Witnessed by
 RE1 .        ILD (6FF40):   Res. Electrode #1
 RE2 .      SN  (A-16" M):   Res. Electrode #2
 TLAB.Hrs              12:   Time logger at bottom
 DATE.           12/02/77:   Date logged
 DATE.           12/13/77:   Date logged
 DATE.           01/10/77:   Date logged
 DATE.           01/28/78:   Date logged
 BHT .Degf            110:   Bottom Hole Temperature
 BHT .Degf            155:   Bottom Hole Temperature
 BHT .Degf            250:   Bottom Hole Temperature
 BHT .Degf            270:   Bottom Hole Temperature
 MRT .Degf            110:   Max Recorded Temperature
 MRT .Degf            155:   Max Recorded Temperature
 MRT .Degf            250:   Max Recorded Temperature
 MRT .Degf            270:   Max Recorded Temperature
 MST .Degf             80:   Mud Temperature
 MST .Degf             85:   Mud Temperature
 MST .Degf             85:   Mud Temperature
 MST .Degf             95:   Mud Temperature
 RM  .Ohmm           2.05:   Mud Resistivity
 RM  .Ohmm           1.51:   Mud Resistivity
 RM  .Ohmm           0.71:   Mud Resistivity
 RM  .Ohmm           0.48:   Mud Resistivity
 RMB .Degf 1.6 ohmm @ 110:   Mud BHT Resistivity
 RMB .Degf 0.9 ohmm @ 155:   Mud BHT Resistivity
 RMB .Degf 0.24 ohmm @ 250:   Mud BHT Resistivity
 RMB .Degf 0.16 ohmm @ 270:   Mud BHT Resistivity
 RMC .Ohmm           2.12:   Mud Cake Resistivity
 RMC .Ohmm           1.62:   Mud Cake Resistivity
 RMC .Ohmm           1.11:   Mud Cake Resistivity
 RMC .Ohmm 0.66 ohmm @ 26:   Mud Cake Resistivity
 RMF .Ohmm           1.91:   Mud Filtrate Resistivity
 RMF .Ohmm           1.36:   Mud Filtrate Resistivity
 RMF .Ohmm           0.46:   Mud Filtrate Resistivity
 RMF .Ohmm 0.31 ohmm @ 80:   Mud Filtrate Resistivity
 DFD .G/c3           1.15:   Drilling Fluid Density
 DFD .G/c3           1.14:   Drilling Fluid Density
 DFD .G/c3           1.17:   Drilling Fluid Density
 DFD .G/c3           1.23:   Drilling Fluid Density
 DFV .Sec              42:   Drilling Fluid Viscosity
 DFV .Sec              55:   Drilling Fluid Viscosity
 DFV .Sec              65:   Drilling Fluid Viscosity
 DFV .Sec              65:   Drilling Fluid Viscosity
 DFPH.                  9:   Drilling Fluid pH
 DFPH.                  9:   Drilling Fluid pH
 DFPH.                9.5:   Drilling Fluid pH
 DFPH.                9.5:   Drilling Fluid pH
 DFL .Ml               10:   Drilling Fluid Loss
 DFL .Ml              6.5:   Drilling Fluid Loss
 DFL .Ml                5:   Drilling Fluid Loss
 DFL .Ml                5:   Drilling Fluid Loss
 DD  .Mtr             255:   Depth driller
 DD  .Mtr             635:   Depth driller
 DD  .Mtr            1305:   Depth driller
 DD  .Mtr            2798:   Depth driller
 DL  .Mtr             255:   Depth logger
 DL  .Mtr             635:   Depth logger
 DL  .Mtr            1303:   Depth logger
 DL  .Mtr          2799.3:   Depth logger
 BLI .Mtr           254.7:   Bottom log interval
 BLI .Mtr           634.7:   Bottom log interval
 BLI .Mtr            1302:   Bottom log interval
 BLI .Mtr          2799.0:   Bottom log interval
 TLI .Mtr            30.0:   Top log interval
 TLI .Mtr           259.3:   Top log interval
 TLI .Mtr           630.5:   Top log interval
 TLI .Mtr          1299.7:   Top log interval
 CSS .Inch             30:   Casing size
 CSS .Inch             20:   Casing size
 CSS .Inch         12 1/4:   Casing size
 CSS .Inch          9 5/8:   Casing size
 CTD1.Mtr              30:   Casing driller 1
 CTD1.Mtr           259.1:   Casing driller 1
 CTD1.Mtr             630:   Casing driller 1
 CTD1.Mtr            1300:   Casing driller 1
 CTL1.Mtr              30:   Casing logger 1
 CTL1.Mtr           250.5:   Casing logger 1
 CTL1.Mtr           630.5:   Casing logger 1
 CTL1.Mtr          1299.7:   Casing logger 1
 BS  .Inch          9 7/8:   Bit size
 BS  .Inch          9 7/8:   Bit size
 BS  .Inch             12:   Bit size
 BS  .Inch          8 5/8:   Bit size
 DFT .          bentonite:   Type fluid in hole
 DFT .          bentonite:   Type fluid in hole
 DFT .          bentonite:   Type fluid in hole
 DFT .          bentonite:   Type fluid in hole
 WSS .           flowline:   Source of sample
 WSS .           flowline:   Source of sample
 WSS .           flowline:   Source of sample
 WSS .           flowline:   Source of sample
 EMT .Degf  3.0 ohmm @ 87:   Rm Meas. temp.
 EMT .Degf 2.05 ohmm @ 80:   Rm Meas. temp.
 EMT .Degf 1.51 ohmm @ 85:   Rm Meas. temp.
 EMT .Degf 0.71 ohmm @ 85:   Rm Meas. temp.
 MFT .Degf 2.72 ohmm @ 87:   Rmf Meas. temp.
 MFT .Degf 1.91 ohmm @ 80:   Rmf Meas. temp.
 MFT .Degf 1.36 ohmm @ 85:   Rmf Meas. temp.
 MFT .Degf 0.46 ohmm @ 85:   Rmf Meas. temp.
 MCST.Degf 1.93 ohmm @ 87:   Rmc Meas. temp.
 MCST.Degf 2.12 ohmm @ 80:   Rmc Meas. temp.
 MCST.Degf 1.62 ohmm @ 85:   Rmc Meas. temp.
 MCST.Degf 1.11 ohmm @ 85:   Rmc Meas. temp.
 MFSS.                  p:   Source Rmf.
 MFSS.                  p:   Source Rmf.
 MFSS.                  p:   Source Rmf.
 MFSS.                  p:   Source Rmf.
 MCSS.                  p:   Source Rmc.
 MCSS.                  p:   Source Rmc.
 MCSS.                  p:   Source Rmc.
 MCSS.                  p:   Source Rmc.
 TCS .HRS             1.5:   Time Circ. stopped
 TCS .HRS               3:   Time Circ. stopped
 TCS .HRS               4:   Time Circ. stopped
 TCS .HRS               7:   Time Circ. stopped
 LUN .               4618:   Logging unit number
 LUN .               4618:   Logging unit number
 LUN .               4618:   Logging unit number
 LUL .                mjv:   Logging unit location
 LUL .                mjv:   Logging unit location
 LUL .                mjv:   Logging unit location
 LUL .                mjv:   Logging unit location
 WITN.            Sukarna:   Witnessed by
 RE1 .                ILD:   Res. Electrode #1
 RE1 .                ILD:   Res. Electrode #1
 RE1 .                ILD:   Res. Electrode #1
 RE1 .                ILD:   Res. Electrode #1
 RE2 .                 SN:   Res. Electrode #2
 RE2 .                 SN:   Res. Electrode #2
 RE2 .                 SN:   Res. Electrode #2
 RE2 .                 SN:   Res. Electrode #2
 TLAB.Hrs             1.5:   Time logger at bottom
 TLAB.Hrs               3:   Time logger at bottom
 TLAB.Hrs               4:   Time logger at bottom
 TLAB.Hrs               7:   Time logger at bottom
 DGBY.            Sukarna:   Digitized By
 DGBY.            Sukarna:   Digitized By
 DGBY.            Sukarna:   Digitized By
 DGBY.            Sukarna:   Digitized By
 DGBY.            Sukarna:   Digitized By
~A  DEPTH     CALI         GR         SP        ILD         SN       NPHI       RHOB       DRHO       PROX
# ...
 3122.6540     8.9543   154.5320    27.4911    11.4319     7.6920     9.7119     2.5079     0.0257    14.3114
 3122.8070     9.0384   156.0647    27.4891    11.2346     7.6060    10.0527     2.4913     0.0317    14.3649
 3122.9590     9.0868   158.7055    27.4869    10.9803     7.4608    10.7348     2.5061     0.0563    11.6088
 3123.1120     8.9592   157.2749    27.5743    10.6706     7.3808    11.1016     2.5292     0.0609    10.7773
 3123.2640     8.9427   154.5288    27.4822    10.2283     7.2723    11.3753     2.5496     0.0746    10.9604
 3123.4170     9.2154   157.4069    27.4803     9.8407     7.2380    11.2261     2.5431     0.0538     9.5296
 3123.5690     9.1936   160.2310    27.4328     9.3109     7.1918    11.0075     2.5222     0.0724     8.7918
 3123.7210     8.9030   160.9353    27.3214     9.4378     7.1612    11.2497     2.5425     0.0536     8.9657
 3123.8740     8.4600   159.8610    27.3188     9.8473     7.1570    11.4714     2.5280     0.0113     8.1015
 3124.0260     8.4205   161.7114    27.3162     9.7891     7.2015    10.9899     2.5021     0.0108     8.1241
 3124.1780     8.5449   164.1776    27.1602     9.7808     7.1590    10.4347     2.4922     0.0173     9.8914
 3124.3310     8.6578   162.9216    27.1580     9.7069     7.0570    10.0219     2.4998     0.0316    11.7040
 3124.4830     8.6865   166.4258    27.1558     9.6241     7.0343     9.6441     2.5231     0.0589    11.9014
 3124.6350     8.5762   161.6847    27.1536     9.6045     7.0371     9.6421     2.5130     0.0377    10.6151
 3124.7880     8.4587   163.2281    27.1212     9.6421     7.0396     9.8469     2.4981     0.0185    10.7440
 3124.9400     8.5673   161.8340    26.9947     9.7257     7.1020    10.0502     2.4694    -0.0042     9.8918
 3125.0930     8.6108   161.1450    26.9925     9.7485     7.1675    10.2497     2.4557    -0.0147     8.8080
 3125.2450     8.4844   160.0160    26.8356     9.6777     7.1760    10.3589     2.4413    -0.0189     8.8236
 3125.3980     8.5509   156.9235    26.8335     9.5994     7.1785    10.4447     2.4162    -0.0127     8.8556
 3125.5500     8.6651   160.6414    26.8313     9.5171     7.1809    10.5561     2.3976    -0.0017     8.2956
 3125.7020     8.5417   165.4608    26.9254     9.4116     7.1881    10.6425     2.4147     0.0170     7.1008
 3125.8550     8.4939   161.0815    27.1358     9.3796     7.2486    10.6732     2.4537     0.0309     7.9318
 3126.0070     8.6392   157.8893    27.1490     9.4750     7.3178    10.7063     2.5017     0.0124     9.1635
 3126.1600     8.5286   160.2772    27.3379     9.8432     7.4172    10.6833     2.5009     0.0244     9.6435
 3126.3120     8.5662   158.6015    27.5270    10.0192     7.5746    10.5691     2.5146     0.0451     9.4289
 3126.4640     8.6454   152.6070    27.7452    10.4021     7.7056    10.2262     2.5317     0.0307     8.9639
 3126.6170     8.6397   144.5485    27.9053    10.4194     7.7876    10.0174     2.5217     0.0190     8.5889
 3126.7690     8.5830   127.9414    28.1388    10.5194     7.8951    10.1723     2.4945     0.0320     8.8252
 3126.9220     8.5046    99.7951    28.5190    10.6136     7.9610    10.4290     2.5041     0.0440     9.0661
 3127.0740     8.4552    58.0939    28.9728    10.7325     8.0408    10.7023     2.5012     0.0775     8.8892
 3127.2260     8.5419    23.0012    28.8163    10.9245     8.0531    10.7876     2.5203     0.0661     9.1804
 3127.3790     8.6141     0.0690    28.5863    11.1493     8.1210    10.8446     2.5384     0.0492    10.4034
 3127.5310     8.6155     0.7727    28.2748    11.3308     8.1300    10.8135     2.5422     0.0598    10.3278
 3127.6840     8.6170     1.2762    28.0812    11.3799     8.1750    10.7007     2.5614     0.0307    10.2242
 3127.8360     8.5997     1.9938    28.0347    11.3934     8.2267    10.3901     2.5426     0.0471    11.6743
 3127.9880     8.5814     2.4890    27.8781    11.4077     8.2800    10.0925     2.5492     0.0840    12.6660
 3128.1410     8.5865     2.5334    27.8097    11.4010     8.2620    10.3201     2.5649     0.0635    10.7616
 3128.2930     8.6193     2.5495    27.7191    11.3306     8.2391    10.8664     2.5839     0.0389    11.4536
 3128.4460     8.6252     2.5678    27.7167    11.3336     8.2102    11.1974     2.5394     0.0444    14.3838
 3128.5980     8.5361     2.5862    27.5386    11.3431     8.1481    11.0878     2.5594     0.0229    13.7280
 3128.7500     8.4852     2.6025    27.4034    11.2117     8.0766    10.6955     2.5527     0.0328    12.8242
 3128.9030     8.6236     2.6499    27.3061    11.1372     8.0053    10.2756     2.5702     0.0179    13.3962
 3129.0550     8.6845     2.9724    27.0896    11.0863     7.9322     9.7357     2.5282     0.0471    10.4200
 3129.2080     8.7064     3.0510    26.7786    11.0833     7.8335     8.5294     2.5427     0.0673    12.1829
 3129.3600     8.6877     2.6879    26.7254    11.0959     7.6891     5.8508     2.5629     0.0579    11.9999
 3129.5120     8.6481     2.6770    26.5320    11.1061     7.4666     4.2250     2.5688     0.0508    12.3494
 3129.6650     8.5194     2.5145    26.4625    11.1134     7.1656  -999.2500     2.5377     0.1103    13.8362
 3129.8170     8.3658     2.3627    26.3062    11.0807     6.9683  -999.2500     2.5775     0.1466    11.8433
 3129.9690     8.2576     2.1621    26.5018    11.0363     6.8627  -999.2500     2.5835     0.1984     2.9968
 3130.1220     8.2142     2.0056    26.6108    11.0472     6.8182  -999.2500     2.6080     0.1934     1.6646
 3130.2740     8.2048     1.8106    26.6082    11.0580     6.8091  -999.2500     2.5714     0.1793     1.5483
 3130.4270     8.2063     1.6720    26.6064    11.0553     6.8122  -999.2500     2.5944     0.1895     1.5595
 3130.5790     8.2078     1.6425    26.4140    10.9832     6.8139  -999.2500     2.6083     0.1839     1.5758
 3130.7320     8.2063     1.8509    26.2929    10.9902     6.8165  -999.2500     2.5878     0.1886     1.5972
 3130.8840     8.1910     2.0783    26.2907    11.0023     6.8185  -999.2500     2.6128     0.2039  -999.2500
 3131.0360     8.1948     2.0969    26.2884    11.0119     6.8294  -999.2500     2.5916     0.1932  -999.2500
 3131.1890     8.2118     2.1137    26.4412    11.0256     6.8818  -999.2500     2.5616     0.1798  -999.2500
 3131.3410     8.2628     2.1306    26.3735    11.5559     6.8876  -999.2500     2.5824     0.2002  -999.2500
 3131.4940     8.2755     2.1533    26.2819    12.7654     6.8904  -999.2500     2.5671     0.1899  -999.2500
 3131.6460     8.2773     2.1708    26.2795    12.6216     6.8922  -999.2500     2.5947     0.2143  -999.2500
 3131.7980     8.2786     2.1932    26.2775    12.4828  -999.2500  -999.2500     2.5876     0.1799  -999.2500
 3131.9510     8.2888     2.2078    26.2753    12.4822  -999.2500  -999.2500     2.5624     0.1562  -999.2500
 3132.1030     8.3010     2.2255    26.2731  -999.2500  -999.2500  -999.2500     2.5460     0.1631  -999.2500
 3132.2560     8.3214     2.2863    26.2706  -999.2500  -999.2500  -999.2500     2.5782     0.1861  -999.2500
 3132.4080     8.3471     2.5956    26.2822  -999.2500  -999.2500  -999.2500     2.5863     0.2184  -999.2500
 3132.5600     8.3782     2.7271    26.4211  -999.2500  -999.2500  -999.2500     2.6068  -999.2500  -999.2500
 3132.7130     8.3996     3.0316    26.4189  -999.2500  -999.2500  -999.2500     2.6114  -999.2500  -999.2500
 3132.8650     8.4274     3.1130    26.4163  -999.2500  -999.2500  -999.2500     2.5982  -999.2500  -999.2500
 3133.0180  -999.2500  -999.2500    26.5691  -999.2500  -999.2500  -999.2500  -999.2500  -999.2500  -999.2500
 3133.1700  -999.2500  -999.2500    26.6093  -999.2500  -999.2500  -999.2500  -999.2500  -999.2500  -999.2500
 3133.3230  -999.2500  -999.2500    26.7192  -999.2500  -999.2500  -999.2500  -999.2500  -999.2500  -999.2500
 3133.4750  -999.2500  -999.2500    26.7170  -999.2500  -999.2500  -999.2500  -999.2500  -999.2500  -999.2500
 3133.6270  -999.2500  -999.2500    26.7148  -999.2500  -999.2500  -999.2500  -999.2500  -999.2500  -999.2500
