~Version Information
VERS  .          2.0                              :CWLS Log Ascii Standard - Version 2.0
WRAP  .          NO                               :One line per depth step
~Well Information Block
#MNEM.UNIT       Data Type                        Information
#---------       ---------                        -------------------------------
STRT  .M         1190.09200                       :START DEPTH
STOP  .M         2429.86500                       :STOP DEPTH
STEP  .M          0.15240                         :INCREMENT
NULL  .          -999.25                          :NULL DATA VALUE
COMP  .                                           :COMPANY
WELL  .          CMS-001                          :WELL
WBN   .          CMS-001                          :WELLBORE
FLD   .          CEMARA SELATAN                   :FIELD
LOC   .                                           :LOCATION
PROV  .                                           :PROVINCE
STAT  .                                           :STATE
CNTY  .                                           :COUNTY
CTRY  .                                           :COUNTRY
DATE  .                                           :DATE
UWI   .          CEMARASELATAN-001                :UNIQUE WELL UWI
LIC   .                                           :LICENSE NUMBER
API   .                                           :API NUMBER
SRVC  .                                           :SERVICE COMPANY
~Parameter Information Block
#MNEM.UNIT       Value                            Description
#---------       ---------                        -------------
LONG  .DEG       108.170925                       :Well Surface Location
LATI  .DEG       -6.422919                        :Well Surface Location
XWELL .M         187032.780005                    :X-coordinate of Well Head
YWELL .M         9289179.840752                   :Y-coordinate of Well Head
~Curve Information Block
#MNEM.UNIT       API Code            Curve    Description
#--------        --------------      -----    -------------------
DEPT  .M                             :0       Index
KGAS  .MD                            :1       Permeability to Gas           
KINT  .MD                            :2       Intrinsic Permeability        
KOIL  .MD                            :3       Permeability to Oil           
KWTR  .MD                            :4       Permeability to Water         
PHIT  .V/V                           :5       Total Porosity_ includes all forms of porosity, including that occupied by bound fluids, and is independent of rock and fluid materials and of environmental effects
PHTT  .V/V                           :6       Theoretical PHIT Value        
PIGE  .V/V                           :7       Effective Porosity Less Irreducible Water
PIGN  .V/V                           :8       Effective Porosity, VISO, VPAR, and Bound Water Removed
RHGA  .G/C3                          :9       Apparent Grain Density        
SUWI  .V/V                           :10      Non-Clay Water Intergranular Water Saturation for Undisturbed Zone
VCHL  .V/V                           :11      Volume of Chlorite Relative to Total Volume
VCL   .V/V                           :12      Volume of Clay Type Material Relative to Total Volume
VCLC  .V/V                           :13      Volume of Calcite Relative to Total Volume
VCOA  .V/V                           :14      Volume of Coal Relative to Total Volume
VDOL  .V/V                           :15      Volume of Dolomite Relative to Total Volume
VFEL  .V/V                           :16      Volume of Feldspar Relative to Total Volume
VIGN  .V/V                           :17      Volume of Igneous Rock Relative to Total Volume
VILL  .V/V                           :18      Volume of Illite (dry) Relative to Total Volume
VMHY  .V/V                           :19      Volume of Moved Hydrocarbon Relative to Total Volume
VQUA  .V/V                           :20      Volume of Quartz Relative to Total Volume
VUGA  .V/V                           :21      Volume of Gas in Undisturbed Zone
VUOI  .V/V                           :22      Volume of Oil in Undisturbed Zone
VUWA  .V/V                           :23      Volume of Water in Undisturbed Zone
VXBW  .V/V                           :24      Volume of Bound Water in Flushed Zone
VXGA  .V/V                           :25      Volume of Gas in Flushed Zone 
VXOI  .V/V                           :26      Volume of Oil in Flushed Zone 
VXWA  .V/V                           :27      Volume of Water in Flushed Zone
~Ascii Data Section
# ...
   2015.79520       0.00100       0.01000       0.00100       0.01000       0.28336       0.32852       0.20032       0.20032       2.75273       1.00000       0.00000       0.63398       0.00000       0.00000       0.00000       0.00000       0.00000       0.55094      -0.05951       0.16570       0.00000       0.00000       0.20032       0.08304       0.05951       0.00000       0.14081 
   2015.94760       0.00100       0.01000       0.00100       0.01000       0.27736       0.32253       0.19695       0.19695       2.74866       1.00000       0.00000       0.61392       0.00000       0.00000       0.00000       0.00000       0.00000       0.53350      -0.04806       0.18914       0.00000       0.00000       0.19695       0.08042       0.04806       0.00000       0.14889 
   2016.10000       0.00100       0.01000       0.00100       0.01000       0.27654       0.32048       0.19823       0.19823       2.74596       1.00000       0.00000       0.59783       0.00000       0.00000       0.00000       0.00000       0.00000       0.51952      -0.04708       0.20394       0.00000       0.00000       0.19823       0.07831       0.04708       0.00000       0.15115 
   2016.25240       0.00100       0.01000       0.00100       0.01000       0.28233       0.32806       0.20029       0.20029       2.75134       1.00000       0.00000       0.62627       0.00000       0.00000       0.00000       0.00000       0.00000       0.54423      -0.05127       0.17344       0.00000       0.00000       0.20029       0.08203       0.05127       0.00000       0.14902 
   2016.40480       0.00100       0.01000       0.00100       0.01000       0.29930       0.34392       0.21560       0.21560       2.75590       1.00000       0.00000       0.63898       0.00000       0.00000       0.00000       0.00000       0.00000       0.55528      -0.06595       0.14542       0.00000       0.00000       0.21560       0.08370       0.06595       0.00000       0.14966 
   2016.55720       0.00100       0.01000       0.00100       0.01000       0.30478       0.34700       0.22465       0.22465       2.75219       1.00000       0.00000       0.61176       0.00000       0.00000       0.00000       0.00000       0.00000       0.53163      -0.06650       0.16359       0.00000       0.00000       0.22465       0.08013       0.06650       0.00000       0.15815 
   2016.70960       0.00100       0.01000       0.00100       0.01000       0.30002       0.34174       0.22166       0.22166       2.74924       1.00000       0.00000       0.59821       0.00000       0.00000       0.00000       0.00000       0.00000       0.51985      -0.06208       0.18013       0.00000       0.00000       0.22166       0.07836       0.06208       0.00000       0.15958 
   2016.86200       0.00100       0.01000       0.00100       0.01000       0.29505       0.33650       0.21723       0.21723       2.74786       1.00000       0.00000       0.59407       0.00000       0.00000       0.00000       0.00000       0.00000       0.51625      -0.06156       0.18870       0.00000       0.00000       0.21723       0.07782       0.06156       0.00000       0.15567 
   2017.01440       0.00100       0.01000       0.00100       0.01000       0.29247       0.33564       0.21187       0.21187       2.75098       1.00000       0.00000       0.61527       0.00000       0.00000       0.00000       0.00000       0.00000       0.53468      -0.06214       0.17286       0.00000       0.00000       0.21187       0.08059       0.06214       0.00000       0.14974 
   2017.16680       0.00100       0.01000       0.00100       0.01000       0.29367       0.33806       0.21188       0.21188       2.75266       1.00000       0.00000       0.62442       0.00000       0.00000       0.00000       0.00000       0.00000       0.54263      -0.05921       0.16370       0.00000       0.00000       0.21188       0.08179       0.05921       0.00000       0.15267 
   2017.31920       0.00100       0.01000       0.00100       0.01000       0.28732       0.33476       0.20583       0.20583       2.75138       1.00000       0.00000       0.62214       0.00000       0.00000       0.00000       0.00000       0.00000       0.54065      -0.03757       0.17203       0.00000       0.00000       0.20583       0.08149       0.03757       0.00000       0.16825 
   2017.47160       0.00100       0.01000       0.00100       0.01000       0.28122       0.33030       0.20397       0.20397       2.74529       1.00000       0.00000       0.58977       0.00000       0.00000       0.00000       0.00000       0.00000       0.51252      -0.00820       0.20626       0.00000       0.00000       0.20397       0.07725       0.00820       0.00000       0.19577 
   2017.62400       0.00100       0.01063       0.00100       0.01063       0.28003       0.32966       0.20379       0.20379       2.74388       1.00000       0.00000       0.58202       0.00000       0.00000       0.00000       0.00000       0.00000       0.50578      -0.00016       0.21419       0.00000       0.00000       0.20379       0.07624       0.00016       0.00000       0.20363 
   2017.77640       0.00100       0.01000       0.00100       0.01000       0.27540       0.32440       0.19752       0.19752       2.74529       1.00000       0.00000       0.59457       0.00000       0.00000       0.00000       0.00000       0.00000       0.51669      -0.01148       0.20791       0.00000       0.00000       0.19752       0.07788       0.01148       0.00000       0.18604 
   2017.92880       0.00100       0.01000       0.00100       0.01000       0.27349       0.32206       0.19291       0.19291       2.74832       1.00000       0.00000       0.61512       0.00000       0.00000       0.00000       0.00000       0.00000       0.53455      -0.02602       0.19196       0.00000       0.00000       0.19291       0.08057       0.02602       0.00000       0.16689 
   2018.08120       0.00100       0.01000       0.00100       0.01000       0.26618       0.31573       0.18345       0.18345       2.74995       1.00000       0.00000       0.63161       0.00000       0.00000       0.00000       0.00000       0.00000       0.54888      -0.02890       0.18494       0.00000       0.00000       0.18345       0.08273       0.02890       0.00000       0.15455 
   2018.23360       0.00100       0.01000       0.00100       0.01000       0.26472       0.31595       0.17977       0.17977       2.75243       1.00000       0.00000       0.64852       0.00000       0.00000       0.00000       0.00000       0.00000       0.56357      -0.02730       0.17171       0.00000       0.00000       0.17977       0.08495       0.02730       0.00000       0.15247 
   2018.38600       0.00100       0.01000       0.00100       0.01000       0.26960       0.32123       0.18541       0.18541       2.75219       1.00000       0.00000       0.64275       0.00000       0.00000       0.00000       0.00000       0.00000       0.55856      -0.02135       0.17185       0.00000       0.00000       0.18541       0.08419       0.02135       0.00000       0.16406 
   2018.53840       0.00100       0.01000       0.00100       0.01000       0.28109       0.33238       0.19816       0.19816       2.75227       1.00000       0.00000       0.63312       0.00000       0.00000       0.00000       0.00000       0.00000       0.55019      -0.01818       0.16872       0.00000       0.00000       0.19816       0.08293       0.01818       0.00000       0.17998 
   2018.69080       0.00100       0.01000       0.00100       0.01000       0.28402       0.33446       0.19984       0.19984       2.75424       1.00000       0.00000       0.64270       0.00000       0.00000       0.00000       0.00000       0.00000       0.55851      -0.02926       0.15746       0.00000       0.00000       0.19984       0.08419       0.02926       0.00000       0.17058 
   2018.84320       0.00100       0.01000       0.00100       0.01000       0.27708       0.32759       0.19311       0.19311       2.75298       1.00000       0.00000       0.64104       0.00000       0.00000       0.00000       0.00000       0.00000       0.55707      -0.02789       0.16585       0.00000       0.00000       0.19311       0.08397       0.02789       0.00000       0.16523 
