~Version Information
VERS  .          2.0                              :CWLS Log Ascii Standard - Version 2.0
WRAP  .          NO                               :One line per depth step
~Well Information Block
#MNEM.UNIT       Data Type                        Information
#---------       ---------                        -------------------------------
STRT  .M         501.09100                        :START DEPTH
STOP  .M         2801.87400                       :STOP DEPTH
STEP  .M          0.15240                         :INCREMENT
NULL  .          -999.25                          :NULL DATA VALUE
COMP  .          PERTAMINA                        :COMPANY
WELL  .          CMS-005                          :WELL
WBN   .          CMS-005                          :WELLBORE
FLD   .          CEMARA SELATAN                   :FIELD
LOC   .                                           :LOCATION
PROV  .          INDONESIA                        :PROVINCE
STAT  .          INDONESIA                        :STATE
CNTY  .                                           :COUNTY
CTRY  .                                           :COUNTRY
DATE  .                                           :DATE
UWI   .          CEMARASELATAN-005                :UNIQUE WELL UWI
LIC   .                                           :LICENSE NUMBER
API   .                                           :API NUMBER
SRVC  .                                           :SERVICE COMPANY
~Parameter Information Block
#MNEM.UNIT       Value                            Description
#---------       ---------                        -------------
LONG  .DEG       108.170923                       :Well Surface Location
LATI  .DEG       -6.423032                        :Well Surface Location
XWELL .M         187032.670000                    :X-coordinate of Well Head
YWELL .M         9289167.261000                   :Y-coordinate of Well Head
~Curve Information Block
#MNEM.UNIT       API Code            Curve    Description
#--------        --------------      -----    -------------------
DEPT  .M                             :0       Index
KGAS  .MD                            :1       Permeability to Gas           
KINT  .MD                            :2       Intrinsic Permeability        
KOIL  .MD                            :3       Permeability to Oil           
KWTR  .MD                            :4       Permeability to Water         
PHIT  .V/V                           :5       Total Porosity_ includes all forms of porosity, including that occupied by bound fluids, and is independent of rock and fluid materials and of environmental effects
PHTT  .V/V                           :6       Theoretical PHIT Value        
PIGE  .V/V                           :7       Effective Porosity Less Irreducible Water
PIGN  .V/V                           :8       Effective Porosity, VISO, VPAR, and Bound Water Removed
SUWI  .V/V                           :9       Non-Clay Water Intergranular Water Saturation for Undisturbed Zone
VILL  .V/V                           :10      Volume of Illite (dry) Relative to Total Volume
~Ascii Data Section
# ...
   1872.08140       0.00100       0.12081       0.00100       0.12081       0.14745       0.15785       0.14067       0.14067       1.00000       0.07334 
   1872.23380       0.00100       0.17065       0.00100       0.06607       0.15581       0.16489       0.14989       0.14989       0.99403       0.06410 
   1872.38620       0.03026       0.34326       0.00100       0.01000       0.17236       0.17762       0.16844       0.16844       0.91183       0.04253 
   1872.53860       0.04189       0.45054       0.00100       0.01000       0.17841       0.18220       0.17538       0.17538       0.90703       0.03287 
   1872.69100       0.11834       0.70115       0.00100       0.01000       0.19189       0.19312       0.18983       0.18983       0.83123       0.02229 
   1872.84340       0.16436       0.86530       0.00100       0.01000       0.19782       0.19758       0.19633       0.19633       0.81006       0.01615 
   1872.99580       0.11333       0.76110       0.00100       0.01000       0.19253       0.19279       0.19093       0.19093       0.85110       0.01736 
   1873.14820       0.15441       0.93898       0.00100       0.01000       0.19705       0.19580       0.19621       0.19621       0.83555       0.00914 
   1873.30060       0.11007       0.84287       0.00100       0.01000       0.19321       0.19260       0.19219       0.19219       0.86941       0.01106 
   1873.45300       0.05203       0.66055       0.00100       0.01000       0.18812       0.18942       0.18621       0.18621       0.92117       0.02075 
   1873.60540       0.00185       0.48897       0.00100       0.14832       0.18138       0.18486       0.17844       0.17844       0.97903       0.03176 
   1873.75780       0.00100       0.43242       0.00100       0.43242       0.17717       0.18086       0.17405       0.17405       1.00000       0.03381 
   1873.91020       0.00121       0.46900       0.00100       0.17414       0.17828       0.18093       0.17553       0.17553       0.98098       0.02973 
   1874.06260       0.00100       0.37912       0.00100       0.37912       0.17340       0.17728       0.16998       0.16998       1.00000       0.03707 
   1874.21500       0.00100       0.36123       0.00100       0.36123       0.17495       0.17946       0.17096       0.17096       1.00000       0.04318 
   1874.36740       0.00100       0.26501       0.00100       0.26501       0.16999       0.17682       0.16470       0.16470       1.00000       0.05733 
   1874.51980       0.00100       0.20993       0.00100       0.20993       0.16631       0.17488       0.16004       0.16004       1.00000       0.06794 
   1874.67220       0.00100       0.20979       0.00100       0.20979       0.16533       0.17335       0.15921       0.15921       1.00000       0.06627 
   1874.82460       0.00100       0.19002       0.00100       0.19002       0.16167       0.16970       0.15549       0.15549       1.00000       0.06698 
   1874.97700       0.00100       0.20819       0.00100       0.20819       0.16352       0.17063       0.15765       0.15765       1.00000       0.06363 
   1875.12940       0.00100       0.20436       0.00100       0.20436       0.16246       0.16961       0.15664       0.15664       1.00000       0.06309 
   1875.28180       0.00100       0.22772       0.00100       0.22772       0.16612       0.17324       0.16042       0.16042       1.00000       0.06167 
   1875.43420       0.00100       0.34197       0.00100       0.34197       0.17643       0.18160       0.17185       0.17185       1.00000       0.04961 
   1875.58660       0.00100       0.34111       0.00100       0.34111       0.17390       0.17897       0.16969       0.16969       1.00000       0.04558 
   1875.73900       0.00100       0.39101       0.00100       0.39101       0.17511       0.17906       0.17163       0.17163       1.00000       0.03768 
   1875.89140       0.00100       0.45486       0.00100       0.45486       0.17944       0.18283       0.17631       0.17631       1.00000       0.03386 
   1876.04380       0.00100       0.64616       0.00100       0.64616       0.19609       0.19943       0.19290       0.19290       1.00000       0.03452 
   1876.19620       0.00100       0.79498       0.00100       0.79498       0.21058       0.21503       0.20684       0.20684       1.00000       0.04059 
   1876.34860       0.10364       1.47490       0.00100       0.01000       0.23719       0.23939       0.23425       0.23425       0.92973       0.03184 
   1876.50100       0.04499       1.72335       0.00100       0.05376       0.24242       0.24417       0.23989       0.23989       0.95771       0.02741 
   1876.65340       0.00100       1.60339       0.00100       1.60339       0.23804       0.24013       0.23554       0.23554       1.00000       0.02706 
   1876.80580       0.00100       1.63009       0.00100       1.63009       0.23705       0.23895       0.23477       0.23477       1.00000       0.02470 
   1876.95820       0.00100       1.67842       0.00100       1.67842       0.24298       0.24569       0.24022       0.24022       1.00000       0.02992 
   1877.11060       0.00100       1.59003       0.00100       1.59003       0.24492       0.24845       0.24159       0.24159       1.00000       0.03600 
   1877.26300       0.00100       1.29984       0.00100       1.29984       0.22886       0.23151       0.22607       0.22607       1.00000       0.03019 
   1877.41540       0.00100       0.87213       0.00100       0.87213       0.20818       0.21116       0.20535       0.20535       1.00000       0.03062 
   1877.56780       0.00100       0.82068       0.00100       0.82068       0.20024       0.20215       0.19807       0.19807       1.00000       0.02352 
   1877.72020       0.00100       0.67666       0.00100       0.67666       0.19034       0.19211       0.18827       0.18827       1.00000       0.02246 
   1877.87260       0.00100       0.59505       0.00100       0.59505       0.18554       0.18742       0.18330       0.18330       1.00000       0.02422 
   1878.02500       0.00100       0.46719       0.00100       0.46719       0.17879       0.18185       0.17594       0.17594       1.00000       0.03085 
   1878.17740       0.00100       0.40896       0.00100       0.40896       0.17314       0.17623       0.17027       0.17027       1.00000       0.03113 
   1878.32980       0.00100       0.48827       0.00100       0.48827       0.17491       0.17625       0.17295       0.17295       1.00000       0.02123 
   1878.48220       0.00100       0.45300       0.00100       0.45300       0.16922       0.17008       0.16765       0.16765       1.00000       0.01698 
   1878.63460       0.00100       0.38808       0.00100       0.38808       0.16285       0.16397       0.16128       0.16128       1.00000       0.01703 
   1878.78700       0.00100       0.35270       0.00100       0.35270       0.16038       0.16203       0.15858       0.15858       1.00000       0.01953 
   1878.93940       0.00100       0.34880       0.00100       0.34880       0.16179       0.16361       0.15968       0.15968       1.00000       0.02289 
   1879.09180       0.00100       0.35568       0.00100       0.35568       0.16184       0.16331       0.15985       0.15985       1.00000       0.02155 
   1879.24420       0.00100       0.32209       0.00100       0.32209       0.15846       0.16027       0.15637       0.15637       1.00000       0.02263 
   1879.39660       0.00100       0.37813       0.00100       0.37813       0.16245       0.16349       0.16077       0.16077       1.00000       0.01820 
   1879.54900       0.00100       0.27714       0.00100       0.27714       0.16050       0.16455       0.15705       0.15705       1.00000       0.03732 
   1879.70140       0.00100       0.31932       0.00100       0.31932       0.16998       0.17500       0.16594       0.16594       1.00000       0.04374 
   1879.85380       0.00100       0.40231       0.00100       0.40231       0.18063       0.18562       0.17651       0.17651       1.00000       0.04470 
