~Version Information
VERS  .          2.0                              :CWLS Log Ascii Standard - Version 2.0
WRAP  .          NO                               :One line per depth step
~Well Information Block
#MNEM.UNIT       Data Type                        Information
#---------       ---------                        -------------------------------
STRT  .M         1250.29000                       :START DEPTH
STOP  .M         2514.44800                       :STOP DEPTH
STEP  .M          0.15240                         :INCREMENT
NULL  .          -999.25                          :NULL DATA VALUE
COMP  .          PERTAMINA                        :COMPANY
WELL  .          CMS-008A                         :WELL
WBN   .          CMS-008A                         :WELLBORE
FLD   .          CEMARA SELATAN                   :FIELD
LOC   .                                           :LOCATION
PROV  .          INDONESIA                        :PROVINCE
STAT  .          INDONESIA                        :STATE
CNTY  .                                           :COUNTY
CTRY  .                                           :COUNTRY
DATE  .                                           :DATE
UWI   .          CEMARASELATAN-CMS-008A           :UNIQUE WELL UWI
LIC   .                                           :LICENSE NUMBER
API   .                                           :API NUMBER
SRVC  .                                           :SERVICE COMPANY
~Parameter Information Block
#MNEM.UNIT       Value                            Description
#---------       ---------                        -------------
LONG  .DEG       108.170925                       :Well Surface Location
LATI  .DEG       -6.422847                        :Well Surface Location
XWELL .M         187032.710000                    :X-coordinate of Well Head
YWELL .M         9289187.741000                   :Y-coordinate of Well Head
~Curve Information Block
#MNEM.UNIT       API Code            Curve    Description
#--------        --------------      -----    -------------------
DEPT  .M                             :0       Index
KGAS  .MD                            :1       Permeability to Gas           
KINT  .MD                            :2       Intrinsic Permeability        
KOIL  .MD                            :3       Permeability to Oil           
KWTR  .MD                            :4       Permeability to Water         
PHIT  .V/V                           :5       Total Porosity_ includes all forms of porosity, including that occupied by bound fluids, and is independent of rock and fluid materials and of environmental effects
PHTT  .V/V                           :6       Theoretical PHIT Value        
PIGE  .V/V                           :7       Effective Porosity Less Irreducible Water
PIGN  .V/V                           :8       Effective Porosity, VISO, VPAR, and Bound Water Removed
RHGA  .G/C3                          :9       Apparent Grain Density        
SUWI  .V/V                           :10      Non-Clay Water Intergranular Water Saturation for Undisturbed Zone
VCLC  .V/V                           :11      Volume of Calcite Relative to Total Volume
VCOA  .V/V                           :12      Volume of Coal Relative to Total Volume
VDOL  .V/V                           :13      Volume of Dolomite Relative to Total Volume
VFEL  .V/V                           :14      Volume of Feldspar Relative to Total Volume
VILL  .V/V                           :15      Volume of Illite (dry) Relative to Total Volume
VMHY  .V/V                           :16      Volume of Moved Hydrocarbon Relative to Total Volume
VORT  .V/V                           :17      Volume of Orthoclase Relative to Total Volume
VQUA  .V/V                           :18      Volume of Quartz Relative to Total Volume
VUGA  .V/V                           :19      Volume of Gas in Undisturbed Zone
VUOI  .V/V                           :20      Volume of Oil in Undisturbed Zone
VUWA  .V/V                           :21      Volume of Water in Undisturbed Zone
VXBW  .V/V                           :22      Volume of Bound Water in Flushed Zone
VXGA  .V/V                           :23      Volume of Gas in Flushed Zone 
VXOI  .V/V                           :24      Volume of Oil in Flushed Zone 
VXWA  .V/V                           :25      Volume of Water in Flushed Zone
~Ascii Data Section
# ...
   1585.57000       0.00100       0.06008       0.00100       0.06008       0.22546       0.25326       0.15260       0.15260       2.74515       1.00000       0.00000       0.00000       0.00000       0.00000       0.39252       0.00000       0.00000       0.38202       0.00000       0.00000       0.15260       0.07286       0.00000       0.00000       0.15260 
   1585.72240       0.00100       0.10699       0.00100       0.10699       0.21969       0.24549       0.15205       0.15205       2.73768       1.00000       0.00000       0.00000       0.00000       0.00000       0.36443      -0.00011       0.00000       0.41587       0.00000       0.00000       0.15205       0.06765       0.00011       0.00000       0.15194 
   1585.87480       0.00100       0.11892       0.00100       0.11892       0.21162       0.23651       0.14640       0.14640       2.73415       1.00000       0.00631       0.00000       0.00000       0.00000       0.35138      -0.00002       0.00000       0.43068       0.00000       0.00000       0.14640       0.06523       0.00002       0.00000       0.14638 
   1586.02720       0.00100       0.13212       0.00100       0.13212       0.20123       0.22439       0.14052       0.14052       2.73030       1.00000       0.04568       0.00000       0.00000       0.00000       0.32703       0.00000       0.00000       0.42606       0.00000       0.00000       0.14052       0.06071       0.00000       0.00000       0.14052 
   1586.17960       0.00100       0.11525       0.00100       0.11525       0.18730       0.20821       0.13249       0.13249       2.72804       1.00000       0.13311       0.00000       0.00000       0.00000       0.29528       0.00000       0.00000       0.38430       0.00000       0.00000       0.13249       0.05481       0.00000       0.00000       0.13249 
   1586.33200       0.00100       0.19923       0.00100       0.19923       0.16877       0.18671       0.12174       0.12174       2.71720       1.00000       0.13792       0.00000       0.00000       0.00000       0.25334       0.00000       0.00000       0.43997       0.00000       0.00000       0.12174       0.04703       0.00000       0.00000       0.12174 
   1586.48440       0.00100       0.28052       0.00100       0.28052       0.15866       0.17561       0.11424       0.11424       2.71023       1.00000       0.09586       0.00000       0.00000       0.00000       0.23928       0.00000       0.00000       0.50619       0.00000       0.00000       0.11424       0.04442       0.00000       0.00000       0.11424 
   1586.63680       0.00100       0.21657       0.00100       0.21657       0.15505       0.17298       0.10806       0.10806       2.71131       1.00000       0.07134       0.00000       0.00000       0.00000       0.25317       0.00000       0.00000       0.52044       0.00000       0.00000       0.10806       0.04700       0.00000       0.00000       0.10806 
   1586.78920       0.00100       0.07828       0.00100       0.07828       0.15706       0.17794       0.10232       0.10232       2.72294       1.00000       0.10211       0.00000       0.00000       0.00000       0.29486       0.00000       0.00000       0.44598       0.00000       0.00000       0.10232       0.05473       0.00000       0.00000       0.10232 
   1586.94160       0.00100       0.06717       0.00100       0.06717       0.17222       0.19493       0.11270       0.11270       2.72813       1.00000       0.07457       0.00000       0.00000       0.00000       0.32062       0.00000       0.00000       0.43259       0.00000       0.00000       0.11270       0.05952       0.00000       0.00000       0.11270 
   1587.09400       0.00100       0.02587       0.00100       0.02587       0.17582       0.20124       0.10921       0.10921       2.74016       1.00000       0.11577       0.00000       0.00000       0.00000       0.35884       0.00000       0.00000       0.34957       0.00000       0.00000       0.10921       0.06661       0.00000       0.00000       0.10921 
   1587.24640       0.00100       0.06558       0.00100       0.06558       0.19220       0.21777       0.12519       0.12519       2.73516       1.00000       0.01735       0.00000       0.00000       0.00000       0.36099       0.00000       0.00000       0.42945       0.00000       0.00000       0.12519       0.06701       0.00000       0.00000       0.12519 
   1587.39880       0.00100       0.10679       0.00100       0.10679       0.21043       0.23563       0.14410       0.14410       2.73495       1.00000       0.00000       0.00000       0.00000       0.00000       0.35728      -0.00070       0.00000       0.43229       0.00000       0.00000       0.14410       0.06632       0.00070       0.00000       0.14340 
   1587.55120       0.00100       0.10973       0.00100       0.10973       0.22277       0.24838       0.15509       0.15509       2.73807       1.00000       0.00000       0.00000       0.00000       0.00000       0.36460      -0.00136       0.00000       0.41263       0.00000       0.00000       0.15509       0.06768       0.00136       0.00000       0.15373 
   1587.70360       0.00100       0.10627       0.00100       0.10627       0.23495       0.26115       0.16559       0.16559       2.74169       1.00000       0.00000       0.00000       0.00000       0.00000       0.37366      -0.00178       0.00000       0.39139       0.00000       0.00000       0.16559       0.06936       0.00178       0.00000       0.16382 
   1587.85600       0.00100       0.08380       0.00100       0.08380       0.24332       0.27082       0.17115       0.17115       2.74646       1.00000       0.00000       0.00000       0.00000       0.00000       0.38878      -0.00026       0.00000       0.36790       0.00000       0.00000       0.17115       0.07217       0.00026       0.00000       0.17089 
   1588.00840       0.00100       0.04972       0.00100       0.04972       0.24869       0.27806       0.17171       0.17171       2.75362       1.00000       0.00000       0.00000       0.00000       0.00000       0.41468       0.00000       0.00000       0.33663       0.00000       0.00000       0.17171       0.07698       0.00000       0.00000       0.17171 
   1588.16080       0.00100       0.03768       0.00100       0.03768       0.25449       0.28483       0.17497       0.17497       2.75788       1.00000       0.00000       0.00000       0.00000       0.00000       0.42840       0.00000       0.00000       0.31711       0.00000       0.00000       0.17497       0.07952       0.00000       0.00000       0.17497 
   1588.31320       0.00100       0.04139       0.00100       0.04139       0.26593       0.29633       0.18625       0.18625       2.75977       1.00000       0.00000       0.00000       0.00000       0.00000       0.42924       0.00000       0.00000       0.30483       0.00000       0.00000       0.18625       0.07968       0.00000       0.00000       0.18625 
   1588.46560       0.00100       0.04054       0.00100       0.04054       0.27646       0.30720       0.19590       0.19590       2.76261       1.00000       0.00000       0.00000       0.00000       0.00000       0.43399       0.00000       0.00000       0.28954       0.00000       0.00000       0.19590       0.08056       0.00000       0.00000       0.19590 
   1588.61800       0.00100       0.03368       0.00100       0.03368       0.27527       0.30655       0.19331       0.19331       2.76438       1.00000       0.00000       0.00000       0.00000       0.00000       0.44157       0.00000       0.00000       0.28316       0.00000       0.00000       0.19331       0.08197       0.00000       0.00000       0.19331 
   1588.77040       0.00100       0.01616       0.00100       0.01616       0.26661       0.30003       0.17902       0.17902       2.77078       1.00000       0.00000       0.00000       0.00000       0.00000       0.47189       0.00000       0.00000       0.26150       0.00000       0.00000       0.17902       0.08760       0.00000       0.00000       0.17902 
