~Version Information
VERS  .          2.0                              :CWLS Log Ascii Standard - Version 2.0
WRAP  .          NO                               :One line per depth step
~Well Information Block
#MNEM.UNIT       Data Type                        Information
#---------       ---------                        -------------------------------
STRT  .M         1190.09200                       :START DEPTH
STOP  .M         2429.86500                       :STOP DEPTH
STEP  .M          0.15240                         :INCREMENT
NULL  .          -999.25                          :NULL DATA VALUE
COMP  .                                           :COMPANY
WELL  .          CMS-001                          :WELL
WBN   .          CMS-001                          :WELLBORE
FLD   .          CEMARA SELATAN                   :FIELD
LOC   .                                           :LOCATION
PROV  .                                           :PROVINCE
STAT  .                                           :STATE
CNTY  .                                           :COUNTY
CTRY  .                                           :COUNTRY
DATE  .                                           :DATE
UWI   .          CEMARASELATAN-001                :UNIQUE WELL UWI
LIC   .                                           :LICENSE NUMBER
API   .                                           :API NUMBER
SRVC  .                                           :SERVICE COMPANY
~Parameter Information Block
#MNEM.UNIT       Value                            Description
#---------       ---------                        -------------
LONG  .DEG       108.170925                       :Well Surface Location
LATI  .DEG       -6.422919                        :Well Surface Location
XWELL .M         187032.780005                    :X-coordinate of Well Head
YWELL .M         9289179.840752                   :Y-coordinate of Well Head
~Curve Information Block
#MNEM.UNIT       API Code            Curve    Description
#--------        --------------      -----    -------------------
DEPT  .M                             :0       Index
KGAS  .MD                            :1       Permeability to Gas           
KINT  .MD                            :2       Intrinsic Permeability        
KOIL  .MD                            :3       Permeability to Oil           
KWTR  .MD                            :4       Permeability to Water         
PHIT  .V/V                           :5       Total Porosity_ includes all forms of porosity, including that occupied by bound fluids, and is independent of rock and fluid materials and of environmental effects
PHTT  .V/V                           :6       Theoretical PHIT Value        
PIGE  .V/V                           :7       Effective Porosity Less Irreducible Water
PIGN  .V/V                           :8       Effective Porosity, VISO, VPAR, and Bound Water Removed
RHGA  .G/C3                          :9       Apparent Grain Density        
SUWI  .V/V                           :10      Non-Clay Water Intergranular Water Saturation for Undisturbed Zone
VCHL  .V/V                           :11      Volume of Chlorite Relative to Total Volume
VCL   .V/V                           :12      Volume of Clay Type Material Relative to Total Volume
VCLC  .V/V                           :13      Volume of Calcite Relative to Total Volume
VCOA  .V/V                           :14      Volume of Coal Relative to Total Volume
VDOL  .V/V                           :15      Volume of Dolomite Relative to Total Volume
VFEL  .V/V                           :16      Volume of Feldspar Relative to Total Volume
VIGN  .V/V                           :17      Volume of Igneous Rock Relative to Total Volume
VILL  .V/V                           :18      Volume of Illite (dry) Relative to Total Volume
VMHY  .V/V                           :19      Volume of Moved Hydrocarbon Relative to Total Volume
VQUA  .V/V                           :20      Volume of Quartz Relative to Total Volume
VUGA  .V/V                           :21      Volume of Gas in Undisturbed Zone
VUOI  .V/V                           :22      Volume of Oil in Undisturbed Zone
VUWA  .V/V                           :23      Volume of Water in Undisturbed Zone
VXBW  .V/V                           :24      Volume of Bound Water in Flushed Zone
VXGA  .V/V                           :25      Volume of Gas in Flushed Zone 
VXOI  .V/V                           :26      Volume of Oil in Flushed Zone 
VXWA  .V/V                           :27      Volume of Water in Flushed Zone
~Ascii Data Section
# ...
   1522.93360       0.00100       0.01338       0.00100       0.01338       0.20611       0.25251       0.13766       0.13766       2.72540       1.00000       0.00000       0.53098       0.00039       0.00000       0.00000       0.00000       0.00000       0.46254       0.00000       0.33097       0.00000       0.00000       0.13766       0.06844       0.00000       0.00000       0.13766 
   1523.08600       0.00100       0.02930       0.00100       0.02930       0.19271       0.23454       0.13102       0.13102       2.71681       1.00000       0.00000       0.47862       0.00000       0.00000       0.00000       0.00000       0.00000       0.41692       0.00000       0.39036       0.00000       0.00000       0.13102       0.06169       0.00000       0.00000       0.13102 
   1523.23840       0.00100       0.05176       0.00100       0.05176       0.18734       0.22613       0.13012       0.13012       2.71155       1.00000       0.00000       0.44390       0.00000       0.00000       0.00000       0.00000       0.00000       0.38668       0.00000       0.42598       0.00000       0.00000       0.13012       0.05722       0.00000       0.00000       0.13012 
   1523.39080       0.00100       0.25164       0.00100       0.25164       0.20207       0.23496       0.15356       0.15356       2.70314       1.00000       0.00000       0.37632       0.00000       0.00000       0.00000       0.00000       0.00000       0.32781       0.00000       0.47012       0.00000       0.00000       0.15356       0.04851       0.00000       0.00000       0.15356 
   1523.54320       0.00100       0.34952       0.00100       0.34952       0.21624       0.24869       0.16838       0.16838       2.70338       1.00000       0.00000       0.37128       0.00000       0.00000       0.00000       0.00000       0.00000       0.32342       0.00000       0.46034       0.00000       0.00000       0.16838       0.04786       0.00000       0.00000       0.16838 
   1523.69560       0.00100       0.33678       0.00100       0.33678       0.22210       0.25511       0.17342       0.17342       2.70471       1.00000       0.00000       0.37768       0.00000       0.00000       0.00000       0.00000       0.00000       0.32899       0.00000       0.44890       0.00000       0.00000       0.17342       0.04868       0.00000       0.00000       0.17342 
   1523.84800       0.00100       0.14072       0.00100       0.14072       0.21408       0.25047       0.16040       0.16040       2.70971       1.00000       0.00000       0.41643       0.00000       0.00000       0.00000       0.00000       0.00000       0.36275       0.00000       0.42317       0.00000       0.00000       0.16040       0.05368       0.00000       0.00000       0.16040 
   1524.00040       0.00100       0.06270       0.00100       0.06270       0.20761       0.24718       0.14923       0.14923       2.71440       1.00000       0.00000       0.45285       0.00000       0.00000       0.00000       0.00000       0.00000       0.39447       0.00000       0.39792       0.00000       0.00000       0.14923       0.05837       0.00000       0.00000       0.14923 
   1524.15280       0.00100       0.04296       0.00100       0.04296       0.20805       0.24936       0.14712       0.14712       2.71726       1.00000       0.00000       0.47269       0.00000       0.00000       0.00000       0.00000       0.00000       0.41176       0.00000       0.38019       0.00000       0.00000       0.14712       0.06093       0.00000       0.00000       0.14712 
   1524.30520       0.00100       0.02112       0.00100       0.02112       0.21043       0.25405       0.14454       0.14454       2.72296       1.00000       0.00000       0.51119       0.00000       0.00000       0.00000       0.00000       0.00000       0.44529      -0.00709       0.34427       0.00000       0.00000       0.14454       0.06589       0.00709       0.00000       0.13745 
   1524.45760       0.00100       0.02035       0.00100       0.02035       0.21332       0.25600       0.14689       0.14689       2.72382       1.00000       0.00000       0.51537       0.00000       0.00000       0.00000       0.00000       0.00000       0.44894      -0.01577       0.33774       0.00000       0.00000       0.14689       0.06643       0.01577       0.00000       0.13112 
   1524.61000       0.00100       0.02726       0.00100       0.02726       0.21891       0.25905       0.15388       0.15388       2.72279       1.00000       0.00000       0.50454       0.00000       0.00000       0.00000       0.00000       0.00000       0.43950      -0.02637       0.34158       0.00000       0.00000       0.15388       0.06504       0.02637       0.00000       0.12751 
   1524.76240       0.00100       0.05209       0.00100       0.05209       0.21704       0.25409       0.15648       0.15648       2.71762       1.00000       0.00000       0.46986       0.00000       0.00000       0.00000       0.00000       0.00000       0.40930      -0.02681       0.37366       0.00000       0.00000       0.15648       0.06057       0.02681       0.00000       0.12967 
   1524.91480       0.00100       0.03056       0.00100       0.03056       0.20906       0.24823       0.14576       0.14576       2.71996       1.00000       0.00000       0.49107       0.00000       0.00000       0.00000       0.00000       0.00000       0.42777      -0.02495       0.36317       0.00000       0.00000       0.14576       0.06330       0.02495       0.00000       0.12081 
   1525.06720       0.00100       0.01843       0.00100       0.01843       0.20883       0.25000       0.14220       0.14220       2.72362       1.00000       0.00000       0.51691       0.00000       0.00000       0.00000       0.00000       0.00000       0.45028      -0.02672       0.34089       0.00000       0.00000       0.14220       0.06663       0.02672       0.00000       0.11548 
   1525.21960       0.00100       0.03867       0.00100       0.03867       0.21301       0.25278       0.15087       0.15087       2.71903       1.00000       0.00000       0.48210       0.00000       0.00000       0.00000       0.00000       0.00000       0.41996      -0.01582       0.36703       0.00000       0.00000       0.15087       0.06214       0.01582       0.00000       0.13505 
   1525.37200       0.00100       0.06706       0.00100       0.06706       0.21524       0.25336       0.15653       0.15653       2.71541       1.00000       0.00000       0.45550       0.00000       0.00000       0.00000       0.00000       0.00000       0.39679      -0.01129       0.38797       0.00000       0.00000       0.15653       0.05871       0.01129       0.00000       0.14524 
   1525.52440       0.00100       0.10699       0.00100       0.10699       0.21025       0.24691       0.15515       0.15515       2.71100       1.00000       0.00000       0.42748       0.00000       0.00000       0.00000       0.00000       0.00000       0.37238      -0.00471       0.41737       0.00000       0.00000       0.15515       0.05510       0.00471       0.00000       0.15044 
   1525.67680       0.00100       0.07371       0.00100       0.07371       0.20258       0.24021       0.14584       0.14584       2.71221       1.00000       0.00000       0.44019       0.00000       0.00000       0.00000       0.00000       0.00000       0.38345      -0.00565       0.41397       0.00000       0.00000       0.14584       0.05674       0.00565       0.00000       0.14020 
   1525.82920       0.00100       0.07474       0.00100       0.07474       0.20155       0.23906       0.14502       0.14502       2.71189       1.00000       0.00000       0.43856       0.00000       0.00000       0.00000       0.00000       0.00000       0.38203      -0.00547       0.41642       0.00000       0.00000       0.14502       0.05653       0.00547       0.00000       0.13955 
   1525.98160       0.00100       0.07920       0.00100       0.07920       0.20412       0.24239       0.14769       0.14769       2.71199       1.00000       0.00000       0.43783       0.00000       0.00000       0.00000       0.00000       0.00000       0.38139       0.00000       0.41448       0.00000       0.00000       0.14769       0.05644       0.00000       0.00000       0.14769 
