~VERSION INFORMATION
 VERS.               1.20:   CWLS LOG ASCII STANDARD - VERSION 1.20
 WRAP.                 NO:   ONE LINE PER DEPTH STEP
~WELL INFORMATION
#MNEM.UNIT      DATA TYPE    INFORMATION
#----------   ------------   ------------------------------
 STRT.M          630.6096:   START DEPTH
 STOP.M         3133.6272:   STOP DEPTH
 STEP.M            0.1524:   STEP LENGTH
 NULL.          -999.2500:   NO VALUE
 COMP.            COMPANY:   PERTAMINA
 WELL.               WELL:   CMS-004
 WBN .            CMS-004:   WELLBORE
 FLD .              FIELD:   CEMARA SELATAN
 LOC .           LOCATION:   X = + 149636.27  Y = - 719813.7
 PROV.           PROVINCE:   JAWA BARAT
 STAT.              STATE:   INDONESIA
 SRVC.    SERVICE COMPANY:   SCHLUMBERGER
 DATE.            LOGDATE:   11/24/77
 APIN.         API NUMBER:   -
 UWI .  CEMARASELATAN-004:   UNIQUE WELL ID 
~CURVE INFORMATION
#MNEM.UNIT       API CODE    CURVE DESCRIPTION
#----------   ------------   ------------------------------
 DEPT.M                  :
 CALI.inch   60 280 00 00:   Caliper
 GR  .GAPI   60 310 00 00:   Gamma Ray
 SP  .mV     60 010 01 00:   Spontaneous Potential
 ILD .ohmm   05 070 46 00:   Induction Laterolog, Deep
 SN  .ohmm   05 040 16 00:   Short Normal 16"
 NPHI.%      42 890 03 00:   Neu. Porosity, Ss [%]
 RHOB.kg/cm3 42 350 01 00:   Bulk Density
 DRHO.g/cc   42 356 01 00:   Density Correction
 PROX.ohmm   21 270 30 00:   Proximity Log
~PARAMETER INFORMATION
#MNEM.UNIT          VALUE    DESCRIPTION
#----------   ------------   ------------------------------
 EKB .M            0.0000:   Kelly bushing
 EGL .M            0.0000:   Ground level
 EDF .M           10.0000:   Drilling floor
 EPD .M           10.0000:   Permanent datum
 TD  .M         3129.0000:   Total depth
 DF  .      CONGLONGMERAT:   Deepest formation
 PROJ.       SCHLUMBERGER:   Project
 DATE.           11/24/77:   Date logged
 SRFX.M       185028.4000:   Surface X position
 SRFY.M      9281121.0000:   Surface Y position
 STUS.                  3:   1-18 API codes
 SLAT.DECIMAL DE  -6.4963:   Surface Latitude
 SLNG.DECIMAL DE 108.1521:   Surface Longitude
 BLAT.DECIMAL DE   0.0000:   Bottom Latitude
 BLNG.DECIMAL DE   0.0000:   Bottom Longitude
 SCTN.                  0:   Section Number
 NSFT.F            0.0000:   N-S Footage
 EWFT.F            0.0000:   E-F Footage
 BHT .Degf            100:   Bottom Hole Temperature
 MRT .Degf            100:   Max Recorded Temperature
 MST .Degf             87:   Mud Temperature
 RM  .Ohmm            3.0:   Mud Resistivity
 RMB .Degf  2.7 ohmm @100:   Mud BHT Resistivity
 RMC .Ohmm           4.72:   Mud Cake Resistivity
 RMF .Ohmm           1.93:   Mud Filtrate Resistivity
 DFD .G/c3           1.05:   Drilling Fluid Density
 DFV .Sec              43:   Drilling Fluid Viscosity
 DFPH.                  9:   Drilling Fluid pH
 DFL .Ml               14:   Drilling Fluid Loss
 DD  .Mtr          3129.0:   Depth driller
 DL  .Mtr          3129.8:   Depth logger
 BLI .Mtr          3129.5:   Bottom log interval
 TLI .Mtr            2767:   Top log interval
 CSS .Inch          9 5/8:   Casing size
 CTD1.Mtr   9 5/8" @ 1300:   Casing driller 1
 CTL1.Mtr          1299.7:   Casing logger 1
 BS  .Inch          8 5/8:   Bit size
 DFT . Bentonite / Q.Broxin:   Type fluid in hole
 WSS .           Flowline:   Source of sample
 EMT .Degf 0.48 ohmm @ 95:   Rm Meas. temp.
 MFT .Degf 0.31 ohmm @ 80:   Rmf Meas. temp.
 MCST.Degf 0.66 ohmm @ 26:   Rmc Meas. temp.
 MFSS.              Press:   Source Rmf.
 MCSS.              Press:   Source Rmc.
 TCS .HRS              12:   Time Circ. stopped
 LUN .               RS18:   Logging unit number
 LUL .                WJV:   Logging unit location
 ENGI.            M.Akbar:   Recorded By
 WITN.  Wardoyo / Sugipto:   Witnessed by
 RE1 .        ILD (6FF40):   Res. Electrode #1
 RE2 .      SN  (A-16" M):   Res. Electrode #2
 TLAB.Hrs              12:   Time logger at bottom
 DATE.           12/02/77:   Date logged
 DATE.           12/13/77:   Date logged
 DATE.           01/10/77:   Date logged
 DATE.           01/28/78:   Date logged
 BHT .Degf            110:   Bottom Hole Temperature
 BHT .Degf            155:   Bottom Hole Temperature
 BHT .Degf            250:   Bottom Hole Temperature
 BHT .Degf            270:   Bottom Hole Temperature
 MRT .Degf            110:   Max Recorded Temperature
 MRT .Degf            155:   Max Recorded Temperature
 MRT .Degf            250:   Max Recorded Temperature
 MRT .Degf            270:   Max Recorded Temperature
 MST .Degf             80:   Mud Temperature
 MST .Degf             85:   Mud Temperature
 MST .Degf             85:   Mud Temperature
 MST .Degf             95:   Mud Temperature
 RM  .Ohmm           2.05:   Mud Resistivity
 RM  .Ohmm           1.51:   Mud Resistivity
 RM  .Ohmm           0.71:   Mud Resistivity
 RM  .Ohmm           0.48:   Mud Resistivity
 RMB .Degf 1.6 ohmm @ 110:   Mud BHT Resistivity
 RMB .Degf 0.9 ohmm @ 155:   Mud BHT Resistivity
 RMB .Degf 0.24 ohmm @ 250:   Mud BHT Resistivity
 RMB .Degf 0.16 ohmm @ 270:   Mud BHT Resistivity
 RMC .Ohmm           2.12:   Mud Cake Resistivity
 RMC .Ohmm           1.62:   Mud Cake Resistivity
 RMC .Ohmm           1.11:   Mud Cake Resistivity
 RMC .Ohmm 0.66 ohmm @ 26:   Mud Cake Resistivity
 RMF .Ohmm           1.91:   Mud Filtrate Resistivity
 RMF .Ohmm           1.36:   Mud Filtrate Resistivity
 RMF .Ohmm           0.46:   Mud Filtrate Resistivity
 RMF .Ohmm 0.31 ohmm @ 80:   Mud Filtrate Resistivity
 DFD .G/c3           1.15:   Drilling Fluid Density
 DFD .G/c3           1.14:   Drilling Fluid Density
 DFD .G/c3           1.17:   Drilling Fluid Density
 DFD .G/c3           1.23:   Drilling Fluid Density
 DFV .Sec              42:   Drilling Fluid Viscosity
 DFV .Sec              55:   Drilling Fluid Viscosity
 DFV .Sec              65:   Drilling Fluid Viscosity
 DFV .Sec              65:   Drilling Fluid Viscosity
 DFPH.                  9:   Drilling Fluid pH
 DFPH.                  9:   Drilling Fluid pH
 DFPH.                9.5:   Drilling Fluid pH
 DFPH.                9.5:   Drilling Fluid pH
 DFL .Ml               10:   Drilling Fluid Loss
 DFL .Ml              6.5:   Drilling Fluid Loss
 DFL .Ml                5:   Drilling Fluid Loss
 DFL .Ml                5:   Drilling Fluid Loss
 DD  .Mtr             255:   Depth driller
 DD  .Mtr             635:   Depth driller
 DD  .Mtr            1305:   Depth driller
 DD  .Mtr            2798:   Depth driller
 DL  .Mtr             255:   Depth logger
 DL  .Mtr             635:   Depth logger
 DL  .Mtr            1303:   Depth logger
 DL  .Mtr          2799.3:   Depth logger
 BLI .Mtr           254.7:   Bottom log interval
 BLI .Mtr           634.7:   Bottom log interval
 BLI .Mtr            1302:   Bottom log interval
 BLI .Mtr          2799.0:   Bottom log interval
 TLI .Mtr            30.0:   Top log interval
 TLI .Mtr           259.3:   Top log interval
 TLI .Mtr           630.5:   Top log interval
 TLI .Mtr          1299.7:   Top log interval
 CSS .Inch             30:   Casing size
 CSS .Inch             20:   Casing size
 CSS .Inch         12 1/4:   Casing size
 CSS .Inch          9 5/8:   Casing size
 CTD1.Mtr              30:   Casing driller 1
 CTD1.Mtr           259.1:   Casing driller 1
 CTD1.Mtr             630:   Casing driller 1
 CTD1.Mtr            1300:   Casing driller 1
 CTL1.Mtr              30:   Casing logger 1
 CTL1.Mtr           250.5:   Casing logger 1
 CTL1.Mtr           630.5:   Casing logger 1
 CTL1.Mtr          1299.7:   Casing logger 1
 BS  .Inch          9 7/8:   Bit size
 BS  .Inch          9 7/8:   Bit size
 BS  .Inch             12:   Bit size
 BS  .Inch          8 5/8:   Bit size
 DFT .          bentonite:   Type fluid in hole
 DFT .          bentonite:   Type fluid in hole
 DFT .          bentonite:   Type fluid in hole
 DFT .          bentonite:   Type fluid in hole
 WSS .           flowline:   Source of sample
 WSS .           flowline:   Source of sample
 WSS .           flowline:   Source of sample
 WSS .           flowline:   Source of sample
 EMT .Degf  3.0 ohmm @ 87:   Rm Meas. temp.
 EMT .Degf 2.05 ohmm @ 80:   Rm Meas. temp.
 EMT .Degf 1.51 ohmm @ 85:   Rm Meas. temp.
 EMT .Degf 0.71 ohmm @ 85:   Rm Meas. temp.
 MFT .Degf 2.72 ohmm @ 87:   Rmf Meas. temp.
 MFT .Degf 1.91 ohmm @ 80:   Rmf Meas. temp.
 MFT .Degf 1.36 ohmm @ 85:   Rmf Meas. temp.
 MFT .Degf 0.46 ohmm @ 85:   Rmf Meas. temp.
 MCST.Degf 1.93 ohmm @ 87:   Rmc Meas. temp.
 MCST.Degf 2.12 ohmm @ 80:   Rmc Meas. temp.
 MCST.Degf 1.62 ohmm @ 85:   Rmc Meas. temp.
 MCST.Degf 1.11 ohmm @ 85:   Rmc Meas. temp.
 MFSS.                  p:   Source Rmf.
 MFSS.                  p:   Source Rmf.
 MFSS.                  p:   Source Rmf.
 MFSS.                  p:   Source Rmf.
 MCSS.                  p:   Source Rmc.
 MCSS.                  p:   Source Rmc.
 MCSS.                  p:   Source Rmc.
 MCSS.                  p:   Source Rmc.
 TCS .HRS             1.5:   Time Circ. stopped
 TCS .HRS               3:   Time Circ. stopped
 TCS .HRS               4:   Time Circ. stopped
 TCS .HRS               7:   Time Circ. stopped
 LUN .               4618:   Logging unit number
 LUN .               4618:   Logging unit number
 LUN .               4618:   Logging unit number
 LUL .                mjv:   Logging unit location
 LUL .                mjv:   Logging unit location
 LUL .                mjv:   Logging unit location
 LUL .                mjv:   Logging unit location
 WITN.            Sukarna:   Witnessed by
 RE1 .                ILD:   Res. Electrode #1
 RE1 .                ILD:   Res. Electrode #1
 RE1 .                ILD:   Res. Electrode #1
 RE1 .                ILD:   Res. Electrode #1
 RE2 .                 SN:   Res. Electrode #2
 RE2 .                 SN:   Res. Electrode #2
 RE2 .                 SN:   Res. Electrode #2
 RE2 .                 SN:   Res. Electrode #2
 TLAB.Hrs             1.5:   Time logger at bottom
 TLAB.Hrs               3:   Time logger at bottom
 TLAB.Hrs               4:   Time logger at bottom
 TLAB.Hrs               7:   Time logger at bottom
 DGBY.            Sukarna:   Digitized By
 DGBY.            Sukarna:   Digitized By
 DGBY.            Sukarna:   Digitized By
 DGBY.            Sukarna:   Digitized By
 DGBY.            Sukarna:   Digitized By
~A  DEPTH     CALI         GR         SP        ILD         SN       NPHI       RHOB       DRHO       PROX
# ...
 1665.2530     9.5851    62.9004    -1.7750     1.5474     1.6481    30.9809     2.2855     0.0452     1.3124
 1665.4060     9.4294    60.1320    -1.7555     1.5767     1.6021    31.2933     2.2464     0.0187     1.4846
 1665.5580     9.0861    57.2191    -2.7526     1.6295     1.6640    31.1774     2.2154     0.0458     2.1086
 1665.7100     9.0151    55.0608    -4.9248     1.7037     1.7611    30.8864     2.2352     0.0610     2.1543
 1665.8630     8.9823    52.4476    -7.4750     1.7887     1.8620    30.4108     2.2195     0.0747     2.0790
 1666.0150     8.9833    51.9580    -9.7978     1.8458     1.9256    29.9764     2.2265     0.0773     2.1611
 1666.1680     8.9859    53.1184   -11.4768     1.8963     1.9952    29.1153     2.2355     0.0472     2.1637
 1666.3200     8.9990    54.0055   -12.1214     1.9481     2.0672    28.7121     2.2226     0.0543     2.1549
 1666.4720     8.9864    53.8868   -12.1717     2.0095     2.1189    28.1431     2.2200     0.0476     2.1859
 1666.6250     8.9925    52.4537   -11.9776     2.0401     2.1497    27.9953     2.1967     0.0313     2.1706
 1666.7770     9.0280    50.4620   -11.9243     2.0594     2.1556    28.2792     2.1887     0.0305     2.2323
 1666.9300     9.0328    48.6091   -12.0754     2.0713     2.1751    28.5930     2.2100     0.0457     2.1402
 1667.0820     9.0591    48.1901   -12.0713     2.0616     2.1822    28.8815     2.2282     0.0575     2.0508
 1667.2340     9.0502    50.5904   -11.9716     2.0301     2.1827    28.6823     2.2460     0.0752     2.2928
 1667.3870     9.0330    51.8452   -11.9095     2.0313     2.1832    28.4763     2.2581     0.0733     2.3108
 1667.5390     9.0330    51.9442   -11.4144     2.0326     2.1919    28.9513     2.2758     0.0910     2.1871
 1667.6920     9.0343    53.8699   -10.9789     2.0339     2.2000    30.1018     2.2860     0.0699     2.1534
 1667.8440     9.0353    56.5376   -10.4913     2.0065     2.1693    30.2256     2.2686     0.0780     2.0887
 1667.9960     9.0360    56.5937   -10.0457     1.9417     2.1406    29.9915     2.2761     0.0679     1.9339
 1668.1490     9.0393    56.3425   -10.0488     1.8597     2.0739    29.4490     2.2726     0.0538     1.8953
 1668.3010     9.0563    59.1307   -10.2357     1.7734     2.0303    28.6583     2.2540     0.0753     2.0378
 1668.4540     9.0771    61.0068   -10.5015     1.6957     2.0221    29.1442     2.2776     0.0957     2.1375
 1668.6060     9.0962    56.0072   -10.6480     1.6846     2.0250    30.0064     2.3109     0.1152     2.2025
 1668.7580     9.1007    52.8699   -10.4903     1.6894     2.0375    29.7328     2.3167     0.0843     2.1799
 1668.9110     9.1016    53.5250   -10.1444     1.7119     2.0288    29.5476     2.2935     0.0618     1.9667
 1669.0630     9.1023    56.7487    -9.9503     1.7368     2.0386    29.6164     2.2883     0.0574     1.9252
 1669.2160     9.1054    58.5847    -9.6496     1.7501     2.0552    28.9872     2.3051     0.0643     1.9886
 1669.3680     9.1267    59.5331    -9.2428     1.7635     2.0688    27.4591     2.3365     0.0411     2.0965
 1669.5200     9.1523    60.9629    -8.6751     1.7406     2.0693    26.1186     2.3508     0.0233     2.9315
 1669.6730     9.1222    62.6691    -7.9096     1.7114     2.0846    25.9254     2.3845     0.0297     3.4536
 1669.8250     9.0523    61.4346    -7.0459     1.6812     2.0999    26.9932     2.3580     0.0230     2.5025
 1669.9780     9.0695    58.8693    -5.9923     1.6447     2.0729    28.2782     2.3230    -0.0029     1.9788
 1670.1300     9.1573    62.9525    -5.6639     1.6267     2.0120    28.0302     2.3005     0.0100     2.0103
 1670.2820     9.2276    65.2876    -5.4165     1.5994     1.9157    27.5665     2.3023     0.0335     2.0095
 1670.4350     9.2114    67.0504    -4.9422     1.5921     1.8623    27.3471     2.3291     0.0316     1.9878
 1670.5870     9.1926    67.8072    -4.2826     1.5817     1.8145    27.4572     2.3272     0.0257     1.9386
 1670.7400     9.1341    68.2132    -4.1170     1.5828     1.7852    27.2536     2.3146     0.0154     1.9236
 1670.8920     9.0622    68.3401    -3.9228     1.5838     1.7856    26.7022     2.3163     0.0163     2.0257
 1671.0440     9.1253    68.0814    -3.6475     1.5849     1.7861    26.1430     2.3019     0.0201     2.0840
 1671.1970     9.1736    68.0543    -3.4974     1.5858     1.7865    26.2857     2.3049     0.0137     2.0061
 1671.3490     9.2094    68.5071    -3.4945     1.5868     1.7818    27.0252     2.3191     0.0399     1.8723
 1671.5020     9.2176    69.0086    -3.3823     1.5822     1.7666    27.0086     2.3422     0.0622     1.8712
 1671.6540     9.1999    70.1144    -2.7344     1.5612     1.7376    26.9067     2.3510     0.0468     1.9938
 1671.8060     9.1796    71.0238    -2.0780     1.5342     1.7093    27.3794     2.3460     0.0706     1.9934
 1671.9590     9.1417    71.8398    -1.6307     1.5241     1.6653    28.7934     2.3784     0.1001     1.7760
 1672.1110     9.1403    70.9990    -1.2914     1.5206     1.6357    29.8940     2.3569     0.0624     1.9280
 1672.2640     9.1218    68.1526    -0.9691     1.5082     1.5968    30.4643     2.3092     0.0471     1.7913
 1672.4160     9.1061    69.0031    -0.4945     1.4843     1.5728    29.4958     2.3422     0.0718     1.5996
 1672.5680     9.0848    71.1049    -0.0751     1.4371     1.5322    28.3226     2.3643     0.0976     1.4344
 1672.7210     9.0756    72.8488    -0.0334     1.3661     1.4982    28.7217     2.3500     0.1260     1.7959
 1672.8730     9.1175    74.6290     0.3512     1.2743     1.4570    29.4488     2.3686     0.1358     1.6446
 1673.0260     9.3354    74.0731     0.8277     1.1766     1.4164    31.2100     2.3312     0.1065     1.2074
 1673.1780     9.3076    75.9742     1.4805     1.1163     1.3540    33.4007     2.2986     0.1244     1.0910
 1673.3300     9.1948    78.3260     1.9672     1.0395     1.2847    33.8503     2.2901     0.1006     1.1717
 1673.4830     9.2476    81.1986     2.3518     0.9647     1.2129    34.3967     2.2359     0.1207     0.9121
 1673.6350     9.2750    83.3003     2.6530     0.8937     1.1128    35.0852     2.2457     0.1478     0.7796
 1673.7880     9.2359    84.1557     2.8821     0.8690     1.0063    35.8999     2.2687     0.1620     0.7220
 1673.9400     9.2335    82.0973     2.8851     0.8633     0.9081    35.3886     2.2446     0.1462     0.6717
 1674.0920     9.2347    80.4322     2.9271     0.8640     0.8701    34.6092     2.2519     0.1588     0.7170
 1674.2450     9.2355    79.9338     3.0464     0.8731     0.8869    33.6635     2.2541     0.1403     0.8395
 1674.3970     9.2366    79.3085     3.1613     0.8838     0.9304    32.6302     2.2860     0.1572     1.0045
 1674.5500     9.2376    80.2570     3.2080     0.8916     0.9737    32.8746     2.3058     0.1172     1.1311
 1674.7020     9.2398    82.7181     3.0568     0.8975     0.9917    33.8488     2.2983     0.1329     1.0313
 1674.8540     9.2540    85.1736     2.9948     0.8981     1.0092    34.7200     2.2965     0.1497     0.8570
 1675.0070     9.2399    87.0457     2.8080     0.8860     0.9755    35.9158     2.2657     0.1433     0.9291
 1675.1590     9.1972    86.0945     2.7602     0.8724     0.9443    36.9572     2.2452     0.1430     0.9315
 1675.3120     9.1618    84.8872     2.7424     0.8522     0.9159    37.2548     2.2546     0.1349     0.8572
 1675.4640     9.0817    83.4990     2.6134     0.8412     0.8931    37.1433     2.2497     0.1135     0.8807
 1675.6160     9.0443    82.4013     2.7112     0.8273     0.8937    36.5901     2.2295     0.1359     0.9663
 1675.7690     8.9698    80.0518     2.7753     0.8218     0.9060    35.1719     2.2488     0.1133     1.0461
 1675.9210     8.9904    78.7564     2.7912     0.8223     0.9341    34.1700     2.2625     0.1313     1.0535
 1676.0740     9.0310    77.5378     2.9854     0.8257     0.9664    34.6594     2.2831     0.1146     1.1483
 1676.2260     9.0627    79.1842     3.0939     0.8292     0.9804    35.1895     2.2858     0.0909     1.0859
