~Version Information
VERS  .          2.0                              :CWLS Log Ascii Standard - Version 2.0
WRAP  .          NO                               :One line per depth step
~Well Information Block
#MNEM.UNIT       Data Type                        Information
#---------       ---------                        -------------------------------
STRT  .M         1250.29000                       :START DEPTH
STOP  .M         2514.44800                       :STOP DEPTH
STEP  .M          0.15240                         :INCREMENT
NULL  .          -999.25                          :NULL DATA VALUE
COMP  .          PERTAMINA                        :COMPANY
WELL  .          CMS-008A                         :WELL
WBN   .          CMS-008A                         :WELLBORE
FLD   .          CEMARA SELATAN                   :FIELD
LOC   .                                           :LOCATION
PROV  .          INDONESIA                        :PROVINCE
STAT  .          INDONESIA                        :STATE
CNTY  .                                           :COUNTY
CTRY  .                                           :COUNTRY
DATE  .                                           :DATE
UWI   .          CEMARASELATAN-CMS-008A           :UNIQUE WELL UWI
LIC   .                                           :LICENSE NUMBER
API   .                                           :API NUMBER
SRVC  .                                           :SERVICE COMPANY
~Parameter Information Block
#MNEM.UNIT       Value                            Description
#---------       ---------                        -------------
LONG  .DEG       108.170925                       :Well Surface Location
LATI  .DEG       -6.422847                        :Well Surface Location
XWELL .M         187032.710000                    :X-coordinate of Well Head
YWELL .M         9289187.741000                   :Y-coordinate of Well Head
~Curve Information Block
#MNEM.UNIT       API Code            Curve    Description
#--------        --------------      -----    -------------------
DEPT  .M                             :0       Index
KGAS  .MD                            :1       Permeability to Gas           
KINT  .MD                            :2       Intrinsic Permeability        
KOIL  .MD                            :3       Permeability to Oil           
KWTR  .MD                            :4       Permeability to Water         
PHIT  .V/V                           :5       Total Porosity_ includes all forms of porosity, including that occupied by bound fluids, and is independent of rock and fluid materials and of environmental effects
PHTT  .V/V                           :6       Theoretical PHIT Value        
PIGE  .V/V                           :7       Effective Porosity Less Irreducible Water
PIGN  .V/V                           :8       Effective Porosity, VISO, VPAR, and Bound Water Removed
RHGA  .G/C3                          :9       Apparent Grain Density        
SUWI  .V/V                           :10      Non-Clay Water Intergranular Water Saturation for Undisturbed Zone
VCLC  .V/V                           :11      Volume of Calcite Relative to Total Volume
VCOA  .V/V                           :12      Volume of Coal Relative to Total Volume
VDOL  .V/V                           :13      Volume of Dolomite Relative to Total Volume
VFEL  .V/V                           :14      Volume of Feldspar Relative to Total Volume
VILL  .V/V                           :15      Volume of Illite (dry) Relative to Total Volume
VMHY  .V/V                           :16      Volume of Moved Hydrocarbon Relative to Total Volume
VORT  .V/V                           :17      Volume of Orthoclase Relative to Total Volume
VQUA  .V/V                           :18      Volume of Quartz Relative to Total Volume
VUGA  .V/V                           :19      Volume of Gas in Undisturbed Zone
VUOI  .V/V                           :20      Volume of Oil in Undisturbed Zone
VUWA  .V/V                           :21      Volume of Water in Undisturbed Zone
VXBW  .V/V                           :22      Volume of Bound Water in Flushed Zone
VXGA  .V/V                           :23      Volume of Gas in Flushed Zone 
VXOI  .V/V                           :24      Volume of Oil in Flushed Zone 
VXWA  .V/V                           :25      Volume of Water in Flushed Zone
~Ascii Data Section
# ...
   1334.11000       0.00100       0.01000       0.00100       0.01000       0.28430       0.32122       0.18753       0.18753       2.79980       1.00000       0.15574       0.00000       0.00000       0.00000       0.52132       0.00000       0.00000       0.03864       0.00000       0.00000       0.18753       0.09677       0.00000       0.00000       0.18753 
   1334.26240       0.00100       0.01000       0.00100       0.01000       0.28562       0.32217       0.18979       0.18979       2.79261       1.00000       0.08296       0.00000       0.00000       0.00000       0.51621       0.00000       0.00000       0.11521       0.00000       0.00000       0.18979       0.09582       0.00000       0.00000       0.18979 
   1334.41480       0.00100       0.01000       0.00100       0.01000       0.28351       0.31886       0.19086       0.19086       2.78162       1.00000       0.00999       0.00000       0.00000       0.00000       0.49913       0.00000       0.00000       0.20737       0.00000       0.00000       0.19086       0.09265       0.00000       0.00000       0.19086 
   1334.56720       0.00100       0.01000       0.00100       0.01000       0.27929       0.31453       0.18690       0.18690       2.78220       1.00000       0.03089       0.00000       0.00000       0.00000       0.49768       0.00000       0.00000       0.19214       0.00000       0.00000       0.18690       0.09238       0.00000       0.00000       0.18690 
   1334.71960       0.00100       0.01000       0.00100       0.01000       0.27641       0.31198       0.18317       0.18317       2.78701       1.00000       0.08087       0.00000       0.00000       0.00000       0.50227       0.00000       0.00000       0.14046       0.00000       0.00000       0.18317       0.09324       0.00000       0.00000       0.18317 
   1334.87200       0.00100       0.01000       0.00100       0.01000       0.27538       0.31112       0.18170       0.18170       2.78667       1.00000       0.07153       0.00000       0.00000       0.00000       0.50468       0.00000       0.00000       0.14841       0.00000       0.00000       0.18170       0.09368       0.00000       0.00000       0.18170 
   1335.02440       0.00100       0.01000       0.00100       0.01000       0.26857       0.30497       0.17314       0.17314       2.78955       1.00000       0.09280       0.00000       0.00000       0.00000       0.51407       0.00000       0.00000       0.12456       0.00000       0.00000       0.17314       0.09543       0.00000       0.00000       0.17314 
   1335.17680       0.00100       0.01000       0.00100       0.01000       0.27106       0.30735       0.17597       0.17597       2.78823       1.00000       0.07651       0.00000       0.00000       0.00000       0.51230       0.00000       0.00000       0.14013       0.00000       0.00000       0.17597       0.09510       0.00000       0.00000       0.17597 
   1335.32920       0.00100       0.01000       0.00100       0.01000       0.27213       0.30726       0.18004       0.18004       2.78271       1.00000       0.05797       0.00000       0.00000       0.00000       0.49605       0.00000       0.00000       0.17385       0.00000       0.00000       0.18004       0.09208       0.00000       0.00000       0.18004 
   1335.48160       0.00100       0.01000       0.00100       0.01000       0.26741       0.30215       0.17633       0.17633       2.78070       1.00000       0.06069       0.00000       0.00000       0.00000       0.49064       0.00000       0.00000       0.18127       0.00000       0.00000       0.17633       0.09108       0.00000       0.00000       0.17633 
   1335.63400       0.00100       0.01000       0.00100       0.01000       0.26315       0.29750       0.17313       0.17313       2.77803       1.00000       0.05499       0.00000       0.00000       0.00000       0.48497       0.00000       0.00000       0.19689       0.00000       0.00000       0.17313       0.09002       0.00000       0.00000       0.17313 
   1335.78640       0.00100       0.01456       0.00100       0.01456       0.26515       0.29865       0.17735       0.17735       2.77149       1.00000       0.00806       0.00000       0.00000       0.00000       0.47300       0.00000       0.00000       0.25379       0.00000       0.00000       0.17735       0.08780       0.00000       0.00000       0.17735 
   1335.93880       0.00100       0.01864       0.00100       0.01864       0.26668       0.29951       0.18064       0.18064       2.76866       1.00000       0.00008       0.00000       0.00000       0.00000       0.46350       0.00000       0.00000       0.26974       0.00000       0.00000       0.18064       0.08604       0.00000       0.00000       0.18064 
   1336.09120       0.00100       0.01646       0.00100       0.01646       0.26516       0.29818       0.17862       0.17862       2.76962       1.00000       0.00633       0.00000       0.00000       0.00000       0.46621       0.00000       0.00000       0.26230       0.00000       0.00000       0.17862       0.08654       0.00000       0.00000       0.17862 
   1336.24360       0.00100       0.02229       0.00100       0.02229       0.26498       0.29706       0.18091       0.18091       2.76635       1.00000       0.00821       0.00000       0.00000       0.00000       0.45291       0.00000       0.00000       0.27389       0.00000       0.00000       0.18091       0.08407       0.00000       0.00000       0.18091 
   1336.39600       0.00100       0.01187       0.00100       0.01187       0.25891       0.29207       0.17201       0.17201       2.77440       1.00000       0.07191       0.00000       0.00000       0.00000       0.46816       0.00000       0.00000       0.20102       0.00000       0.00000       0.17201       0.08690       0.00000       0.00000       0.17201 
   1336.54840       0.00100       0.01000       0.00100       0.01000       0.25543       0.28816       0.16966       0.16966       2.77516       1.00000       0.10757       0.00000       0.00000       0.00000       0.46205       0.00000       0.00000       0.17494       0.00000       0.00000       0.16966       0.08577       0.00000       0.00000       0.16966 
   1336.70080       0.00100       0.01000       0.00100       0.01000       0.25068       0.28492       0.16093       0.16093       2.78022       1.00000       0.11371       0.00000       0.00000       0.00000       0.48346       0.00000       0.00000       0.15215       0.00000       0.00000       0.16093       0.08974       0.00000       0.00000       0.16093 
   1336.85320       0.00100       0.01000       0.00100       0.01000       0.26090       0.29573       0.16961       0.16961       2.77622       1.00000       0.01623       0.00000       0.00000       0.00000       0.49179       0.00000       0.00000       0.23107       0.00000       0.00000       0.16961       0.09129       0.00000       0.00000       0.16961 
   1337.00560       0.00100       0.01000       0.00100       0.01000       0.28255       0.31767       0.19049       0.19049       2.77978       1.00000       0.00003       0.00000       0.00000       0.00000       0.49592       0.00000       0.00000       0.22150       0.00000       0.00000       0.19049       0.09206       0.00000       0.00000       0.19049 
   1337.15800       0.00100       0.01000       0.00100       0.01000       0.29192       0.32747       0.19875       0.19875       2.78308       1.00000       0.00000       0.00000       0.00000       0.00000       0.50193       0.00000       0.00000       0.20614       0.00000       0.00000       0.19875       0.09317       0.00000       0.00000       0.19875 
   1337.31040       0.00100       0.01000       0.00100       0.01000       0.29035       0.32564       0.19785       0.19785       2.78182       1.00000       0.00000       0.00000       0.00000       0.00000       0.49832       0.00000       0.00000       0.21132       0.00000       0.00000       0.19785       0.09250       0.00000       0.00000       0.19785 
