~Version Information
VERS  .          2.0                              :CWLS Log Ascii Standard - Version 2.0
WRAP  .          NO                               :One line per depth step
~Well Information Block
#MNEM.UNIT       Data Type                        Information
#---------       ---------                        -------------------------------
STRT  .M         1190.09200                       :START DEPTH
STOP  .M         2429.86500                       :STOP DEPTH
STEP  .M          0.15240                         :INCREMENT
NULL  .          -999.25                          :NULL DATA VALUE
COMP  .                                           :COMPANY
WELL  .          CMS-001                          :WELL
WBN   .          CMS-001                          :WELLBORE
FLD   .          CEMARA SELATAN                   :FIELD
LOC   .                                           :LOCATION
PROV  .                                           :PROVINCE
STAT  .                                           :STATE
CNTY  .                                           :COUNTY
CTRY  .                                           :COUNTRY
DATE  .                                           :DATE
UWI   .          CEMARASELATAN-001                :UNIQUE WELL UWI
LIC   .                                           :LICENSE NUMBER
API   .                                           :API NUMBER
SRVC  .                                           :SERVICE COMPANY
~Parameter Information Block
#MNEM.UNIT       Value                            Description
#---------       ---------                        -------------
LONG  .DEG       108.170925                       :Well Surface Location
LATI  .DEG       -6.422919                        :Well Surface Location
XWELL .M         187032.780005                    :X-coordinate of Well Head
YWELL .M         9289179.840752                   :Y-coordinate of Well Head
~Curve Information Block
#MNEM.UNIT       API Code            Curve    Description
#--------        --------------      -----    -------------------
DEPT  .M                             :0       Index
KGAS  .MD                            :1       Permeability to Gas           
KINT  .MD                            :2       Intrinsic Permeability        
KOIL  .MD                            :3       Permeability to Oil           
KWTR  .MD                            :4       Permeability to Water         
PHIT  .V/V                           :5       Total Porosity_ includes all forms of porosity, including that occupied by bound fluids, and is independent of rock and fluid materials and of environmental effects
PHTT  .V/V                           :6       Theoretical PHIT Value        
PIGE  .V/V                           :7       Effective Porosity Less Irreducible Water
PIGN  .V/V                           :8       Effective Porosity, VISO, VPAR, and Bound Water Removed
RHGA  .G/C3                          :9       Apparent Grain Density        
SUWI  .V/V                           :10      Non-Clay Water Intergranular Water Saturation for Undisturbed Zone
VCHL  .V/V                           :11      Volume of Chlorite Relative to Total Volume
VCL   .V/V                           :12      Volume of Clay Type Material Relative to Total Volume
VCLC  .V/V                           :13      Volume of Calcite Relative to Total Volume
VCOA  .V/V                           :14      Volume of Coal Relative to Total Volume
VDOL  .V/V                           :15      Volume of Dolomite Relative to Total Volume
VFEL  .V/V                           :16      Volume of Feldspar Relative to Total Volume
VIGN  .V/V                           :17      Volume of Igneous Rock Relative to Total Volume
VILL  .V/V                           :18      Volume of Illite (dry) Relative to Total Volume
VMHY  .V/V                           :19      Volume of Moved Hydrocarbon Relative to Total Volume
VQUA  .V/V                           :20      Volume of Quartz Relative to Total Volume
VUGA  .V/V                           :21      Volume of Gas in Undisturbed Zone
VUOI  .V/V                           :22      Volume of Oil in Undisturbed Zone
VUWA  .V/V                           :23      Volume of Water in Undisturbed Zone
VXBW  .V/V                           :24      Volume of Bound Water in Flushed Zone
VXGA  .V/V                           :25      Volume of Gas in Flushed Zone 
VXOI  .V/V                           :26      Volume of Oil in Flushed Zone 
VXWA  .V/V                           :27      Volume of Water in Flushed Zone
~Ascii Data Section
# ...
   1196.49280       0.08079       0.13408       0.00100       0.01000       0.58483       0.60193       0.53844       0.53844       2.76237       0.39742       0.00000       0.35985       0.10171       0.00000       0.00000       0.00000       0.00000       0.31347       0.09579       0.00000       0.13570       0.18875       0.21399       0.04639       0.09564       0.13302       0.30978 
   1196.64520       0.07950       0.12469       0.00100       0.01000       0.58520       0.60415       0.53837       0.53837       2.76292       0.36244       0.00000       0.36330       0.09833       0.00000       0.00000       0.00000       0.00000       0.31647       0.15005       0.00000       0.15158       0.19166       0.19513       0.04683       0.08532       0.10787       0.34517 
   1196.79760       0.08238       0.12598       0.00100       0.01000       0.58127       0.60071       0.53438       0.53438       2.76249       0.34607       0.00000       0.36375       0.10187       0.00000       0.00000       0.00000       0.00000       0.31686       0.16028       0.00000       0.15215       0.19730       0.18494       0.04689       0.08236       0.10680       0.34522 
   1196.95000       0.09080       0.13798       0.00100       0.01000       0.56746       0.58729       0.52078       0.52078       2.76059       0.34196       0.00000       0.36214       0.11708       0.00000       0.00000       0.00000       0.00000       0.31546       0.15282       0.00000       0.14222       0.20047       0.17809       0.04668       0.07880       0.11108       0.33090 
   1197.10240       0.09348       0.14223       0.00100       0.01000       0.55108       0.57056       0.50426       0.50426       2.75889       0.34273       0.00000       0.36323       0.13251       0.00000       0.00000       0.00000       0.00000       0.31641       0.15221       0.00000       0.15129       0.18014       0.17282       0.04682       0.08181       0.09741       0.32504 
   1197.25480       0.08065       0.12349       0.00100       0.01000       0.53799       0.55787       0.48999       0.48999       2.75869       0.34690       0.00000       0.37234       0.13767       0.00000       0.00000       0.00000       0.00000       0.32434       0.14646       0.00000       0.15565       0.16437       0.16998       0.04799       0.08441       0.08914       0.31644 
   1197.40720       0.05820       0.08902       0.00100       0.01000       0.53715       0.55762       0.48688       0.48688       2.76092       0.34617       0.00000       0.39004       0.12308       0.00000       0.00000       0.00000       0.00000       0.33977       0.13582       0.00000       0.15838       0.15995       0.16854       0.05028       0.09081       0.09171       0.30436 
   1197.55960       0.05045       0.07848       0.00100       0.01000       0.54059       0.56192       0.48951       0.48951       2.76212       0.35715       0.00000       0.39628       0.11421       0.00000       0.00000       0.00000       0.00000       0.34519       0.04993       0.00000       0.10547       0.20922       0.17483       0.05108       0.08874       0.17602       0.22475 
   1197.71200       0.04406       0.07102       0.00100       0.01000       0.53931       0.56234       0.48751       0.48751       2.76270       0.37951       0.00000       0.40185       0.11063       0.00000       0.00000       0.00000       0.00000       0.35005      -0.02117       0.00000       0.07535       0.22714       0.18502       0.05180       0.08063       0.24304       0.16385 
   1197.86440       0.03789       0.06469       0.00100       0.01000       0.53080       0.55440       0.47817       0.47817       2.76258       0.41422       0.00000       0.40830       0.11353       0.00000       0.00000       0.00000       0.00000       0.35567      -0.08340       0.00000       0.06210       0.21800       0.19807       0.05263       0.08058       0.28292       0.11467 
   1198.01680       0.03649       0.06800       0.00100       0.01000       0.51790       0.54122       0.46540       0.46540       2.76104       0.46338       0.00000       0.40727       0.12733       0.00000       0.00000       0.00000       0.00000       0.35477      -0.11888       0.00000       0.05544       0.19430       0.21566       0.05250       0.08183       0.28680       0.09678 
   1198.16920       0.03761       0.07974       0.00100       0.01000       0.49451       0.51815       0.44299       0.44299       2.75777       0.52834       0.00000       0.39968       0.15732       0.00000       0.00000       0.00000       0.00000       0.34816      -0.14440       0.00000       0.04454       0.16441       0.23405       0.05152       0.07531       0.27803       0.08965 
   1198.32160       0.04286       0.11407       0.00100       0.01000       0.45705       0.47447       0.40860       0.40860       2.75182       0.62430       0.00000       0.37582       0.21558       0.00000       0.00000       0.00000       0.00000       0.32738      -0.15438       0.00000       0.05125       0.10226       0.25509       0.04844       0.10278       0.20511       0.10071 
   1198.47400       0.04267       0.14185       0.00100       0.01000       0.42220       0.43486       0.37653       0.37653       2.74705       0.69920       0.00000       0.35432       0.26916       0.00000       0.00000       0.00000       0.00000       0.30865      -0.14654       0.00000       0.05320       0.06006       0.26327       0.04567       0.12204       0.13776       0.11673 
   1198.62640       0.03523       0.15862       0.00100       0.01000       0.38857       0.39955       0.34545       0.34545       2.74305       0.77789       0.00000       0.33448       0.32007       0.00000       0.00000       0.00000       0.00000       0.29137      -0.13041       0.00000       0.04507       0.03165       0.26872       0.04312       0.12168       0.08545       0.13832 
   1198.77880       0.01684       0.11826       0.00100       0.01000       0.35498       0.36688       0.31144       0.31144       2.74164       0.85763       0.00000       0.33781       0.35076       0.00000       0.00000       0.00000       0.00000       0.29426      -0.11419       0.00000       0.03286       0.01148       0.26710       0.04354       0.11749       0.04105       0.15291 
   1198.93120       0.01025       0.11242       0.00100       0.01000       0.33374       0.34581       0.29007       0.29007       2.73911       0.90882       0.00000       0.33881       0.35314       0.00000       0.00000       0.00000       0.00000       0.29514      -0.09052       0.01798       0.02645       0.00000       0.26362       0.04367       0.11696       0.00000       0.17310 
   1199.08360       0.33660       5.01172       0.00100       0.01000       0.32665       0.33993       0.29371       0.29371       2.70199       0.93284       0.00000       0.25554       0.10348       0.00000       0.00000       0.00000       0.00000       0.22260      -0.04068       0.34726       0.01973       0.00000       0.27399       0.03294       0.06041       0.00000       0.23331 
   1199.23600       0.00662       0.29029       0.00100       0.01000       0.31582       0.33367       0.27517       0.27517       2.72746       0.97720       0.00000       0.31542       0.29086       0.00000       0.00000       0.00000       0.00000       0.27476      -0.05854       0.11855       0.00627       0.00000       0.26889       0.04066       0.06481       0.00000       0.21036 
   1199.38840       0.00361       0.07932       0.00100       0.01000       0.31788       0.33952       0.27374       0.27374       2.74033       0.95454       0.00000       0.34238       0.38388       0.00000       0.00000       0.00000       0.00000       0.29824      -0.05349       0.00000       0.01029       0.00216       0.26130       0.04413       0.05517       0.01076       0.20781 
   1199.54080       0.17141       1.58194       0.00100       0.01000       0.33176       0.35557       0.29663       0.29663       2.71409       0.89164       0.00000       0.27251       0.20198       0.00000       0.00000       0.00000       0.00000       0.23738       0.03214       0.22888       0.00000       0.03214       0.26449       0.03513       0.00000       0.00000       0.29663 
