~Version Information
VERS  .          2.0                              :CWLS Log Ascii Standard - Version 2.0
WRAP  .          NO                               :One line per depth step
~Well Information Block
#MNEM.UNIT       Data Type                        Information
#---------       ---------                        -------------------------------
STRT  .M         1250.29000                       :START DEPTH
STOP  .M         2514.44800                       :STOP DEPTH
STEP  .M          0.15240                         :INCREMENT
NULL  .          -999.25                          :NULL DATA VALUE
COMP  .          PERTAMINA                        :COMPANY
WELL  .          CMS-008A                         :WELL
WBN   .          CMS-008A                         :WELLBORE
FLD   .          CEMARA SELATAN                   :FIELD
LOC   .                                           :LOCATION
PROV  .          INDONESIA                        :PROVINCE
STAT  .          INDONESIA                        :STATE
CNTY  .                                           :COUNTY
CTRY  .                                           :COUNTRY
DATE  .                                           :DATE
UWI   .          CEMARASELATAN-CMS-008A           :UNIQUE WELL UWI
LIC   .                                           :LICENSE NUMBER
API   .                                           :API NUMBER
SRVC  .                                           :SERVICE COMPANY
~Parameter Information Block
#MNEM.UNIT       Value                            Description
#---------       ---------                        -------------
LONG  .DEG       108.170925                       :Well Surface Location
LATI  .DEG       -6.422847                        :Well Surface Location
XWELL .M         187032.710000                    :X-coordinate of Well Head
YWELL .M         9289187.741000                   :Y-coordinate of Well Head
~Curve Information Block
#MNEM.UNIT       API Code            Curve    Description
#--------        --------------      -----    -------------------
DEPT  .M                             :0       Index
KGAS  .MD                            :1       Permeability to Gas           
KINT  .MD                            :2       Intrinsic Permeability        
KOIL  .MD                            :3       Permeability to Oil           
KWTR  .MD                            :4       Permeability to Water         
PHIT  .V/V                           :5       Total Porosity_ includes all forms of porosity, including that occupied by bound fluids, and is independent of rock and fluid materials and of environmental effects
PHTT  .V/V                           :6       Theoretical PHIT Value        
PIGE  .V/V                           :7       Effective Porosity Less Irreducible Water
PIGN  .V/V                           :8       Effective Porosity, VISO, VPAR, and Bound Water Removed
RHGA  .G/C3                          :9       Apparent Grain Density        
SUWI  .V/V                           :10      Non-Clay Water Intergranular Water Saturation for Undisturbed Zone
VCLC  .V/V                           :11      Volume of Calcite Relative to Total Volume
VCOA  .V/V                           :12      Volume of Coal Relative to Total Volume
VDOL  .V/V                           :13      Volume of Dolomite Relative to Total Volume
VFEL  .V/V                           :14      Volume of Feldspar Relative to Total Volume
VILL  .V/V                           :15      Volume of Illite (dry) Relative to Total Volume
VMHY  .V/V                           :16      Volume of Moved Hydrocarbon Relative to Total Volume
VORT  .V/V                           :17      Volume of Orthoclase Relative to Total Volume
VQUA  .V/V                           :18      Volume of Quartz Relative to Total Volume
VUGA  .V/V                           :19      Volume of Gas in Undisturbed Zone
VUOI  .V/V                           :20      Volume of Oil in Undisturbed Zone
VUWA  .V/V                           :21      Volume of Water in Undisturbed Zone
VXBW  .V/V                           :22      Volume of Bound Water in Flushed Zone
VXGA  .V/V                           :23      Volume of Gas in Flushed Zone 
VXOI  .V/V                           :24      Volume of Oil in Flushed Zone 
VXWA  .V/V                           :25      Volume of Water in Flushed Zone
~Ascii Data Section
   1250.29000       0.00100       0.01000       0.00100       0.01000       0.25272       0.29925       0.13078       0.13078       2.71414       1.00000       0.04153       0.00000       0.00000       0.00000       0.65693       0.00000       0.00000       0.04881       0.00000       0.00000       0.13078       0.12195       0.00000       0.00000       0.13078 
   1250.44240       0.00100       0.01000       0.00100       0.01000       0.24368       0.29062       0.12063       0.12063       2.71739       1.00000       0.08549       0.00000       0.00000       0.00000       0.66285       0.00000       0.00000       0.00799       0.00000       0.00000       0.12063       0.12304       0.00000       0.00000       0.12063 
   1250.59480       0.00100       0.01000       0.00100       0.01000       0.23550       0.28346       0.10979       0.10979       2.71812       1.00000       0.08730       0.00000       0.00000       0.00000       0.67720       0.00000       0.00000       0.00000       0.00000       0.00000       0.10979       0.12571       0.00000       0.00000       0.10979 
   1250.74720       0.00100       0.01000       0.00100       0.01000       0.24031       0.28722       0.11734       0.11734       2.71799       1.00000       0.09726       0.00000       0.00000       0.00000       0.66243       0.00000       0.00000       0.00000       0.00000       0.00000       0.11734       0.12297       0.00000       0.00000       0.11734 
   1250.89960       0.00100       0.01000       0.00100       0.01000       0.25238       0.29734       0.13452       0.13452       2.71778       1.00000       0.11272       0.00000       0.00000       0.00000       0.63490       0.00000       0.00000       0.00000       0.00000       0.00000       0.13452       0.11786       0.00000       0.00000       0.13452 
   1251.05200       0.00100       0.01000       0.00100       0.01000       0.24857       0.29479       0.12743       0.12743       2.71796       1.00000       0.09881       0.00000       0.00000       0.00000       0.65262       0.00000       0.00000       0.00000       0.00000       0.00000       0.12743       0.12115       0.00000       0.00000       0.12743 
   1251.20440       0.00100       0.01000       0.00100       0.01000       0.24767       0.29597       0.12109       0.12109       2.71831       1.00000       0.07042       0.00000       0.00000       0.00000       0.68190       0.00000       0.00000       0.00000       0.00000       0.00000       0.12109       0.12658       0.00000       0.00000       0.12109 
   1251.35680       0.00100       0.01000       0.00100       0.01000       0.25760       0.30518       0.13287       0.13287       2.71829       1.00000       0.07051       0.00000       0.00000       0.00000       0.67189       0.00000       0.00000       0.00000       0.00000       0.00000       0.13287       0.12472       0.00000       0.00000       0.13287 
   1251.50920       0.00100       0.01000       0.00100       0.01000       0.25072       0.29770       0.12757       0.12757       2.71811       1.00000       0.08588       0.00000       0.00000       0.00000       0.66340       0.00000       0.00000       0.00000       0.00000       0.00000       0.12757       0.12315       0.00000       0.00000       0.12757 
   1251.66160       0.00100       0.01000       0.00100       0.01000       0.25036       0.29733       0.12724       0.12724       2.71811       1.00000       0.08642       0.00000       0.00000       0.00000       0.66323       0.00000       0.00000       0.00000       0.00000       0.00000       0.12724       0.12311       0.00000       0.00000       0.12724 
   1251.81400       0.00100       0.01000       0.00100       0.01000       0.26492       0.31040       0.14574       0.14574       2.71800       1.00000       0.09301       0.00000       0.00000       0.00000       0.64206       0.00000       0.00000       0.00000       0.00000       0.00000       0.14574       0.11919       0.00000       0.00000       0.14574 
   1251.96640       0.00100       0.01000       0.00100       0.01000       0.26728       0.31189       0.15034       0.15034       2.71788       1.00000       0.10278       0.00000       0.00000       0.00000       0.62994       0.00000       0.00000       0.00000       0.00000       0.00000       0.15034       0.11694       0.00000       0.00000       0.15034 
   1252.11880       0.00100       0.01000       0.00100       0.01000       0.26470       0.30884       0.14902       0.14902       2.71777       1.00000       0.11209       0.00000       0.00000       0.00000       0.62320       0.00000       0.00000       0.00000       0.00000       0.00000       0.14902       0.11568       0.00000       0.00000       0.14902 
   1252.27120       0.00100       0.01000       0.00100       0.01000       0.26800       0.31266       0.15093       0.15093       2.71788       1.00000       0.10118       0.00000       0.00000       0.00000       0.63066       0.00000       0.00000       0.00016       0.00000       0.00000       0.15093       0.11707       0.00000       0.00000       0.15093 
   1252.42360       0.00100       0.01000       0.00100       0.01000       0.26717       0.31352       0.14567       0.14567       2.71818       1.00000       0.07830       0.00000       0.00000       0.00000       0.65451       0.00000       0.00000       0.00003       0.00000       0.00000       0.14567       0.12150       0.00000       0.00000       0.14567 
   1252.57600       0.00100       0.01000       0.00100       0.01000       0.26935       0.31634       0.14621       0.14621       2.71832       1.00000       0.06727       0.00000       0.00000       0.00000       0.66338       0.00000       0.00000       0.00000       0.00000       0.00000       0.14621       0.12314       0.00000       0.00000       0.14621 
   1252.72840       0.00100       0.01000       0.00100       0.01000       0.26665       0.31312       0.14484       0.14484       2.71820       1.00000       0.07717       0.00000       0.00000       0.00000       0.65619       0.00000       0.00000       0.00000       0.00000       0.00000       0.14484       0.12181       0.00000       0.00000       0.14484 
   1252.88080       0.00100       0.01000       0.00100       0.01000       0.25683       0.30292       0.13604       0.13604       2.71802       1.00000       0.09243       0.00000       0.00000       0.00000       0.65074       0.00000       0.00000       0.00000       0.00000       0.00000       0.13604       0.12080       0.00000       0.00000       0.13604 
   1253.03320       0.00100       0.01000       0.00100       0.01000       0.24911       0.29607       0.12603       0.12603       2.71809       1.00000       0.08786       0.00000       0.00000       0.00000       0.66303       0.00000       0.00000       0.00000       0.00000       0.00000       0.12603       0.12308       0.00000       0.00000       0.12603 
   1253.18560       0.00100       0.01000       0.00100       0.01000       0.25017       0.29636       0.12909       0.12909       2.71797       1.00000       0.09761       0.00000       0.00000       0.00000       0.65223       0.00000       0.00000       0.00000       0.00000       0.00000       0.12909       0.12107       0.00000       0.00000       0.12909 
   1253.33800       0.00100       0.01000       0.00100       0.01000       0.25558       0.30102       0.13649       0.13649       2.71301       1.00000       0.04233       0.00000       0.00000       0.00000       0.64158       0.00000       0.00000       0.06051       0.00000       0.00000       0.13649       0.11910       0.00000       0.00000       0.13649 
   1253.49040       0.00100       0.01000       0.00100       0.01000       0.25318       0.29963       0.13142       0.13142       2.71541       1.00000       0.05815       0.00000       0.00000       0.00000       0.65592       0.00000       0.00000       0.03275       0.00000       0.00000       0.13142       0.12176       0.00000       0.00000       0.13142 
