~Version Information
VERS  .          2.0                              :CWLS Log Ascii Standard - Version 2.0
WRAP  .          NO                               :One line per depth step
~Well Information Block
#MNEM.UNIT       Data Type                        Information
#---------       ---------                        -------------------------------
STRT  .M         1250.29000                       :START DEPTH
STOP  .M         2514.44800                       :STOP DEPTH
STEP  .M          0.15240                         :INCREMENT
NULL  .          -999.25                          :NULL DATA VALUE
COMP  .          PERTAMINA                        :COMPANY
WELL  .          CMS-008A                         :WELL
WBN   .          CMS-008A                         :WELLBORE
FLD   .          CEMARA SELATAN                   :FIELD
LOC   .                                           :LOCATION
PROV  .          INDONESIA                        :PROVINCE
STAT  .          INDONESIA                        :STATE
CNTY  .                                           :COUNTY
CTRY  .                                           :COUNTRY
DATE  .                                           :DATE
UWI   .          CEMARASELATAN-CMS-008A           :UNIQUE WELL UWI
LIC   .                                           :LICENSE NUMBER
API   .                                           :API NUMBER
SRVC  .                                           :SERVICE COMPANY
~Parameter Information Block
#MNEM.UNIT       Value                            Description
#---------       ---------                        -------------
LONG  .DEG       108.170925                       :Well Surface Location
LATI  .DEG       -6.422847                        :Well Surface Location
XWELL .M         187032.710000                    :X-coordinate of Well Head
YWELL .M         9289187.741000                   :Y-coordinate of Well Head
~Curve Information Block
#MNEM.UNIT       API Code            Curve    Description
#--------        --------------      -----    -------------------
DEPT  .M                             :0       Index
KGAS  .MD                            :1       Permeability to Gas           
KINT  .MD                            :2       Intrinsic Permeability        
KOIL  .MD                            :3       Permeability to Oil           
KWTR  .MD                            :4       Permeability to Water         
PHIT  .V/V                           :5       Total Porosity_ includes all forms of porosity, including that occupied by bound fluids, and is independent of rock and fluid materials and of environmental effects
PHTT  .V/V                           :6       Theoretical PHIT Value        
PIGE  .V/V                           :7       Effective Porosity Less Irreducible Water
PIGN  .V/V                           :8       Effective Porosity, VISO, VPAR, and Bound Water Removed
RHGA  .G/C3                          :9       Apparent Grain Density        
SUWI  .V/V                           :10      Non-Clay Water Intergranular Water Saturation for Undisturbed Zone
VCLC  .V/V                           :11      Volume of Calcite Relative to Total Volume
VCOA  .V/V                           :12      Volume of Coal Relative to Total Volume
VDOL  .V/V                           :13      Volume of Dolomite Relative to Total Volume
VFEL  .V/V                           :14      Volume of Feldspar Relative to Total Volume
VILL  .V/V                           :15      Volume of Illite (dry) Relative to Total Volume
VMHY  .V/V                           :16      Volume of Moved Hydrocarbon Relative to Total Volume
VORT  .V/V                           :17      Volume of Orthoclase Relative to Total Volume
VQUA  .V/V                           :18      Volume of Quartz Relative to Total Volume
VUGA  .V/V                           :19      Volume of Gas in Undisturbed Zone
VUOI  .V/V                           :20      Volume of Oil in Undisturbed Zone
VUWA  .V/V                           :21      Volume of Water in Undisturbed Zone
VXBW  .V/V                           :22      Volume of Bound Water in Flushed Zone
VXGA  .V/V                           :23      Volume of Gas in Flushed Zone 
VXOI  .V/V                           :24      Volume of Oil in Flushed Zone 
VXWA  .V/V                           :25      Volume of Water in Flushed Zone
~Ascii Data Section
# ...
   1753.21000       0.00100       0.01000       0.00100       0.01000       0.21839       0.24525       0.14800       0.14800       2.77145       1.00000       0.39539       0.00000       0.00000       0.00000       0.37922       0.00000       0.00000       0.00699       0.00000       0.00000       0.14800       0.07039       0.00000       0.00000       0.14800 
   1753.36240       0.00100       0.01000       0.00100       0.01000       0.19102       0.21501       0.12813       0.12813       2.76353       1.00000       0.47019       0.00000       0.00000       0.00000       0.33879       0.00000       0.00000       0.00000       0.00000       0.00000       0.12813       0.06289       0.00000       0.00000       0.12813 
   1753.51480       0.00100       0.36356       0.00100       0.36356       0.14003       0.15165       0.12528       0.12528       2.76387       1.00000       0.52437       0.00000       0.22420       0.00000       0.11140      -0.00613       0.00000       0.00000       0.00000       0.00000       0.12528       0.01475       0.00613       0.00000       0.11915 
   1753.66720       0.00100       0.07232       0.00100       0.07232       0.08172       0.08471       0.07855       0.07855       2.72136       1.00000       0.84776       0.00000       0.03669       0.00000       0.03384      -0.01231       0.00000       0.00000       0.00000       0.00000       0.07855       0.00317       0.01231       0.00000       0.06624 
   1753.81960       0.00100       0.01073       0.00100       0.01073       0.04245       0.04208       0.04122       0.04122       2.71205       1.00000       0.94448       0.00000       0.00000       0.00000       0.01307      -0.01491       0.00000       0.00000       0.00000       0.00000       0.04122       0.00122       0.01491       0.00000       0.02631 
   1753.97200       0.00100       0.01000       0.00100       0.01000       0.02569       0.02506       0.02480       0.02480       2.71146       1.00000       0.96482       0.00000       0.00000       0.00000       0.00949      -0.01357       0.00000       0.00000       0.00000       0.00000       0.02480       0.00089       0.01324       0.00033       0.01123 
   1754.12440       0.00100       0.01000       0.00100       0.01000       0.01961       0.01897       0.01897       0.01897       2.71103       1.00000       0.97362       0.00000       0.00000       0.00000       0.00677      -0.01094       0.00000       0.00000       0.00000       0.00000       0.01897       0.00063       0.01065       0.00028       0.00803 
   1754.27680       0.00100       0.01000       0.00100       0.01000       0.01741       0.01712       0.01668       0.01668       2.71118       1.00000       0.97481       0.00000       0.00000       0.00000       0.00778      -0.00951       0.00000       0.00000       0.00000       0.00000       0.01668       0.00073       0.00932       0.00018       0.00718 
   1754.42920       0.00100       0.01000       0.00100       0.01000       0.01482       0.01499       0.01391       0.01391       2.71148       1.00000       0.97544       0.00000       0.00000       0.00000       0.00974      -0.00819       0.00000       0.00000       0.00000       0.00000       0.01391       0.00091       0.00816       0.00002       0.00572 
   1754.58160       0.00100       0.01000       0.00100       0.01000       0.01645       0.01636       0.01558       0.01558       2.71141       1.00000       0.97428       0.00000       0.00000       0.00000       0.00927      -0.00943       0.00000       0.00000       0.00000       0.00000       0.01558       0.00087       0.00943       0.00000       0.00615 
   1754.73400       0.00100       0.01000       0.00100       0.01000       0.01205       0.01255       0.01098       0.01098       2.71172       1.00000       0.97660       0.00000       0.00000       0.00000       0.01136      -0.00743       0.00000       0.00000       0.00000       0.00000       0.01098       0.00106       0.00743       0.00000       0.00355 
   1754.88640       0.00100       0.01000       0.00100       0.01000       0.00796       0.00887       0.00686       0.00686       2.71176       1.00000       0.98033       0.00000       0.00000       0.00000       0.01171      -0.00511       0.00000       0.00000       0.00000       0.00000       0.00686       0.00110       0.00511       0.00000       0.00176 
   1755.03880       0.00100       0.01000       0.00100       0.01000       0.00602       0.00699       0.00493       0.00493       2.71277       1.00000       0.97489       0.00000       0.00750       0.00000       0.01159      -0.00455       0.00000       0.00000       0.00000       0.00000       0.00493       0.00109       0.00455       0.00000       0.00038 
   1755.19120       0.00100       0.01000       0.00100       0.01000       0.00541       0.00655       0.00424       0.00424       2.71581       1.00000       0.95354       0.00000       0.02863       0.00000       0.01243      -0.00421       0.00000       0.00000       0.00000       0.00000       0.00424       0.00116       0.00421       0.00000       0.00004 
   1755.34360       0.00100       0.01000       0.00100       0.01000       0.00493       0.00606       0.00381       0.00381       2.71612       1.00000       0.95170       0.00000       0.03146       0.00000       0.01192      -0.00380       0.00000       0.00000       0.00000       0.00000       0.00381       0.00112       0.00380       0.00000       0.00001 
   1755.49600       0.00100       0.01000       0.00100       0.01000       0.00511       0.00632       0.00393       0.00393       2.71660       1.00000       0.94810       0.00000       0.03418       0.00000       0.01261      -0.00392       0.00000       0.00000       0.00000       0.00000       0.00393       0.00118       0.00392       0.00000       0.00001 
   1755.64840       0.00100       0.01000       0.00100       0.01000       0.00546       0.00673       0.00422       0.00422       2.71665       1.00000       0.94742       0.00000       0.03385       0.00000       0.01326      -0.00421       0.00000       0.00000       0.00000       0.00000       0.00422       0.00124       0.00421       0.00000       0.00001 
   1755.80080       0.00100       0.01000       0.00100       0.01000       0.00495       0.00646       0.00361       0.00361       2.71285       1.00000       0.97566       0.00000       0.00505       0.00000       0.01433      -0.00360       0.00000       0.00000       0.00000       0.00000       0.00361       0.00134       0.00360       0.00000       0.00001 
   1755.95320       0.00100       0.01000       0.00100       0.01000       0.00612       0.00754       0.00472       0.00472       2.71224       1.00000       0.97893       0.00000       0.00005       0.00000       0.01490      -0.00471       0.00000       0.00000       0.00000       0.00000       0.00472       0.00140       0.00471       0.00000       0.00001 
   1756.10560       0.00100       0.01000       0.00100       0.01000       0.01339       0.01369       0.01237       0.01237       2.71166       1.00000       0.97565       0.00000       0.00000       0.00000       0.01095      -0.00846       0.00000       0.00000       0.00000       0.00000       0.01237       0.00103       0.00846       0.00000       0.00391 
   1756.25800       0.00100       0.01000       0.00100       0.01000       0.01898       0.01875       0.01810       0.01810       2.71143       1.00000       0.97159       0.00000       0.00000       0.00000       0.00943      -0.01058       0.00000       0.00000       0.00000       0.00000       0.01810       0.00088       0.01053       0.00004       0.00752 
   1756.41040       0.00100       0.01000       0.00100       0.01000       0.02873       0.02766       0.02798       0.02798       2.71124       1.00000       0.96324       0.00000       0.00000       0.00000       0.00804      -0.01517       0.00000       0.00000       0.00000       0.00000       0.02798       0.00075       0.01478       0.00039       0.01280 
