~Version Information
VERS  .          2.0                              :CWLS Log Ascii Standard - Version 2.0
WRAP  .          NO                               :One line per depth step
~Well Information Block
#MNEM.UNIT       Data Type                        Information
#---------       ---------                        -------------------------------
STRT  .M         501.09100                        :START DEPTH
STOP  .M         2801.87400                       :STOP DEPTH
STEP  .M          0.15240                         :INCREMENT
NULL  .          -999.25                          :NULL DATA VALUE
COMP  .          PERTAMINA                        :COMPANY
WELL  .          CMS-005                          :WELL
WBN   .          CMS-005                          :WELLBORE
FLD   .          CEMARA SELATAN                   :FIELD
LOC   .                                           :LOCATION
PROV  .          INDONESIA                        :PROVINCE
STAT  .          INDONESIA                        :STATE
CNTY  .                                           :COUNTY
CTRY  .                                           :COUNTRY
DATE  .                                           :DATE
UWI   .          CEMARASELATAN-005                :UNIQUE WELL UWI
LIC   .                                           :LICENSE NUMBER
API   .                                           :API NUMBER
SRVC  .                                           :SERVICE COMPANY
~Parameter Information Block
#MNEM.UNIT       Value                            Description
#---------       ---------                        -------------
LONG  .DEG       108.170923                       :Well Surface Location
LATI  .DEG       -6.423032                        :Well Surface Location
XWELL .M         187032.670000                    :X-coordinate of Well Head
YWELL .M         9289167.261000                   :Y-coordinate of Well Head
~Curve Information Block
#MNEM.UNIT       API Code            Curve    Description
#--------        --------------      -----    -------------------
DEPT  .M                             :0       Index
KGAS  .MD                            :1       Permeability to Gas           
KINT  .MD                            :2       Intrinsic Permeability        
KOIL  .MD                            :3       Permeability to Oil           
KWTR  .MD                            :4       Permeability to Water         
PHIT  .V/V                           :5       Total Porosity_ includes all forms of porosity, including that occupied by bound fluids, and is independent of rock and fluid materials and of environmental effects
PHTT  .V/V                           :6       Theoretical PHIT Value        
PIGE  .V/V                           :7       Effective Porosity Less Irreducible Water
PIGN  .V/V                           :8       Effective Porosity, VISO, VPAR, and Bound Water Removed
SUWI  .V/V                           :9       Non-Clay Water Intergranular Water Saturation for Undisturbed Zone
VILL  .V/V                           :10      Volume of Illite (dry) Relative to Total Volume
~Ascii Data Section
# ...
   1356.96940       0.00100       0.01937       0.00100       0.01937       0.29114       0.32528       0.20564       0.20564       1.00000       0.46761 
   1357.12180       0.00100       0.02120       0.00100       0.02120       0.28736       0.32115       0.20275       0.20275       1.00000       0.46279 
   1357.27420       0.00100       0.02561       0.00100       0.02561       0.28102       0.31408       0.19821       0.19821       1.00000       0.45290 
   1357.42660       0.00100       0.01833       0.00100       0.01833       0.27680       0.31081       0.19163       0.19163       1.00000       0.46580 
   1357.57900       0.00100       0.01135       0.00100       0.01135       0.27099       0.30635       0.18245       0.18245       1.00000       0.48428 
   1357.73140       0.00100       0.01578       0.00100       0.01578       0.26277       0.29687       0.17737       0.17737       1.00000       0.46705 
   1357.88380       0.00100       0.03700       0.00100       0.03700       0.26366       0.29512       0.18487       0.18487       1.00000       0.43094 
   1358.03620       0.00100       0.03551       0.00100       0.03551       0.26278       0.29435       0.18373       0.18373       1.00000       0.43234 
   1358.18860       0.00100       0.04342       0.00100       0.04342       0.27073       0.30190       0.19268       0.19268       1.00000       0.42688 
   1358.34100       0.00100       0.02848       0.00100       0.02848       0.27004       0.30250       0.18875       0.18875       1.00000       0.44462 
   1358.49340       0.00100       0.02344       0.00100       0.02344       0.26900       0.30203       0.18625       0.18625       1.00000       0.45254 
   1358.64580       0.00100       0.02391       0.00100       0.02391       0.27098       0.30401       0.18826       0.18826       1.00000       0.45242 
   1358.79820       0.00100       0.01920       0.00100       0.01920       0.26438       0.29791       0.18040       0.18040       1.00000       0.45929 
   1358.95060       0.00100       0.01734       0.00100       0.01734       0.26827       0.30222       0.18321       0.18321       1.00000       0.46517 
   1359.10300       0.00100       0.01000       0.00100       0.01000       0.26524       0.30155       0.17431       0.17431       1.00000       0.49730 
   1359.25540       0.00100       0.01000       0.00100       0.01000       0.25902       0.29804       0.16127       0.16127       1.00000       0.53457 
   1359.40780       0.00100       0.01000       0.00100       0.01000       0.25644       0.29562       0.15829       0.15829       1.00000       0.53677 
   1359.56020       0.00100       0.01000       0.00100       0.01000       0.25852       0.29618       0.16420       0.16420       1.00000       0.51585 
   1359.71260       0.00100       0.01275       0.00100       0.01275       0.26616       0.30102       0.17884       0.17884       1.00000       0.47754 
   1359.86500       0.00100       0.01602       0.00100       0.01602       0.26826       0.30247       0.18259       0.18259       1.00000       0.46854 
   1360.01740       0.00100       0.01551       0.00100       0.01551       0.26773       0.30202       0.18184       0.18184       1.00000       0.46975 
   1360.16980       0.00100       0.02130       0.00100       0.02130       0.26811       0.30142       0.18468       0.18468       1.00000       0.45630 
   1360.32220       0.00100       0.01515       0.00100       0.01515       0.26517       0.29946       0.17928       0.17928       1.00000       0.46976 
   1360.47460       0.00100       0.01000       0.00100       0.01000       0.25714       0.29297       0.16741       0.16741       1.00000       0.49075 
   1360.62700       0.00100       0.01000       0.00100       0.01000       0.24712       0.28416       0.15435       0.15435       1.00000       0.50735 
   1360.77940       0.00100       0.01000       0.00100       0.01000       0.23566       0.27270       0.14290       0.14290       1.00000       0.50734 
   1360.93180       0.00100       0.01000       0.00100       0.01000       0.23593       0.27170       0.14635       0.14635       1.00000       0.48995 
   1361.08420       0.00100       0.01000       0.00100       0.01000       0.23683       0.27241       0.14771       0.14771       1.00000       0.48739 
   1361.23660       0.00100       0.01000       0.00100       0.01000       0.23256       0.26845       0.14265       0.14265       1.00000       0.49169 
   1361.38900       0.00100       0.01000       0.00100       0.01000       0.22915       0.26470       0.14012       0.14012       1.00000       0.48692 
   1361.54140       0.00100       0.01000       0.00100       0.01000       0.22861       0.26429       0.13926       0.13926       1.00000       0.48867 
   1361.69380       0.00100       0.01042       0.00100       0.01042       0.23748       0.27199       0.15106       0.15106       1.00000       0.47268 
   1361.84620       0.00100       0.01009       0.00100       0.01009       0.25736       0.29270       0.16887       0.16887       1.00000       0.48399 
   1361.99860       0.00100       0.01082       0.00100       0.01082       0.27378       0.30936       0.18468       0.18468       1.00000       0.48732 
   1362.15100       0.00100       0.02010       0.00100       0.02010       0.28144       0.31527       0.19673       0.19673       1.00000       0.46334 
   1362.30340       0.00100       0.02265       0.00100       0.02265       0.27198       0.30521       0.18877       0.18877       1.00000       0.45511 
   1362.45580       0.00100       0.01607       0.00100       0.01607       0.26781       0.30199       0.18219       0.18219       1.00000       0.46825 
   1362.60820       0.00100       0.01471       0.00100       0.01471       0.26671       0.30114       0.18048       0.18048       1.00000       0.47163 
   1362.76060       0.00100       0.01927       0.00100       0.01927       0.26479       0.29832       0.18081       0.18081       1.00000       0.45932 
   1362.91300       0.00100       0.01755       0.00100       0.01755       0.26194       0.29568       0.17744       0.17744       1.00000       0.46217 
   1363.06540       0.00100       0.01000       0.00100       0.01000       0.26367       0.29942       0.17412       0.17412       1.00000       0.48973 
   1363.21780       0.00100       0.01011       0.00100       0.01011       0.25965       0.29505       0.17099       0.17099       1.00000       0.48489 
   1363.37020       0.00100       0.02014       0.00100       0.02014       0.26396       0.29733       0.18038       0.18038       1.00000       0.45709 
   1363.52260       0.00100       0.02486       0.00100       0.02486       0.27060       0.30350       0.18821       0.18821       1.00000       0.45062 
   1363.67500       0.00100       0.01769       0.00100       0.01769       0.27066       0.30462       0.18560       0.18560       1.00000       0.46519 
   1363.82740       0.00100       0.01053       0.00100       0.01053       0.27146       0.30706       0.18229       0.18229       1.00000       0.48765 
   1363.97980       0.00100       0.01000       0.00100       0.01000       0.27646       0.31271       0.18566       0.18566       1.00000       0.49659 
   1364.13220       0.00100       0.01000       0.00100       0.01000       0.27477       0.31301       0.17901       0.17901       1.00000       0.52375 
   1364.28460       0.00100       0.01000       0.00100       0.01000       0.27456       0.31494       0.17341       0.17341       1.00000       0.55316 
   1364.43700       0.00100       0.01000       0.00100       0.01000       0.27835       0.31866       0.17740       0.17740       1.00000       0.55211 
   1364.58940       0.00100       0.01000       0.00100       0.01000       0.27664       0.31635       0.17719       0.17719       1.00000       0.54393 
   1364.74180       0.00100       0.01000       0.00100       0.01000       0.27767       0.31685       0.17954       0.17954       1.00000       0.53668 
