~Version Information
VERS  .          2.0                              :CWLS Log Ascii Standard - Version 2.0
WRAP  .          NO                               :One line per depth step
~Well Information Block
#MNEM.UNIT       Data Type                        Information
#---------       ---------                        -------------------------------
STRT  .M         1250.29000                       :START DEPTH
STOP  .M         2514.44800                       :STOP DEPTH
STEP  .M          0.15240                         :INCREMENT
NULL  .          -999.25                          :NULL DATA VALUE
COMP  .          PERTAMINA                        :COMPANY
WELL  .          CMS-008A                         :WELL
WBN   .          CMS-008A                         :WELLBORE
FLD   .          CEMARA SELATAN                   :FIELD
LOC   .                                           :LOCATION
PROV  .          INDONESIA                        :PROVINCE
STAT  .          INDONESIA                        :STATE
CNTY  .                                           :COUNTY
CTRY  .                                           :COUNTRY
DATE  .                                           :DATE
UWI   .          CEMARASELATAN-CMS-008A           :UNIQUE WELL UWI
LIC   .                                           :LICENSE NUMBER
API   .                                           :API NUMBER
SRVC  .                                           :SERVICE COMPANY
~Parameter Information Block
#MNEM.UNIT       Value                            Description
#---------       ---------                        -------------
LONG  .DEG       108.170925                       :Well Surface Location
LATI  .DEG       -6.422847                        :Well Surface Location
XWELL .M         187032.710000                    :X-coordinate of Well Head
YWELL .M         9289187.741000                   :Y-coordinate of Well Head
~Curve Information Block
#MNEM.UNIT       API Code            Curve    Description
#--------        --------------      -----    -------------------
DEPT  .M                             :0       Index
KGAS  .MD                            :1       Permeability to Gas           
KINT  .MD                            :2       Intrinsic Permeability        
KOIL  .MD                            :3       Permeability to Oil           
KWTR  .MD                            :4       Permeability to Water         
PHIT  .V/V                           :5       Total Porosity_ includes all forms of porosity, including that occupied by bound fluids, and is independent of rock and fluid materials and of environmental effects
PHTT  .V/V                           :6       Theoretical PHIT Value        
PIGE  .V/V                           :7       Effective Porosity Less Irreducible Water
PIGN  .V/V                           :8       Effective Porosity, VISO, VPAR, and Bound Water Removed
RHGA  .G/C3                          :9       Apparent Grain Density        
SUWI  .V/V                           :10      Non-Clay Water Intergranular Water Saturation for Undisturbed Zone
VCLC  .V/V                           :11      Volume of Calcite Relative to Total Volume
VCOA  .V/V                           :12      Volume of Coal Relative to Total Volume
VDOL  .V/V                           :13      Volume of Dolomite Relative to Total Volume
VFEL  .V/V                           :14      Volume of Feldspar Relative to Total Volume
VILL  .V/V                           :15      Volume of Illite (dry) Relative to Total Volume
VMHY  .V/V                           :16      Volume of Moved Hydrocarbon Relative to Total Volume
VORT  .V/V                           :17      Volume of Orthoclase Relative to Total Volume
VQUA  .V/V                           :18      Volume of Quartz Relative to Total Volume
VUGA  .V/V                           :19      Volume of Gas in Undisturbed Zone
VUOI  .V/V                           :20      Volume of Oil in Undisturbed Zone
VUWA  .V/V                           :21      Volume of Water in Undisturbed Zone
VXBW  .V/V                           :22      Volume of Bound Water in Flushed Zone
VXGA  .V/V                           :23      Volume of Gas in Flushed Zone 
VXOI  .V/V                           :24      Volume of Oil in Flushed Zone 
VXWA  .V/V                           :25      Volume of Water in Flushed Zone
~Ascii Data Section
# ...
   2504.23720       0.35847      18.46917       0.00100       7.26290       0.16034       0.19343       0.14349       0.14349       2.69051       0.84781       0.00000       0.00000       0.00000       0.00000       0.15871       0.01750       0.25131       0.42963       0.00000       0.02187       0.12162       0.01685       0.00000       0.00437       0.13912 
   2504.38960       0.19105      12.17817       0.00100       5.05228       0.15592       0.18925       0.13819       0.13819       2.69546       0.86160       0.00000       0.00000       0.00000       0.00000       0.16712       0.01531       0.23277       0.44419       0.00000       0.01913       0.11905       0.01774       0.00000       0.00383       0.13436 
   2504.54200       0.43384      15.29911       0.00100       5.05156       0.15904       0.19209       0.14181       0.14181       2.69293       0.82801       0.00000       0.00000       0.00000       0.00000       0.16229       0.01953       0.24059       0.43808       0.00000       0.02442       0.11740       0.01723       0.00000       0.00488       0.13693 
   2504.69440       0.32973      12.49167       0.00100       4.17248       0.15798       0.19140       0.14014       0.14014       2.69598       0.83450       0.00000       0.00000       0.00000       0.00000       0.16802       0.01856       0.23227       0.44173       0.00000       0.02320       0.11694       0.01783       0.00000       0.00464       0.13550 
   2504.84680       0.41388      13.70896       0.00100       4.29302       0.15996       0.19184       0.14278       0.14278       2.69506       0.82589       0.00000       0.00000       0.00000       0.00000       0.16188       0.01989       0.21697       0.46118       0.00000       0.02487       0.11792       0.01718       0.00000       0.00497       0.13781 
   2504.99920       1.11773      22.30213       0.00100       5.35948       0.16774       0.19573       0.15266       0.15266       2.68990       0.78791       0.00000       0.00000       0.00000       0.00000       0.14211       0.02595       0.19067       0.49948       0.00000       0.03243       0.12023       0.01508       0.00000       0.00649       0.14617 
   2505.15160       1.67519      18.88582       0.00100       2.66961       0.17696       0.19914       0.16286       0.16286       2.69593       0.75137       0.00000       0.00000       0.00000       0.00000       0.13289       0.03243       0.09413       0.59602       0.00000       0.04053       0.12233       0.01410       0.00000       0.00811       0.15475 
   2505.30400       0.86040      12.77515       0.00100       2.12645       0.17665       0.19428       0.16302       0.16302       2.70212       0.79196       0.00000       0.00000       0.00000       0.00000       0.12845       0.02767       0.01111       0.68380       0.00000       0.03392       0.12909       0.01363       0.00000       0.00625       0.15677 
   2505.45640       0.96533      35.23382       0.00100      11.85431       0.18012       0.19151       0.17104       0.17104       2.68559       0.82624       0.00000       0.00000       0.00000       0.00000       0.08559       0.02578       0.00000       0.73429       0.00000       0.02968       0.14135       0.00908       0.00000       0.00391       0.16713 
   2505.60880       1.66557      74.78890       0.00100      28.52554       0.18423       0.19146       0.17847       0.17847       2.67270       0.82927       0.00000       0.00000       0.00000       0.00000       0.05431       0.02740       0.00000       0.76146       0.00000       0.03047       0.14800       0.00576       0.00000       0.00307       0.17540 
   2505.76120       0.25025      11.34815       0.00100       4.36695    -999.25000    -999.25000    -999.25000    -999.25000    -999.25000       0.97596    -999.25000    -999.25000    -999.25000    -999.25000    -999.25000    -999.25000    -999.25000    -999.25000    -999.25000    -999.25000    -999.25000    -999.25000    -999.25000    -999.25000    -999.25000 
   2505.91360       0.00100       0.01000       0.00100       0.01000    -999.25000    -999.25000    -999.25000    -999.25000    -999.25000       1.00000    -999.25000    -999.25000    -999.25000    -999.25000    -999.25000    -999.25000    -999.25000    -999.25000    -999.25000    -999.25000    -999.25000    -999.25000    -999.25000    -999.25000    -999.25000 
   2506.06600       0.00100       0.01000       0.00100       0.01000    -999.25000    -999.25000    -999.25000    -999.25000    -999.25000       1.00000    -999.25000    -999.25000    -999.25000    -999.25000    -999.25000    -999.25000    -999.25000    -999.25000    -999.25000    -999.25000    -999.25000    -999.25000    -999.25000    -999.25000    -999.25000 
   2506.21840       0.00100       0.01000       0.00100       0.01000    -999.25000    -999.25000    -999.25000    -999.25000    -999.25000       1.00000    -999.25000    -999.25000    -999.25000    -999.25000    -999.25000    -999.25000    -999.25000    -999.25000    -999.25000    -999.25000    -999.25000    -999.25000    -999.25000    -999.25000    -999.25000 
   2506.37080       0.00100       0.01000       0.00100       0.01000    -999.25000    -999.25000    -999.25000    -999.25000    -999.25000       1.00000    -999.25000    -999.25000    -999.25000    -999.25000    -999.25000    -999.25000    -999.25000    -999.25000    -999.25000    -999.25000    -999.25000    -999.25000    -999.25000    -999.25000    -999.25000 
   2506.52320       0.00100       0.01000       0.00100       0.01000    -999.25000    -999.25000    -999.25000    -999.25000    -999.25000       1.00000    -999.25000    -999.25000    -999.25000    -999.25000    -999.25000    -999.25000    -999.25000    -999.25000    -999.25000    -999.25000    -999.25000    -999.25000    -999.25000    -999.25000    -999.25000 
   2506.67560       0.00100       0.01000       0.00100       0.01000    -999.25000    -999.25000    -999.25000    -999.25000    -999.25000       1.00000    -999.25000    -999.25000    -999.25000    -999.25000    -999.25000    -999.25000    -999.25000    -999.25000    -999.25000    -999.25000    -999.25000    -999.25000    -999.25000    -999.25000    -999.25000 
   2506.82800       0.00100       0.01000       0.00100       0.01000    -999.25000    -999.25000    -999.25000    -999.25000    -999.25000       1.00000    -999.25000    -999.25000    -999.25000    -999.25000    -999.25000    -999.25000    -999.25000    -999.25000    -999.25000    -999.25000    -999.25000    -999.25000    -999.25000    -999.25000    -999.25000 
   2506.98040       0.00100       0.01000       0.00100       0.01000    -999.25000    -999.25000    -999.25000    -999.25000    -999.25000       1.00000    -999.25000    -999.25000    -999.25000    -999.25000    -999.25000    -999.25000    -999.25000    -999.25000    -999.25000    -999.25000    -999.25000    -999.25000    -999.25000    -999.25000    -999.25000 
   2507.13280       0.00100       0.01000       0.00100       0.01000    -999.25000    -999.25000    -999.25000    -999.25000    -999.25000       1.00000    -999.25000    -999.25000    -999.25000    -999.25000    -999.25000    -999.25000    -999.25000    -999.25000    -999.25000    -999.25000    -999.25000    -999.25000    -999.25000    -999.25000    -999.25000 
   2507.28520       0.00100       0.01000       0.00100       0.01000    -999.25000    -999.25000    -999.25000    -999.25000    -999.25000       1.00000    -999.25000    -999.25000    -999.25000    -999.25000    -999.25000    -999.25000    -999.25000    -999.25000    -999.25000    -999.25000    -999.25000    -999.25000    -999.25000    -999.25000    -999.25000 
   2507.43760       0.00100       0.01000       0.00100       0.01000    -999.25000    -999.25000    -999.25000    -999.25000    -999.25000       1.00000    -999.25000    -999.25000    -999.25000    -999.25000    -999.25000    -999.25000    -999.25000    -999.25000    -999.25000    -999.25000    -999.25000    -999.25000    -999.25000    -999.25000    -999.25000 
