~Version Information
VERS  .          2.0                              :CWLS Log Ascii Standard - Version 2.0
WRAP  .          NO                               :One line per depth step
~Well Information Block
#MNEM.UNIT       Data Type                        Information
#---------       ---------                        -------------------------------
STRT  .M         1250.29000                       :START DEPTH
STOP  .M         2514.44800                       :STOP DEPTH
STEP  .M          0.15240                         :INCREMENT
NULL  .          -999.25                          :NULL DATA VALUE
COMP  .          PERTAMINA                        :COMPANY
WELL  .          CMS-008A                         :WELL
WBN   .          CMS-008A                         :WELLBORE
FLD   .          CEMARA SELATAN                   :FIELD
LOC   .                                           :LOCATION
PROV  .          INDONESIA                        :PROVINCE
STAT  .          INDONESIA                        :STATE
CNTY  .                                           :COUNTY
CTRY  .                                           :COUNTRY
DATE  .                                           :DATE
UWI   .          CEMARASELATAN-CMS-008A           :UNIQUE WELL UWI
LIC   .                                           :LICENSE NUMBER
API   .                                           :API NUMBER
SRVC  .                                           :SERVICE COMPANY
~Parameter Information Block
#MNEM.UNIT       Value                            Description
#---------       ---------                        -------------
LONG  .DEG       108.170925                       :Well Surface Location
LATI  .DEG       -6.422847                        :Well Surface Location
XWELL .M         187032.710000                    :X-coordinate of Well Head
YWELL .M         9289187.741000                   :Y-coordinate of Well Head
~Curve Information Block
#MNEM.UNIT       API Code            Curve    Description
#--------        --------------      -----    -------------------
DEPT  .M                             :0       Index
KGAS  .MD                            :1       Permeability to Gas           
KINT  .MD                            :2       Intrinsic Permeability        
KOIL  .MD                            :3       Permeability to Oil           
KWTR  .MD                            :4       Permeability to Water         
PHIT  .V/V                           :5       Total Porosity_ includes all forms of porosity, including that occupied by bound fluids, and is independent of rock and fluid materials and of environmental effects
PHTT  .V/V                           :6       Theoretical PHIT Value        
PIGE  .V/V                           :7       Effective Porosity Less Irreducible Water
PIGN  .V/V                           :8       Effective Porosity, VISO, VPAR, and Bound Water Removed
RHGA  .G/C3                          :9       Apparent Grain Density        
SUWI  .V/V                           :10      Non-Clay Water Intergranular Water Saturation for Undisturbed Zone
VCLC  .V/V                           :11      Volume of Calcite Relative to Total Volume
VCOA  .V/V                           :12      Volume of Coal Relative to Total Volume
VDOL  .V/V                           :13      Volume of Dolomite Relative to Total Volume
VFEL  .V/V                           :14      Volume of Feldspar Relative to Total Volume
VILL  .V/V                           :15      Volume of Illite (dry) Relative to Total Volume
VMHY  .V/V                           :16      Volume of Moved Hydrocarbon Relative to Total Volume
VORT  .V/V                           :17      Volume of Orthoclase Relative to Total Volume
VQUA  .V/V                           :18      Volume of Quartz Relative to Total Volume
VUGA  .V/V                           :19      Volume of Gas in Undisturbed Zone
VUOI  .V/V                           :20      Volume of Oil in Undisturbed Zone
VUWA  .V/V                           :21      Volume of Water in Undisturbed Zone
VXBW  .V/V                           :22      Volume of Bound Water in Flushed Zone
VXGA  .V/V                           :23      Volume of Gas in Flushed Zone 
VXOI  .V/V                           :24      Volume of Oil in Flushed Zone 
VXWA  .V/V                           :25      Volume of Water in Flushed Zone
~Ascii Data Section
# ...
   2001.31720       0.00100       0.01000       0.00100       0.01000       0.18769       0.21998       0.09804       0.09804       2.76268       1.00000       0.00000       0.00000       0.00000       0.00000       0.47409       0.00000       0.00000       0.33822       0.00000       0.00000       0.09804       0.08964       0.00000       0.00000       0.09804 
   2001.46960       0.00100       0.01000       0.00100       0.01000       0.19139       0.22290       0.10390       0.10390       2.76047       1.00000       0.00000       0.00000       0.00000       0.00000       0.46269       0.00000       0.00000       0.34593       0.00000       0.00000       0.10390       0.08748       0.00000       0.00000       0.10390 
   2001.62200       0.00100       0.01000       0.00100       0.01000       0.19216       0.22304       0.10646       0.10646       2.75833       1.00000       0.00000       0.00000       0.00000       0.00000       0.45326       0.00000       0.00000       0.35458       0.00000       0.00000       0.10646       0.08570       0.00000       0.00000       0.10646 
   2001.77440       0.00100       0.01000       0.00100       0.01000       0.19038       0.22114       0.10499       0.10499       2.75770       1.00000       0.00000       0.00000       0.00000       0.00000       0.45162       0.00000       0.00000       0.35800       0.00000       0.00000       0.10499       0.08539       0.00000       0.00000       0.10499 
   2001.92680       0.00100       0.01000       0.00100       0.01000       0.19201       0.22216       0.10830       0.10830       2.75578       1.00000       0.00000       0.00000       0.00000       0.00000       0.44270       0.00000       0.00000       0.36529       0.00000       0.00000       0.10830       0.08371       0.00000       0.00000       0.10830 
   2002.07920       0.00100       0.01000       0.00100       0.01000       0.19143       0.22271       0.10459       0.10459       2.75966       1.00000       0.00000       0.00000       0.00000       0.00000       0.45925       0.00000       0.00000       0.34933       0.00000       0.00000       0.10459       0.08683       0.00000       0.00000       0.10459 
   2002.23160       0.00100       0.01000       0.00100       0.01000       0.18726       0.21996       0.09650       0.09650       2.76403       1.00000       0.00000       0.00000       0.00000       0.00000       0.48003       0.00000       0.00000       0.33271       0.00000       0.00000       0.09650       0.09076       0.00000       0.00000       0.09650 
   2002.38400       0.00100       0.01000       0.00100       0.01000       0.18236       0.21576       0.08967       0.08967       2.76576       1.00000       0.00000       0.00000       0.00000       0.00000       0.49023       0.00000       0.00000       0.32741       0.00000       0.00000       0.08967       0.09269       0.00000       0.00000       0.08967 
   2002.53640       0.00100       0.01000       0.00100       0.01000       0.17570       0.20996       0.08061       0.08061       2.76780       1.00000       0.00000       0.00000       0.00000       0.00000       0.50293       0.00000       0.00000       0.32137       0.00000       0.00000       0.08061       0.09509       0.00000       0.00000       0.08061 
   2002.68880       0.00100       0.01000       0.00100       0.01000       0.17877       0.21240       0.08543       0.08543       2.76650       1.00000       0.00617       0.00000       0.00000       0.00000       0.49363       0.00000       0.00000       0.32143       0.00000       0.00000       0.08543       0.09334       0.00000       0.00000       0.08543 
   2002.84120       0.00100       0.01000       0.00100       0.01000       0.18048       0.21361       0.08852       0.08852       2.76752       1.00000       0.04019       0.00000       0.00000       0.00000       0.48635       0.00000       0.00000       0.29299       0.00000       0.00000       0.08852       0.09196       0.00000       0.00000       0.08852 
   2002.99360       0.00100       0.01000       0.00100       0.01000       0.18632       0.21870       0.09643       0.09643       2.76326       1.00000       0.00641       0.00000       0.00000       0.00000       0.47537       0.00000       0.00000       0.33190       0.00000       0.00000       0.09643       0.08988       0.00000       0.00000       0.09643 
   2003.14600       0.00100       0.01000       0.00100       0.01000       0.18271       0.21560       0.09142       0.09142       2.76825       1.00000       0.05709       0.00000       0.00000       0.00000       0.48284       0.00000       0.00000       0.27735       0.00000       0.00000       0.09142       0.09130       0.00000       0.00000       0.09142 
   2003.29840       0.00100       0.01000       0.00100       0.01000       0.17831       0.21173       0.08552       0.08552       2.77000       1.00000       0.06430       0.00000       0.00000       0.00000       0.49075       0.00000       0.00000       0.26665       0.00000       0.00000       0.08552       0.09279       0.00000       0.00000       0.08552 
   2003.45080       0.00100       0.01000       0.00100       0.01000       0.17865       0.21195       0.08623       0.08623       2.76556       1.00000       0.00899       0.00000       0.00000       0.00000       0.48880       0.00000       0.00000       0.32355       0.00000       0.00000       0.08623       0.09242       0.00000       0.00000       0.08623 
   2003.60320       0.00100       0.01000       0.00100       0.01000       0.18054       0.21329       0.08964       0.08964       2.76327       1.00000       0.00000       0.00000       0.00000       0.00000       0.48076       0.00000       0.00000       0.33870       0.00000       0.00000       0.08964       0.09090       0.00000       0.00000       0.08964 
   2003.75560       0.00100       0.01000       0.00100       0.01000       0.17924       0.21251       0.08689       0.08689       2.76489       1.00000       0.00000       0.00000       0.00000       0.00000       0.48840       0.00000       0.00000       0.33236       0.00000       0.00000       0.08689       0.09235       0.00000       0.00000       0.08689 
   2003.90800       0.00100       0.01000       0.00100       0.01000       0.17812       0.21191       0.08433       0.08433       2.76652       1.00000       0.00000       0.00000       0.00000       0.00000       0.49603       0.00000       0.00000       0.32585       0.00000       0.00000       0.08433       0.09379       0.00000       0.00000       0.08433 
   2004.06040       0.00100       0.01000       0.00100       0.01000       0.17805       0.21161       0.08490       0.08490       2.76572       1.00000       0.00000       0.00000       0.00000       0.00000       0.49265       0.00000       0.00000       0.32930       0.00000       0.00000       0.08490       0.09315       0.00000       0.00000       0.08490 
   2004.21280       0.00100       0.01000       0.00100       0.01000       0.18097       0.21295       0.09219       0.09219       2.76068       1.00000       0.00000       0.00000       0.00000       0.00000       0.46953       0.00000       0.00000       0.34950       0.00000       0.00000       0.09219       0.08878       0.00000       0.00000       0.09219 
   2004.36520       0.00100       0.01000       0.00100       0.01000       0.17972       0.21170       0.09094       0.09094       2.76052       1.00000       0.00000       0.00000       0.00000       0.00000       0.46954       0.00000       0.00000       0.35074       0.00000       0.00000       0.09094       0.08878       0.00000       0.00000       0.09094 
   2004.51760       0.00100       0.01031       0.00100       0.01031       0.18555       0.21541       0.10267       0.10267       2.75390       1.00000       0.00000       0.00000       0.00000       0.00000       0.43831       0.00000       0.00000       0.37614       0.00000       0.00000       0.10267       0.08288       0.00000       0.00000       0.10267 
