~VERSION INFORMATION
 VERS.               1.20:   CWLS LOG ASCII STANDARD - VERSION 1.20
 WRAP.                 NO:   ONE LINE PER DEPTH STEP
~WELL INFORMATION
#MNEM.UNIT      DATA TYPE    INFORMATION
#----------   ------------   ------------------------------
 STRT.M          630.6096:   START DEPTH
 STOP.M         3133.6272:   STOP DEPTH
 STEP.M            0.1524:   STEP LENGTH
 NULL.          -999.2500:   NO VALUE
 COMP.            COMPANY:   PERTAMINA
 WELL.               WELL:   CMS-004
 WBN .            CMS-004:   WELLBORE
 FLD .              FIELD:   CEMARA SELATAN
 LOC .           LOCATION:   X = + 149636.27  Y = - 719813.7
 PROV.           PROVINCE:   JAWA BARAT
 STAT.              STATE:   INDONESIA
 SRVC.    SERVICE COMPANY:   SCHLUMBERGER
 DATE.            LOGDATE:   11/24/77
 APIN.         API NUMBER:   -
 UWI .  CEMARASELATAN-004:   UNIQUE WELL ID 
~CURVE INFORMATION
#MNEM.UNIT       API CODE    CURVE DESCRIPTION
#----------   ------------   ------------------------------
 DEPT.M                  :
 CALI.inch   60 280 00 00:   Caliper
 GR  .GAPI   60 310 00 00:   Gamma Ray
 SP  .mV     60 010 01 00:   Spontaneous Potential
 ILD .ohmm   05 070 46 00:   Induction Laterolog, Deep
 SN  .ohmm   05 040 16 00:   Short Normal 16"
 NPHI.%      42 890 03 00:   Neu. Porosity, Ss [%]
 RHOB.kg/cm3 42 350 01 00:   Bulk Density
 DRHO.g/cc   42 356 01 00:   Density Correction
 PROX.ohmm   21 270 30 00:   Proximity Log
~PARAMETER INFORMATION
#MNEM.UNIT          VALUE    DESCRIPTION
#----------   ------------   ------------------------------
 EKB .M            0.0000:   Kelly bushing
 EGL .M            0.0000:   Ground level
 EDF .M           10.0000:   Drilling floor
 EPD .M           10.0000:   Permanent datum
 TD  .M         3129.0000:   Total depth
 DF  .      CONGLONGMERAT:   Deepest formation
 PROJ.       SCHLUMBERGER:   Project
 DATE.           11/24/77:   Date logged
 SRFX.M       185028.4000:   Surface X position
 SRFY.M      9281121.0000:   Surface Y position
 STUS.                  3:   1-18 API codes
 SLAT.DECIMAL DE  -6.4963:   Surface Latitude
 SLNG.DECIMAL DE 108.1521:   Surface Longitude
 BLAT.DECIMAL DE   0.0000:   Bottom Latitude
 BLNG.DECIMAL DE   0.0000:   Bottom Longitude
 SCTN.                  0:   Section Number
 NSFT.F            0.0000:   N-S Footage
 EWFT.F            0.0000:   E-F Footage
 BHT .Degf            100:   Bottom Hole Temperature
 MRT .Degf            100:   Max Recorded Temperature
 MST .Degf             87:   Mud Temperature
 RM  .Ohmm            3.0:   Mud Resistivity
 RMB .Degf  2.7 ohmm @100:   Mud BHT Resistivity
 RMC .Ohmm           4.72:   Mud Cake Resistivity
 RMF .Ohmm           1.93:   Mud Filtrate Resistivity
 DFD .G/c3           1.05:   Drilling Fluid Density
 DFV .Sec              43:   Drilling Fluid Viscosity
 DFPH.                  9:   Drilling Fluid pH
 DFL .Ml               14:   Drilling Fluid Loss
 DD  .Mtr          3129.0:   Depth driller
 DL  .Mtr          3129.8:   Depth logger
 BLI .Mtr          3129.5:   Bottom log interval
 TLI .Mtr            2767:   Top log interval
 CSS .Inch          9 5/8:   Casing size
 CTD1.Mtr   9 5/8" @ 1300:   Casing driller 1
 CTL1.Mtr          1299.7:   Casing logger 1
 BS  .Inch          8 5/8:   Bit size
 DFT . Bentonite / Q.Broxin:   Type fluid in hole
 WSS .           Flowline:   Source of sample
 EMT .Degf 0.48 ohmm @ 95:   Rm Meas. temp.
 MFT .Degf 0.31 ohmm @ 80:   Rmf Meas. temp.
 MCST.Degf 0.66 ohmm @ 26:   Rmc Meas. temp.
 MFSS.              Press:   Source Rmf.
 MCSS.              Press:   Source Rmc.
 TCS .HRS              12:   Time Circ. stopped
 LUN .               RS18:   Logging unit number
 LUL .                WJV:   Logging unit location
 ENGI.            M.Akbar:   Recorded By
 WITN.  Wardoyo / Sugipto:   Witnessed by
 RE1 .        ILD (6FF40):   Res. Electrode #1
 RE2 .      SN  (A-16" M):   Res. Electrode #2
 TLAB.Hrs              12:   Time logger at bottom
 DATE.           12/02/77:   Date logged
 DATE.           12/13/77:   Date logged
 DATE.           01/10/77:   Date logged
 DATE.           01/28/78:   Date logged
 BHT .Degf            110:   Bottom Hole Temperature
 BHT .Degf            155:   Bottom Hole Temperature
 BHT .Degf            250:   Bottom Hole Temperature
 BHT .Degf            270:   Bottom Hole Temperature
 MRT .Degf            110:   Max Recorded Temperature
 MRT .Degf            155:   Max Recorded Temperature
 MRT .Degf            250:   Max Recorded Temperature
 MRT .Degf            270:   Max Recorded Temperature
 MST .Degf             80:   Mud Temperature
 MST .Degf             85:   Mud Temperature
 MST .Degf             85:   Mud Temperature
 MST .Degf             95:   Mud Temperature
 RM  .Ohmm           2.05:   Mud Resistivity
 RM  .Ohmm           1.51:   Mud Resistivity
 RM  .Ohmm           0.71:   Mud Resistivity
 RM  .Ohmm           0.48:   Mud Resistivity
 RMB .Degf 1.6 ohmm @ 110:   Mud BHT Resistivity
 RMB .Degf 0.9 ohmm @ 155:   Mud BHT Resistivity
 RMB .Degf 0.24 ohmm @ 250:   Mud BHT Resistivity
 RMB .Degf 0.16 ohmm @ 270:   Mud BHT Resistivity
 RMC .Ohmm           2.12:   Mud Cake Resistivity
 RMC .Ohmm           1.62:   Mud Cake Resistivity
 RMC .Ohmm           1.11:   Mud Cake Resistivity
 RMC .Ohmm 0.66 ohmm @ 26:   Mud Cake Resistivity
 RMF .Ohmm           1.91:   Mud Filtrate Resistivity
 RMF .Ohmm           1.36:   Mud Filtrate Resistivity
 RMF .Ohmm           0.46:   Mud Filtrate Resistivity
 RMF .Ohmm 0.31 ohmm @ 80:   Mud Filtrate Resistivity
 DFD .G/c3           1.15:   Drilling Fluid Density
 DFD .G/c3           1.14:   Drilling Fluid Density
 DFD .G/c3           1.17:   Drilling Fluid Density
 DFD .G/c3           1.23:   Drilling Fluid Density
 DFV .Sec              42:   Drilling Fluid Viscosity
 DFV .Sec              55:   Drilling Fluid Viscosity
 DFV .Sec              65:   Drilling Fluid Viscosity
 DFV .Sec              65:   Drilling Fluid Viscosity
 DFPH.                  9:   Drilling Fluid pH
 DFPH.                  9:   Drilling Fluid pH
 DFPH.                9.5:   Drilling Fluid pH
 DFPH.                9.5:   Drilling Fluid pH
 DFL .Ml               10:   Drilling Fluid Loss
 DFL .Ml              6.5:   Drilling Fluid Loss
 DFL .Ml                5:   Drilling Fluid Loss
 DFL .Ml                5:   Drilling Fluid Loss
 DD  .Mtr             255:   Depth driller
 DD  .Mtr             635:   Depth driller
 DD  .Mtr            1305:   Depth driller
 DD  .Mtr            2798:   Depth driller
 DL  .Mtr             255:   Depth logger
 DL  .Mtr             635:   Depth logger
 DL  .Mtr            1303:   Depth logger
 DL  .Mtr          2799.3:   Depth logger
 BLI .Mtr           254.7:   Bottom log interval
 BLI .Mtr           634.7:   Bottom log interval
 BLI .Mtr            1302:   Bottom log interval
 BLI .Mtr          2799.0:   Bottom log interval
 TLI .Mtr            30.0:   Top log interval
 TLI .Mtr           259.3:   Top log interval
 TLI .Mtr           630.5:   Top log interval
 TLI .Mtr          1299.7:   Top log interval
 CSS .Inch             30:   Casing size
 CSS .Inch             20:   Casing size
 CSS .Inch         12 1/4:   Casing size
 CSS .Inch          9 5/8:   Casing size
 CTD1.Mtr              30:   Casing driller 1
 CTD1.Mtr           259.1:   Casing driller 1
 CTD1.Mtr             630:   Casing driller 1
 CTD1.Mtr            1300:   Casing driller 1
 CTL1.Mtr              30:   Casing logger 1
 CTL1.Mtr           250.5:   Casing logger 1
 CTL1.Mtr           630.5:   Casing logger 1
 CTL1.Mtr          1299.7:   Casing logger 1
 BS  .Inch          9 7/8:   Bit size
 BS  .Inch          9 7/8:   Bit size
 BS  .Inch             12:   Bit size
 BS  .Inch          8 5/8:   Bit size
 DFT .          bentonite:   Type fluid in hole
 DFT .          bentonite:   Type fluid in hole
 DFT .          bentonite:   Type fluid in hole
 DFT .          bentonite:   Type fluid in hole
 WSS .           flowline:   Source of sample
 WSS .           flowline:   Source of sample
 WSS .           flowline:   Source of sample
 WSS .           flowline:   Source of sample
 EMT .Degf  3.0 ohmm @ 87:   Rm Meas. temp.
 EMT .Degf 2.05 ohmm @ 80:   Rm Meas. temp.
 EMT .Degf 1.51 ohmm @ 85:   Rm Meas. temp.
 EMT .Degf 0.71 ohmm @ 85:   Rm Meas. temp.
 MFT .Degf 2.72 ohmm @ 87:   Rmf Meas. temp.
 MFT .Degf 1.91 ohmm @ 80:   Rmf Meas. temp.
 MFT .Degf 1.36 ohmm @ 85:   Rmf Meas. temp.
 MFT .Degf 0.46 ohmm @ 85:   Rmf Meas. temp.
 MCST.Degf 1.93 ohmm @ 87:   Rmc Meas. temp.
 MCST.Degf 2.12 ohmm @ 80:   Rmc Meas. temp.
 MCST.Degf 1.62 ohmm @ 85:   Rmc Meas. temp.
 MCST.Degf 1.11 ohmm @ 85:   Rmc Meas. temp.
 MFSS.                  p:   Source Rmf.
 MFSS.                  p:   Source Rmf.
 MFSS.                  p:   Source Rmf.
 MFSS.                  p:   Source Rmf.
 MCSS.                  p:   Source Rmc.
 MCSS.                  p:   Source Rmc.
 MCSS.                  p:   Source Rmc.
 MCSS.                  p:   Source Rmc.
 TCS .HRS             1.5:   Time Circ. stopped
 TCS .HRS               3:   Time Circ. stopped
 TCS .HRS               4:   Time Circ. stopped
 TCS .HRS               7:   Time Circ. stopped
 LUN .               4618:   Logging unit number
 LUN .               4618:   Logging unit number
 LUN .               4618:   Logging unit number
 LUL .                mjv:   Logging unit location
 LUL .                mjv:   Logging unit location
 LUL .                mjv:   Logging unit location
 LUL .                mjv:   Logging unit location
 WITN.            Sukarna:   Witnessed by
 RE1 .                ILD:   Res. Electrode #1
 RE1 .                ILD:   Res. Electrode #1
 RE1 .                ILD:   Res. Electrode #1
 RE1 .                ILD:   Res. Electrode #1
 RE2 .                 SN:   Res. Electrode #2
 RE2 .                 SN:   Res. Electrode #2
 RE2 .                 SN:   Res. Electrode #2
 RE2 .                 SN:   Res. Electrode #2
 TLAB.Hrs             1.5:   Time logger at bottom
 TLAB.Hrs               3:   Time logger at bottom
 TLAB.Hrs               4:   Time logger at bottom
 TLAB.Hrs               7:   Time logger at bottom
 DGBY.            Sukarna:   Digitized By
 DGBY.            Sukarna:   Digitized By
 DGBY.            Sukarna:   Digitized By
 DGBY.            Sukarna:   Digitized By
 DGBY.            Sukarna:   Digitized By
~A  DEPTH     CALI         GR         SP        ILD         SN       NPHI       RHOB       DRHO       PROX
# ...
 1787.6300     8.8801    67.6589     3.4576     1.4455     1.5220    27.2372     2.4545     0.0492     1.6816
 1787.7830     8.8221    66.4712     3.4570     1.3830     1.5666    26.8195     2.4861     0.0726     2.5949
 1787.9350     8.8679    65.2602     3.5245     1.3185     1.6104    25.8773     2.4575     0.0677     2.5090
 1788.0880     8.9712    67.1362     3.6101     1.2501     1.5868    25.3368     2.4495     0.0930     2.4848
 1788.2400     8.7386    70.5936     3.7639     1.1830     1.4979    26.1615     2.4321     0.1107     1.2084
 1788.3920     8.7750    75.5856     3.9179     1.1238     1.3963    27.6306     2.4052     0.1499     1.1440
 1788.5450     8.9813    79.0912     3.9758     1.0656     1.2886    29.7178     2.3694     0.1200     1.0921
 1788.6970     9.1799    79.2453     4.0710     1.0103     1.1811    31.0813     2.3792     0.1049     1.1509
 1788.8500     9.3329    76.5090     4.0702     0.9607     1.1511    30.9123     2.4242     0.1406     1.2107
 1789.0020     9.4201    73.4522     4.0823     0.9308     1.1762    30.3977     2.4490     0.1659     1.2352
 1789.1540     9.4036    71.1686     4.2234     0.9088     1.1728    29.7519     2.4255     0.1397     1.2888
 1789.3070     9.2206    72.7955     4.3080     0.9007     1.1572    28.8167     2.3842     0.1058     1.3304
 1789.4590     9.4127    77.0008     4.5310     0.9139     1.1192    28.4212     2.3909     0.0726     1.3228
 1789.6120     9.5427    80.2939     4.5304     0.9211     1.0800    29.2876     2.4229     0.0771     1.1620
 1789.7640     9.6035    80.4021     4.5690     0.9273     1.0830    31.2419     2.4105     0.0710     1.3827
 1789.9160     9.5517    79.1335     4.6835     0.9237     1.0835    31.5096     2.4317     0.1052     1.3108
 1790.0690     9.3837    76.8015     4.6828     0.9012     1.0651    31.3598     2.4257     0.1101     1.2679
 1790.2210     9.5360    76.5604     4.8367     0.8813     1.0567    30.8645     2.3911     0.0903     1.3715
 1790.3740     9.5046    76.8400     4.8360     0.8538     1.0340    30.7049     2.3592     0.0765     1.4533
 1790.5260     9.4176    76.7931     4.7692     0.8449     0.9983    31.1207     2.3645     0.0853     1.1119
 1790.6780     9.2300    76.4547     4.5777     0.8450     0.9711    31.9244     2.3708     0.1048     1.1544
 1790.8310     9.2005    78.0000     4.5247     0.8270     0.9643    33.2759     2.3668     0.1206     1.1210
 1790.9830     9.1140    79.9659     4.3695     0.8117     0.9559    34.2283     2.3516     0.1244     1.0813
 1791.1360     8.9913    81.2555     4.3168     0.7929     0.9508    34.3041     2.3524     0.1012     1.0972
 1791.2880     9.0986    81.2558     4.3005     0.7828     0.9557    34.8515     2.3566     0.0810     1.0538
 1791.4400     9.2158    81.0724     4.3674     0.7811     0.9647    35.0952     2.3678     0.0868     1.0435
 1791.5930     9.2999    81.9244     4.5212     0.7795     0.9717    34.8054     2.3735     0.0968     1.0588
 1791.7450     9.2810    81.3962     4.5673     0.7658     0.9719    35.0246     2.3761     0.1083     1.0899
 1791.8980     9.2136    81.2541     4.6744     0.7524     0.9720    35.1756     2.3773     0.1278     1.0665
 1792.0500     9.1746    81.3963     4.6735     0.7377     0.9583    34.9487     2.3774     0.1362     1.0626
 1792.2020     9.2645    82.4943     4.6729     0.7378     0.9358    34.8892     2.3764     0.1312     1.0904
 1792.3550     9.2014    84.9379     4.6722     0.7361     0.9115    35.1699     2.3659     0.1092     1.0508
 1792.5070     9.0625    86.5442     4.6715     0.7296     0.8989    34.9753     2.3556     0.0951     1.0073
 1792.6600     9.1050    86.3347     4.6708     0.7222     0.8926    34.7060     2.3068     0.0806     1.0158
 1792.8120     8.9544    85.6149     4.6701     0.7169     0.8931    35.0126     2.2953     0.0934     0.9518
 1792.9640     8.7498    83.8497     4.5148     0.7120     0.8992    35.9254     2.2799     0.1104     0.9175
 1793.1170     9.0826    81.7503     4.4503     0.7095     0.8993    35.9671     2.2924     0.1245     0.9334
 1793.2690     9.3559    78.4913     4.3589     0.7071     0.9059    35.5123     2.3126     0.1227     0.9918
 1793.4220     9.0085    78.1969     4.3581     0.7071     0.9125    34.8166     2.3053     0.1010     0.9839
 1793.5740     8.8887    80.1741     4.3394     0.7094     0.9288    33.9642     2.3046     0.0929     0.9180
 1793.7260     8.9006    81.5199     4.2564     0.7222     0.9454    34.6338     2.3252     0.0940     0.9689
 1793.8790     8.9032    82.5208     4.3560     0.7426     0.9672    36.1282     2.3428     0.1117     1.0433
 1794.0310     8.9581    81.0057     4.3552     0.7767     0.9876    36.8133     2.3536     0.1018     1.0612
 1794.1840     9.0185    78.7354     4.5092     0.8296     1.0190    36.3449     2.3642     0.0888     1.0571
 1794.3360     9.0701    76.3849     4.4639     0.8857     1.0971    34.9161     2.3735     0.0750     1.1575
 1794.4880     9.0971    73.6888     4.3532     0.9554     1.1934    32.7566     2.3819     0.0646     1.2357
 1794.6410     9.1190    71.1784     4.3524     1.0661     1.3434    29.4984     2.4056     0.0519     1.5828
 1794.7930     9.1534    68.1487     4.3518     1.1818     1.5134    26.5930     2.4213     0.0408     1.9895
 1794.9460     9.1745    64.4510     4.1965     1.3190     1.6940    25.0015     2.4428     0.0666     2.2028
 1795.0980     9.1969    61.8692     4.1958     1.4937     1.8645    23.7636     2.4723     0.0921     1.8391
 1795.2500     9.2639    60.5790     4.0877     1.7018     2.0932    23.4568     2.4950     0.0371     2.1113
 1795.4030     9.3062    57.4711     3.8853     1.8809     2.2560    23.9118     2.4690     0.0405     2.1123
 1795.5550     9.2794    53.4890     3.5250     2.1617     2.4601    23.0486     2.4566     0.0245     4.2531
 1795.7080     9.1581    49.4666     3.1425     2.3119     2.6340    21.1529     2.4729     0.0019     6.8520
 1795.8600     9.1418    52.2094     2.4665     2.3698     2.7475    18.5479     2.4980     0.0311     2.9318
 1796.0120     9.2190    57.6105     1.2549     2.4392     2.9302    17.7649     2.5039     0.0390     2.4445
 1796.1650     9.2722    61.2485     0.7434     2.5360     3.0685    19.7664     2.4967    -0.0015     2.7321
 1796.3170     9.2885    60.6811     0.2743     2.6571     3.0933    21.1816     2.4703     0.0034     3.3533
 1796.4700     9.3113    60.5867     0.2591     2.7256     3.0665    22.4784     2.4523     0.0229     2.4055
 1796.6220     9.3553    60.7058     0.6338     2.7972     3.0600    22.3690     2.4697     0.0091     2.3634
 1796.7740     9.4678    57.2658     0.9423     2.9548     3.1819    21.8859     2.4813     0.0151     2.8777
 1796.9270     9.5237    52.9253     0.9416     3.2825     3.4765    21.1077     2.4768     0.0231     6.0233
 1797.0790     9.5045    47.9044     0.8624     3.8550     3.8651    20.2179     2.5061     0.0316     6.3382
 1797.2320     9.3268    44.6381     0.2116     4.4653     4.4391    19.1751     2.5139     0.0364     6.7414
 1797.3840     9.2674    43.5436    -0.9152     4.7546     4.8958    18.0887     2.5322     0.0518     7.2090
 1797.5360     9.3182    43.9109    -1.7542     5.0160     5.1839    17.4899     2.5651     0.0650     7.3731
 1797.6890     9.3568    44.3213    -1.9986     5.3370     5.3742    16.5695     2.5883     0.0293     8.9676
 1797.8410     9.3355    44.8309    -1.9993     5.6631     5.3478    15.8981     2.5671     0.0076     7.1176
 1797.9940     9.3104    45.9210    -1.6909     5.4539     5.1139    15.5569     2.5519    -0.0043     9.6666
 1798.1460     9.2788    48.1565    -0.9579     4.3723     4.7324    15.5273     2.5261     0.0118    15.4064
 1798.2980     9.2094    50.5566    -0.0639     3.2624     4.2436    15.8704     2.5170     0.0487     4.4525
 1798.4510     9.1639    58.1083     0.6985     2.6060     3.7638    16.8802     2.5014     0.1079     1.8051
 1798.6030     9.3605    67.6582     1.5520     2.2877     3.1535    18.5190     2.4986     0.1345     1.9051
