~Version Information
VERS  .          2.0                              :CWLS Log Ascii Standard - Version 2.0
WRAP  .          NO                               :One line per depth step
~Well Information Block
#MNEM.UNIT       Data Type                        Information
#---------       ---------                        -------------------------------
STRT  .M         501.09100                        :START DEPTH
STOP  .M         2801.87400                       :STOP DEPTH
STEP  .M          0.15240                         :INCREMENT
NULL  .          -999.25                          :NULL DATA VALUE
COMP  .          PERTAMINA                        :COMPANY
WELL  .          CMS-005                          :WELL
WBN   .          CMS-005                          :WELLBORE
FLD   .          CEMARA SELATAN                   :FIELD
LOC   .                                           :LOCATION
PROV  .          INDONESIA                        :PROVINCE
STAT  .          INDONESIA                        :STATE
CNTY  .                                           :COUNTY
CTRY  .                                           :COUNTRY
DATE  .                                           :DATE
UWI   .          CEMARASELATAN-005                :UNIQUE WELL UWI
LIC   .                                           :LICENSE NUMBER
API   .                                           :API NUMBER
SRVC  .                                           :SERVICE COMPANY
~Parameter Information Block
#MNEM.UNIT       Value                            Description
#---------       ---------                        -------------
LONG  .DEG       108.170923                       :Well Surface Location
LATI  .DEG       -6.423032                        :Well Surface Location
XWELL .M         187032.670000                    :X-coordinate of Well Head
YWELL .M         9289167.261000                   :Y-coordinate of Well Head
~Curve Information Block
#MNEM.UNIT       API Code            Curve    Description
#--------        --------------      -----    -------------------
DEPT  .M                             :0       Index
KGAS  .MD                            :1       Permeability to Gas           
KINT  .MD                            :2       Intrinsic Permeability        
KOIL  .MD                            :3       Permeability to Oil           
KWTR  .MD                            :4       Permeability to Water         
PHIT  .V/V                           :5       Total Porosity_ includes all forms of porosity, including that occupied by bound fluids, and is independent of rock and fluid materials and of environmental effects
PHTT  .V/V                           :6       Theoretical PHIT Value        
PIGE  .V/V                           :7       Effective Porosity Less Irreducible Water
PIGN  .V/V                           :8       Effective Porosity, VISO, VPAR, and Bound Water Removed
SUWI  .V/V                           :9       Non-Clay Water Intergranular Water Saturation for Undisturbed Zone
VILL  .V/V                           :10      Volume of Illite (dry) Relative to Total Volume
~Ascii Data Section
# ...
   2276.24620       0.00100       0.01000       0.00100       0.01000       0.25034       0.30812       0.20780       0.20780       1.00000       0.42658 
   2276.39860       0.00100       0.01116       0.00100       0.01116       0.25227       0.31081       0.20924       0.20924       1.00000       0.43144 
   2276.55100       0.00100       0.01428       0.00100       0.01428       0.25272       0.31223       0.20902       0.20902       1.00000       0.43815 
   2276.70340       0.00100       0.01748       0.00100       0.01748       0.25451       0.31272       0.21178       0.21178       1.00000       0.42854 
   2276.85580       0.00100       0.01161       0.00100       0.01161       0.25004       0.30727       0.20797       0.20797       1.00000       0.42191 
   2277.00820       0.00100       0.01308       0.00100       0.01308       0.24889       0.30434       0.20806       0.20806       1.00000       0.40940 
   2277.16060       0.00100       0.03093       0.00100       0.03093       0.25120       0.30565       0.21112       0.21112       1.00000       0.40192 
   2277.31300       0.00100       0.17848       0.00100       0.17848       0.24876       0.30031       0.21066       0.21066       1.00000       0.38197 
   2277.46540       0.00100       0.17881       0.00100       0.17881       0.24279       0.29409       0.20498       0.20498       1.00000       0.37915 
   2277.61780       0.00100       0.16382       0.00100       0.16382       0.23906       0.29026       0.20104       0.20104       1.00000       0.38127 
   2277.77020       0.00100       0.21728       0.00100       0.21728       0.23345       0.28271       0.19703       0.19703       1.00000       0.36523 
   2277.92260       0.00100       0.29959       0.00100       0.29959       0.22499       0.27134       0.19056       0.19056       1.00000       0.34516 
   2278.07500       0.00100       0.22414       0.00100       0.22414       0.22776       0.27129       0.19522       0.19522       1.00000       0.32625 
   2278.22740       0.00100       0.14083       0.00100       0.14083       0.22375       0.26593       0.19217       0.19217       1.00000       0.31668 
   2278.37980       0.00100       0.18669       0.00100       0.18669       0.21497       0.25662       0.18371       0.18371       1.00000       0.31344 
   2278.53220       0.00100       0.15243       0.00100       0.15243       0.21527       0.25617       0.18459       0.18459       1.00000       0.30768 
   2278.68460       0.00100       0.30216       0.00100       0.30216       0.21569       0.25425       0.18668       0.18668       1.00000       0.29090 
   2278.83700       0.00100       0.17532       0.00100       0.17532       0.21361       0.25152       0.18511       0.18511       1.00000       0.28578 
   2278.98940       0.00100       0.08493       0.00100       0.08493       0.20926       0.24700       0.18089       0.18089       1.00000       0.28452 
   2279.14180       0.00100       0.10769       0.00100       0.10769       0.20179       0.23786       0.17458       0.17458       1.00000       0.27278 
   2279.29420       0.00100       0.26018       0.00100       0.26018       0.19083       0.22620       0.16409       0.16409       1.00000       0.26813 
   2279.44660       0.00100       0.41069       0.00100       0.41069       0.17908       0.21478       0.15203       0.15203       1.00000       0.27119 
   2279.59900       0.00100       0.20859       0.00100       0.20859       0.17006       0.20625       0.14262       0.14262       1.00000       0.27518 
   2279.75140       0.00100       0.15241       0.00100       0.15241       0.16901       0.20373       0.14262       0.14262       1.00000       0.26456 
   2279.90380       0.00100       0.39902       0.00100       0.39902       0.16968       0.20195       0.14505       0.14505       1.00000       0.24698 
   2280.05620       0.00100       0.81840       0.00100       0.81840       0.17018       0.20037       0.14699       0.14699       1.00000       0.23257 
   2280.20860       0.00100       0.71200       0.00100       0.71200       0.17431       0.20354       0.15176       0.15176       1.00000       0.22614 
   2280.36100       0.00100       1.79303       0.00100       1.79303       0.18013       0.20877       0.15785       0.15785       1.00000       0.22344 
   2280.51340       0.00100       1.23491       0.00100       1.23491       0.18529       0.21735       0.16068       0.16068       1.00000       0.24673 
   2280.66580       0.00100       0.93195       0.00100       0.93195       0.19281       0.22778       0.16617       0.16617       1.00000       0.26714 
   2280.81820       0.00100       0.77787       0.00100       0.77787       0.19979       0.23705       0.17170       0.17170       1.00000       0.28170 
   2280.97060       0.00100       0.60893       0.00100       0.60893       0.20529       0.24215       0.17745       0.17745       1.00000       0.27921 
   2281.12300       0.00100       0.56470       0.00100       0.56470       0.20405       0.24059       0.17644       0.17644       1.00000       0.27685 
   2281.27540       0.00100       0.55851       0.00100       0.55851       0.19708       0.23329       0.16966       0.16966       1.00000       0.27495 
   2281.42780       0.00100       0.58891       0.00100       0.58891       0.18900       0.22462       0.16196       0.16196       1.00000       0.27106 
   2281.58020       0.00100       0.48768       0.00100       0.48768       0.17773       0.21194       0.15165       0.15165       1.00000       0.26149 
   2281.73260       0.00100       0.32046       0.00100       0.32046       0.16848       0.20236       0.14262       0.14262       1.00000       0.25927 
   2281.88500       0.00100       0.04575       0.00100       0.04575       0.16979       0.20554       0.14267       0.14267       1.00000       0.27194 
   2282.03740       0.00100       0.15984       0.00100       0.15984       0.16580       0.20075       0.13930       0.13930       1.00000       0.26582 
   2282.18980       0.00100       0.15178       0.00100       0.15178       0.16486       0.20110       0.13745       0.13745       1.00000       0.27482 
   2282.34220       0.00100       0.01000       0.00100       0.01000       0.16966       0.21023       0.13948       0.13948       1.00000       0.30261 
   2282.49460       0.00100       0.01038       0.00100       0.01038       0.17553       0.21472       0.14598       0.14598       1.00000       0.29632 
   2282.64700       0.00100       0.01000       0.00100       0.01000       0.17095       0.21099       0.14081       0.14081       1.00000       0.30231 
   2282.79940       0.00100       0.01000       0.00100       0.01000       0.16916       0.20830       0.13950       0.13950       1.00000       0.29743 
   2282.95180       0.00100       0.01000       0.00100       0.01000       0.16092       0.19884       0.13210       0.13210       1.00000       0.28898 
   2283.10420       0.00100       0.01000       0.00100       0.01000       0.14741       0.18342       0.12008       0.12008       1.00000       0.27410 
   2283.25660       0.00100       0.01000       0.00100       0.01000       0.14711       0.17910       0.12227       0.12227       1.00000       0.24906 
   2283.40900       0.00100       0.01000       0.00100       0.01000       0.13593       0.16661       0.11217       0.11217       1.00000       0.23823 
   2283.56140       0.00100       0.01000       0.00100       0.01000       0.13159       0.16115       0.10864       0.10864       1.00000       0.23014 
   2283.71380       0.00100       0.01002       0.00100       0.01002       0.12991       0.15696       0.10880       0.10880       1.00000       0.21172 
   2283.86620       0.00100       0.01346       0.00100       0.01346       0.13024       0.15436       0.11113       0.11113       1.00000       0.19162 
   2284.01860       0.00100       0.01837       0.00100       0.01837       0.12549       0.14489       0.10963       0.10963       1.00000       0.15897 
