~Version Information
VERS  .          2.0                              :CWLS Log Ascii Standard - Version 2.0
WRAP  .          NO                               :One line per depth step
~Well Information Block
#MNEM.UNIT       Data Type                        Information
#---------       ---------                        -------------------------------
STRT  .M         1190.09200                       :START DEPTH
STOP  .M         2429.86500                       :STOP DEPTH
STEP  .M          0.15240                         :INCREMENT
NULL  .          -999.25                          :NULL DATA VALUE
COMP  .                                           :COMPANY
WELL  .          CMS-001                          :WELL
WBN   .          CMS-001                          :WELLBORE
FLD   .          CEMARA SELATAN                   :FIELD
LOC   .                                           :LOCATION
PROV  .                                           :PROVINCE
STAT  .                                           :STATE
CNTY  .                                           :COUNTY
CTRY  .                                           :COUNTRY
DATE  .                                           :DATE
UWI   .          CEMARASELATAN-001                :UNIQUE WELL UWI
LIC   .                                           :LICENSE NUMBER
API   .                                           :API NUMBER
SRVC  .                                           :SERVICE COMPANY
~Parameter Information Block
#MNEM.UNIT       Value                            Description
#---------       ---------                        -------------
LONG  .DEG       108.170925                       :Well Surface Location
LATI  .DEG       -6.422919                        :Well Surface Location
XWELL .M         187032.780005                    :X-coordinate of Well Head
YWELL .M         9289179.840752                   :Y-coordinate of Well Head
~Curve Information Block
#MNEM.UNIT       API Code            Curve    Description
#--------        --------------      -----    -------------------
DEPT  .M                             :0       Index
KGAS  .MD                            :1       Permeability to Gas           
KINT  .MD                            :2       Intrinsic Permeability        
KOIL  .MD                            :3       Permeability to Oil           
KWTR  .MD                            :4       Permeability to Water         
PHIT  .V/V                           :5       Total Porosity_ includes all forms of porosity, including that occupied by bound fluids, and is independent of rock and fluid materials and of environmental effects
PHTT  .V/V                           :6       Theoretical PHIT Value        
PIGE  .V/V                           :7       Effective Porosity Less Irreducible Water
PIGN  .V/V                           :8       Effective Porosity, VISO, VPAR, and Bound Water Removed
RHGA  .G/C3                          :9       Apparent Grain Density        
SUWI  .V/V                           :10      Non-Clay Water Intergranular Water Saturation for Undisturbed Zone
VCHL  .V/V                           :11      Volume of Chlorite Relative to Total Volume
VCL   .V/V                           :12      Volume of Clay Type Material Relative to Total Volume
VCLC  .V/V                           :13      Volume of Calcite Relative to Total Volume
VCOA  .V/V                           :14      Volume of Coal Relative to Total Volume
VDOL  .V/V                           :15      Volume of Dolomite Relative to Total Volume
VFEL  .V/V                           :16      Volume of Feldspar Relative to Total Volume
VIGN  .V/V                           :17      Volume of Igneous Rock Relative to Total Volume
VILL  .V/V                           :18      Volume of Illite (dry) Relative to Total Volume
VMHY  .V/V                           :19      Volume of Moved Hydrocarbon Relative to Total Volume
VQUA  .V/V                           :20      Volume of Quartz Relative to Total Volume
VUGA  .V/V                           :21      Volume of Gas in Undisturbed Zone
VUOI  .V/V                           :22      Volume of Oil in Undisturbed Zone
VUWA  .V/V                           :23      Volume of Water in Undisturbed Zone
VXBW  .V/V                           :24      Volume of Bound Water in Flushed Zone
VXGA  .V/V                           :25      Volume of Gas in Flushed Zone 
VXOI  .V/V                           :26      Volume of Oil in Flushed Zone 
VXWA  .V/V                           :27      Volume of Water in Flushed Zone
~Ascii Data Section
# ...
   1279.70320       0.05980       0.09164       0.00100       0.01000       0.47303       0.47238       0.41301       0.41301       2.74956       0.34738       0.00000       0.46557       0.00000       0.00000       0.00000       0.00000       0.00000       0.40555      -0.00600       0.12142       0.26954       0.00000       0.14347       0.06001       0.27555       0.00000       0.13747 
   1279.85560       0.00782       0.01177       0.00100       0.01000       0.49824       0.50044       0.42948       0.42948       2.76980       0.33549       0.00000       0.53345       0.00000       0.00000       0.00000       0.00000       0.00000       0.46469      -0.01076       0.03707       0.28539       0.00000       0.14409       0.06876       0.29616       0.00000       0.13332 
   1280.00800       0.00653       0.01000       0.00100       0.01000       0.52590       0.52682       0.45574       0.45574       2.77936       0.34740       0.00000       0.54426       0.00000       0.00000       0.00000       0.00000       0.00000       0.47410      -0.01357       0.00000       0.29742       0.00000       0.15832       0.07016       0.31099       0.00000       0.14475 
   1280.16040       0.00632       0.01000       0.00100       0.01000       0.53649       0.53740       0.46790       0.46790       2.77936       0.36824       0.00000       0.53210       0.00000       0.00000       0.00000       0.00000       0.00000       0.46351      -0.00836       0.00000       0.29560       0.00000       0.17230       0.06859       0.30395       0.00000       0.16394 
   1280.31280       0.00610       0.01000       0.00100       0.01000       0.53261       0.53409       0.46345       0.46345       2.77936       0.39034       0.00000       0.53655       0.00000       0.00000       0.00000       0.00000       0.00000       0.46739      -0.02021       0.00000       0.28255       0.00000       0.18090       0.06916       0.30276       0.00000       0.16069 
   1280.46520       0.00598       0.01000       0.00100       0.01000       0.52205       0.52666       0.45132       0.45132       2.77936       0.40174       0.00000       0.54868       0.00000       0.00000       0.00000       0.00000       0.00000       0.47795      -0.01891       0.00000       0.27001       0.00000       0.18131       0.07073       0.28891       0.00000       0.16241 
   1280.61760       0.00599       0.01000       0.00100       0.01000       0.50650       0.51616       0.43347       0.43347       2.77936       0.40132       0.00000       0.56653       0.00000       0.00000       0.00000       0.00000       0.00000       0.49350      -0.00620       0.00000       0.25951       0.00000       0.17396       0.07303       0.26571       0.00000       0.16776 
   1280.77000       0.00598       0.01000       0.00100       0.01000       0.48601       0.49891       0.41375       0.41375       2.77291       0.40198       0.00000       0.56062       0.00000       0.00000       0.00000       0.00000       0.00000       0.48835       0.00679       0.02564       0.24743       0.00000       0.16632       0.07226       0.24064       0.00000       0.17311 
   1280.92240       0.02454       0.04236       0.00100       0.01000       0.45800       0.47063       0.39336       0.39336       2.75426       0.42057       0.00000       0.50146       0.00000       0.00000       0.00000       0.00000       0.00000       0.43682       0.01993       0.10518       0.22792       0.00000       0.16544       0.06464       0.20800       0.00000       0.18536 
   1281.07480       0.17601       0.32201       0.00100       0.01000       0.42265       0.43157       0.36765       0.36765       2.73328       0.45341       0.00000       0.42670       0.00000       0.00000       0.00000       0.00000       0.00000       0.37170       0.01177       0.20565       0.20096       0.00000       0.16670       0.05500       0.18918       0.00000       0.17847 
   1281.22720       1.21999       2.36702       0.00100       0.01000       0.39146       0.39634       0.34732       0.34732       2.71341       0.48459       0.00000       0.34244       0.00000       0.00000       0.00000       0.00000       0.00000       0.29830       0.01198       0.31024       0.17902       0.00000       0.16831       0.04414       0.16703       0.00000       0.18029 
   1281.37960       3.38293       6.76698       0.00100       0.01000       0.37341       0.37423       0.33551       0.33551       2.70288       0.50008       0.00000       0.29406       0.00000       0.00000       0.00000       0.00000       0.00000       0.25615       0.00185       0.37044       0.16773       0.00000       0.16778       0.03790       0.16588       0.00000       0.16963 
   1281.53200       2.47836       4.84768       0.00100       0.01000       0.36335       0.36449       0.32377       0.32377       2.70434       0.48875       0.00000       0.30702       0.00000       0.00000       0.00000       0.00000       0.00000       0.26744      -0.00578       0.36921       0.16553       0.00000       0.15825       0.03957       0.17131       0.00000       0.15247 
   1281.68440       0.86246       1.56817       0.00100       0.01000       0.36324       0.36799       0.31712       0.31712       2.71332       0.45002       0.00000       0.35782       0.00000       0.00000       0.00000       0.00000       0.00000       0.31170      -0.00238       0.32507       0.17441       0.00000       0.14271       0.04612       0.17678       0.00000       0.14033 
   1281.83680       0.23988       0.40372       0.00100       0.01000       0.37029       0.38000       0.31621       0.31621       2.72509       0.40584       0.00000       0.41960       0.00000       0.00000       0.00000       0.00000       0.00000       0.36551       0.00808       0.26419       0.18788       0.00000       0.12833       0.05409       0.17980       0.00000       0.13641 
   1281.98920       0.11702       0.18889       0.00100       0.01000       0.37563       0.38644       0.31714       0.31714       2.73190       0.38046       0.00000       0.45378       0.00000       0.00000       0.00000       0.00000       0.00000       0.39529       0.00413       0.22908       0.19648       0.00000       0.12066       0.05849       0.19235       0.00000       0.12479 
   1282.14160       0.06184       0.09693       0.00100       0.01000       0.38518       0.39514       0.32292       0.32292       2.73853       0.36205       0.00000       0.48303       0.00000       0.00000       0.00000       0.00000       0.00000       0.42076      -0.00905       0.19405       0.20601       0.00000       0.11691       0.06226       0.21506       0.00000       0.10786 
   1282.29400       0.03792       0.05862       0.00100       0.01000       0.39307       0.40097       0.32806       0.32806       2.74364       0.35302       0.00000       0.50436       0.00000       0.00000       0.00000       0.00000       0.00000       0.43935      -0.02899       0.16758       0.21225       0.00000       0.11581       0.06501       0.24123       0.00000       0.08683 
   1282.44640       0.02641       0.04046       0.00100       0.01000       0.40596       0.41242       0.33916       0.33916       2.74831       0.34715       0.00000       0.51827       0.00000       0.00000       0.00000       0.00000       0.00000       0.45147      -0.03748       0.14257       0.22142       0.00000       0.11774       0.06681       0.25889       0.00000       0.08026 
   1282.59880       0.01629       0.02453       0.00100       0.01000       0.42226       0.42758       0.35320       0.35320       2.75449       0.33574       0.00000       0.53571       0.00000       0.00000       0.00000       0.00000       0.00000       0.46665      -0.04202       0.11109       0.23462       0.00000       0.11858       0.06905       0.27664       0.00000       0.07656 
   1282.75120       0.00833       0.01224       0.00100       0.01000       0.44296       0.44763       0.37106       0.37106       2.76284       0.31939       0.00000       0.55782       0.00000       0.00000       0.00000       0.00000       0.00000       0.48592      -0.04133       0.07112       0.25255       0.00000       0.11851       0.07190       0.29387       0.00000       0.07718 
