~Version Information
VERS  .          2.0                              :CWLS Log Ascii Standard - Version 2.0
WRAP  .          NO                               :One line per depth step
~Well Information Block
#MNEM.UNIT       Data Type                        Information
#---------       ---------                        -------------------------------
STRT  .M         1250.29000                       :START DEPTH
STOP  .M         2514.44800                       :STOP DEPTH
STEP  .M          0.15240                         :INCREMENT
NULL  .          -999.25                          :NULL DATA VALUE
COMP  .          PERTAMINA                        :COMPANY
WELL  .          CMS-008A                         :WELL
WBN   .          CMS-008A                         :WELLBORE
FLD   .          CEMARA SELATAN                   :FIELD
LOC   .                                           :LOCATION
PROV  .          INDONESIA                        :PROVINCE
STAT  .          INDONESIA                        :STATE
CNTY  .                                           :COUNTY
CTRY  .                                           :COUNTRY
DATE  .                                           :DATE
UWI   .          CEMARASELATAN-CMS-008A           :UNIQUE WELL UWI
LIC   .                                           :LICENSE NUMBER
API   .                                           :API NUMBER
SRVC  .                                           :SERVICE COMPANY
~Parameter Information Block
#MNEM.UNIT       Value                            Description
#---------       ---------                        -------------
LONG  .DEG       108.170925                       :Well Surface Location
LATI  .DEG       -6.422847                        :Well Surface Location
XWELL .M         187032.710000                    :X-coordinate of Well Head
YWELL .M         9289187.741000                   :Y-coordinate of Well Head
~Curve Information Block
#MNEM.UNIT       API Code            Curve    Description
#--------        --------------      -----    -------------------
DEPT  .M                             :0       Index
KGAS  .MD                            :1       Permeability to Gas           
KINT  .MD                            :2       Intrinsic Permeability        
KOIL  .MD                            :3       Permeability to Oil           
KWTR  .MD                            :4       Permeability to Water         
PHIT  .V/V                           :5       Total Porosity_ includes all forms of porosity, including that occupied by bound fluids, and is independent of rock and fluid materials and of environmental effects
PHTT  .V/V                           :6       Theoretical PHIT Value        
PIGE  .V/V                           :7       Effective Porosity Less Irreducible Water
PIGN  .V/V                           :8       Effective Porosity, VISO, VPAR, and Bound Water Removed
RHGA  .G/C3                          :9       Apparent Grain Density        
SUWI  .V/V                           :10      Non-Clay Water Intergranular Water Saturation for Undisturbed Zone
VCLC  .V/V                           :11      Volume of Calcite Relative to Total Volume
VCOA  .V/V                           :12      Volume of Coal Relative to Total Volume
VDOL  .V/V                           :13      Volume of Dolomite Relative to Total Volume
VFEL  .V/V                           :14      Volume of Feldspar Relative to Total Volume
VILL  .V/V                           :15      Volume of Illite (dry) Relative to Total Volume
VMHY  .V/V                           :16      Volume of Moved Hydrocarbon Relative to Total Volume
VORT  .V/V                           :17      Volume of Orthoclase Relative to Total Volume
VQUA  .V/V                           :18      Volume of Quartz Relative to Total Volume
VUGA  .V/V                           :19      Volume of Gas in Undisturbed Zone
VUOI  .V/V                           :20      Volume of Oil in Undisturbed Zone
VUWA  .V/V                           :21      Volume of Water in Undisturbed Zone
VXBW  .V/V                           :22      Volume of Bound Water in Flushed Zone
VXGA  .V/V                           :23      Volume of Gas in Flushed Zone 
VXOI  .V/V                           :24      Volume of Oil in Flushed Zone 
VXWA  .V/V                           :25      Volume of Water in Flushed Zone
~Ascii Data Section
# ...
   1917.49720       0.00100       0.76546       0.00100       0.76546       0.20186       0.20501       0.19897       0.19897       2.71578       1.00000       0.76725       0.00000       0.00000       0.00000       0.03089      -0.00841       0.00000       0.00000       0.00000       0.00000       0.19897       0.00289       0.00841       0.00000       0.19055 
   1917.64960       0.00100       0.61615       0.00100       0.61615       0.19100       0.19409       0.18816       0.18816       2.71560       1.00000       0.77864       0.00000       0.00000       0.00000       0.03036      -0.00836       0.00000       0.00000       0.00000       0.00000       0.18816       0.00284       0.00836       0.00000       0.17980 
   1917.80200       0.00100       0.53010       0.00100       0.53010       0.18353       0.18594       0.18078       0.18078       2.71537       1.00000       0.78710       0.00000       0.00000       0.00000       0.02937      -0.01214       0.00000       0.00000       0.00000       0.00000       0.18078       0.00275       0.01192       0.00022       0.16864 
   1917.95440       0.00100       0.44218       0.00100       0.44218       0.17636       0.17869       0.17346       0.17346       2.71560       1.00000       0.79274       0.00000       0.00000       0.00000       0.03090      -0.01426       0.00000       0.00000       0.00000       0.00000       0.17346       0.00290       0.01388       0.00039       0.15920 
   1918.10680       0.00100       0.38992       0.00100       0.38992       0.17079       0.17296       0.16793       0.16793       2.71550       1.00000       0.79865       0.00000       0.00000       0.00000       0.03056      -0.01496       0.00000       0.00000       0.00000       0.00000       0.16793       0.00286       0.01463       0.00033       0.15297 
   1918.25920       0.00100       0.28118       0.00100       0.28118       0.15745       0.16034       0.15453       0.15453       2.71552       1.00000       0.81141       0.00000       0.00000       0.00000       0.03114      -0.01044       0.00000       0.00000       0.00000       0.00000       0.15453       0.00292       0.01040       0.00005       0.14409 
   1918.41160       0.00100       0.20238       0.00100       0.20238       0.14483       0.14816       0.14195       0.14195       2.71537       1.00000       0.82443       0.00000       0.00000       0.00000       0.03075      -0.00709       0.00000       0.00000       0.00000       0.00000       0.14195       0.00288       0.00709       0.00000       0.13486 
   1918.56400       0.00100       0.18811       0.00100       0.18811       0.14016       0.14275       0.13770       0.13770       2.71456       1.00000       0.83359       0.00000       0.00000       0.00000       0.02625      -0.00769       0.00000       0.00000       0.00000       0.00000       0.13770       0.00246       0.00769       0.00000       0.13001 
   1918.71640       0.00100       0.15731       0.00100       0.15731       0.13324       0.13544       0.13091       0.13091       2.71429       1.00000       0.84184       0.00000       0.00000       0.00000       0.02491      -0.00906       0.00000       0.00000       0.00000       0.00000       0.13091       0.00233       0.00906       0.00000       0.12185 
   1918.86880       0.00100       0.11977       0.00100       0.11977       0.12458       0.12679       0.12217       0.12217       2.71439       1.00000       0.84970       0.00000       0.00000       0.00000       0.02572      -0.00977       0.00000       0.00000       0.00000       0.00000       0.12217       0.00241       0.00977       0.00000       0.11240 
   1919.02120       0.00100       0.06346       0.00100       0.06346       0.10771       0.11164       0.10466       0.10466       2.71546       1.00000       0.85964       0.00000       0.00000       0.00000       0.03265      -0.00493       0.00000       0.00000       0.00000       0.00000       0.10466       0.00306       0.00493       0.00000       0.09972 
   1919.17360       0.00100       0.04031       0.00100       0.04031       0.09724       0.10163       0.09396       0.09396       2.71584       1.00000       0.86744       0.00000       0.00026       0.00000       0.03505      -0.00417       0.00000       0.00000       0.00000       0.00000       0.09396       0.00328       0.00417       0.00000       0.08979 
   1919.32600       0.00100       0.03972       0.00100       0.03972       0.09518       0.09830       0.09240       0.09240       2.71489       1.00000       0.87517       0.00000       0.00004       0.00000       0.02961      -0.00738       0.00000       0.00000       0.00000       0.00000       0.09240       0.00277       0.00738       0.00000       0.08502 
   1919.47840       0.00100       0.03654       0.00100       0.03654       0.09132       0.09367       0.08905       0.08905       2.71398       1.00000       0.88445       0.00000       0.00000       0.00000       0.02423      -0.00738       0.00000       0.00000       0.00000       0.00000       0.08905       0.00227       0.00738       0.00000       0.08167 
   1919.63080       0.00100       0.03793       0.00100       0.03793       0.09086       0.09260       0.08897       0.08897       2.71333       1.00000       0.88888       0.00000       0.00000       0.00000       0.02025      -0.00770       0.00000       0.00000       0.00000       0.00000       0.08897       0.00190       0.00770       0.00000       0.08126 
   1919.78320       0.00100       0.04377       0.00100       0.04377       0.09358       0.09494       0.09187       0.09187       2.71299       1.00000       0.88824       0.00000       0.00000       0.00000       0.01818      -0.00823       0.00000       0.00000       0.00000       0.00000       0.09187       0.00170       0.00823       0.00000       0.08364 
   1919.93560       0.00100       0.05368       0.00100       0.05368       0.09899       0.10043       0.09720       0.09720       2.71316       1.00000       0.88194       0.00000       0.00000       0.00000       0.01907      -0.00856       0.00000       0.00000       0.00000       0.00000       0.09720       0.00179       0.00856       0.00000       0.08864 
   1920.08800       0.00100       0.07643       0.00100       0.07643       0.10955       0.11126       0.10748       0.10748       2.71370       1.00000       0.86837       0.00000       0.00000       0.00000       0.02207      -0.00964       0.00000       0.00000       0.00000       0.00000       0.10748       0.00207       0.00964       0.00000       0.09785 
   1920.24040       0.00100       0.23313       0.00100       0.23313       0.13243       0.13638       0.12911       0.12911       2.72832       1.00000       0.75511       0.00000       0.07703       0.00000       0.03543      -0.00738       0.00000       0.00000       0.00000       0.00000       0.12911       0.00332       0.00738       0.00000       0.12173 
   1920.39280       0.00100       0.26350       0.00100       0.26350       0.15553       0.15932       0.15202       0.15202       2.71862       1.00000       0.79439       0.00000       0.01261       0.00000       0.03747      -0.01042       0.00000       0.00000       0.00000       0.00000       0.15202       0.00351       0.01042       0.00000       0.14160 
   1920.54520       0.00100       0.39530       0.00100       0.39530       0.18080       0.18588       0.17643       0.17643       2.71850       1.00000       0.77262       0.00000       0.00000       0.00000       0.04658      -0.01045       0.00000       0.00000       0.00000       0.00000       0.17643       0.00436       0.01045       0.00000       0.16598 
   1920.69760       0.00100       0.47733       0.00100       0.47733       0.19405       0.20007       0.18907       0.18907       2.71985       1.00000       0.75277       0.00000       0.00000       0.00000       0.05318      -0.01058       0.00000       0.00000       0.00000       0.00000       0.18907       0.00498       0.01055       0.00003       0.17849 
