~Version Information
VERS  .          2.0                              :CWLS Log Ascii Standard - Version 2.0
WRAP  .          NO                               :One line per depth step
~Well Information Block
#MNEM.UNIT       Data Type                        Information
#---------       ---------                        -------------------------------
STRT  .M         1190.09200                       :START DEPTH
STOP  .M         2429.86500                       :STOP DEPTH
STEP  .M          0.15240                         :INCREMENT
NULL  .          -999.25                          :NULL DATA VALUE
COMP  .                                           :COMPANY
WELL  .          CMS-001                          :WELL
WBN   .          CMS-001                          :WELLBORE
FLD   .          CEMARA SELATAN                   :FIELD
LOC   .                                           :LOCATION
PROV  .                                           :PROVINCE
STAT  .                                           :STATE
CNTY  .                                           :COUNTY
CTRY  .                                           :COUNTRY
DATE  .                                           :DATE
UWI   .          CEMARASELATAN-001                :UNIQUE WELL UWI
LIC   .                                           :LICENSE NUMBER
API   .                                           :API NUMBER
SRVC  .                                           :SERVICE COMPANY
~Parameter Information Block
#MNEM.UNIT       Value                            Description
#---------       ---------                        -------------
LONG  .DEG       108.170925                       :Well Surface Location
LATI  .DEG       -6.422919                        :Well Surface Location
XWELL .M         187032.780005                    :X-coordinate of Well Head
YWELL .M         9289179.840752                   :Y-coordinate of Well Head
~Curve Information Block
#MNEM.UNIT       API Code            Curve    Description
#--------        --------------      -----    -------------------
DEPT  .M                             :0       Index
KGAS  .MD                            :1       Permeability to Gas           
KINT  .MD                            :2       Intrinsic Permeability        
KOIL  .MD                            :3       Permeability to Oil           
KWTR  .MD                            :4       Permeability to Water         
PHIT  .V/V                           :5       Total Porosity_ includes all forms of porosity, including that occupied by bound fluids, and is independent of rock and fluid materials and of environmental effects
PHTT  .V/V                           :6       Theoretical PHIT Value        
PIGE  .V/V                           :7       Effective Porosity Less Irreducible Water
PIGN  .V/V                           :8       Effective Porosity, VISO, VPAR, and Bound Water Removed
RHGA  .G/C3                          :9       Apparent Grain Density        
SUWI  .V/V                           :10      Non-Clay Water Intergranular Water Saturation for Undisturbed Zone
VCHL  .V/V                           :11      Volume of Chlorite Relative to Total Volume
VCL   .V/V                           :12      Volume of Clay Type Material Relative to Total Volume
VCLC  .V/V                           :13      Volume of Calcite Relative to Total Volume
VCOA  .V/V                           :14      Volume of Coal Relative to Total Volume
VDOL  .V/V                           :15      Volume of Dolomite Relative to Total Volume
VFEL  .V/V                           :16      Volume of Feldspar Relative to Total Volume
VIGN  .V/V                           :17      Volume of Igneous Rock Relative to Total Volume
VILL  .V/V                           :18      Volume of Illite (dry) Relative to Total Volume
VMHY  .V/V                           :19      Volume of Moved Hydrocarbon Relative to Total Volume
VQUA  .V/V                           :20      Volume of Quartz Relative to Total Volume
VUGA  .V/V                           :21      Volume of Gas in Undisturbed Zone
VUOI  .V/V                           :22      Volume of Oil in Undisturbed Zone
VUWA  .V/V                           :23      Volume of Water in Undisturbed Zone
VXBW  .V/V                           :24      Volume of Bound Water in Flushed Zone
VXGA  .V/V                           :25      Volume of Gas in Flushed Zone 
VXOI  .V/V                           :26      Volume of Oil in Flushed Zone 
VXWA  .V/V                           :27      Volume of Water in Flushed Zone
~Ascii Data Section
# ...
   1442.92360       0.00100       0.06642       0.00100       0.06642       0.22506       0.26544       0.16536       0.16536       2.71735       1.00000       0.00000       0.46315       0.00000       0.00000       0.00000       0.00000       0.00000       0.40345      -0.00071       0.37149       0.00000       0.00000       0.16536       0.05970       0.00071       0.00000       0.16465 
   1443.07600       0.00100       0.07175       0.00100       0.07175       0.23026       0.27070       0.17062       0.17062       2.71773       1.00000       0.00000       0.46267       0.00000       0.00000       0.00000       0.00000       0.00000       0.40303       0.00000       0.36671       0.00000       0.00000       0.17062       0.05964       0.00000       0.00000       0.17062 
   1443.22840       0.00100       0.03950       0.00100       0.03950       0.22663       0.26946       0.16335       0.16335       2.72152       1.00000       0.00000       0.49088       0.00000       0.00000       0.00000       0.00000       0.00000       0.42760      -0.00048       0.34577       0.00000       0.00000       0.16335       0.06327       0.00048       0.00000       0.16288 
   1443.38080       0.00100       0.01584       0.00100       0.01584       0.21206       0.25815       0.14410       0.14410       2.72541       1.00000       0.00000       0.52729       0.00000       0.00000       0.00000       0.00000       0.00000       0.45932       0.00000       0.32862       0.00000       0.00000       0.14410       0.06797       0.00000       0.00000       0.14410 
   1443.53320       0.00100       0.02483       0.00100       0.02483       0.20503       0.24859       0.14079       0.14079       2.72065       1.00000       0.00000       0.49841       0.00000       0.00000       0.00000       0.00000       0.00000       0.43416       0.00000       0.36081       0.00000       0.00000       0.14079       0.06424       0.00000       0.00000       0.14079 
   1443.68560       0.00100       0.02830       0.00100       0.02830       0.20732       0.25046       0.14370       0.14370       2.72017       1.00000       0.00000       0.49360       0.00000       0.00000       0.00000       0.00000       0.00000       0.42997       0.00000       0.36270       0.00000       0.00000       0.14370       0.06363       0.00000       0.00000       0.14370 
   1443.83800       0.00100       0.02402       0.00100       0.02402       0.21223       0.25646       0.14701       0.14701       2.72238       1.00000       0.00000       0.50600       0.00000       0.00000       0.00000       0.00000       0.00000       0.44077       0.00000       0.34699       0.00000       0.00000       0.14701       0.06522       0.00000       0.00000       0.14701 
   1443.99040       0.00100       0.01320       0.00100       0.01320       0.22095       0.26815       0.15093       0.15093       2.72858       1.00000       0.00000       0.54324       0.00000       0.00000       0.00000       0.00000       0.00000       0.47322      -0.00185       0.30583       0.00000       0.00000       0.15093       0.07002       0.00185       0.00000       0.14907 
   1444.14280       0.00100       0.01000       0.00100       0.01000       0.22943       0.27817       0.15505       0.15505       2.73439       1.00000       0.00000       0.57705       0.00000       0.00000       0.00000       0.00000       0.00000       0.50267      -0.01130       0.26790       0.00000       0.00000       0.15505       0.07438       0.01130       0.00000       0.14374 
   1444.29520       0.00100       0.01000       0.00100       0.01000       0.22515       0.27618       0.14784       0.14784       2.73722       1.00000       0.00000       0.59971       0.00000       0.00000       0.00000       0.00000       0.00000       0.52240      -0.00921       0.25245       0.00000       0.00000       0.14784       0.07730       0.00921       0.00000       0.13863 
   1444.44760       0.00100       0.01000       0.00100       0.01000       0.21874       0.26958       0.14372       0.14372       2.73395       1.00000       0.00000       0.58201       0.00000       0.00000       0.00000       0.00000       0.00000       0.50699      -0.00017       0.27427       0.00000       0.00000       0.14372       0.07502       0.00017       0.00000       0.14355 
   1444.60000       0.00100       0.01000       0.00100       0.01000       0.21404       0.26470       0.13934       0.13934       2.73310       1.00000       0.00000       0.57958       0.00000       0.00000       0.00000       0.00000       0.00000       0.50487       0.00000       0.28109       0.00000       0.00000       0.13934       0.07471       0.00000       0.00000       0.13934 
   1444.75240       0.00100       0.01000       0.00100       0.01000       0.21168       0.26177       0.13782       0.13782       2.73192       1.00000       0.00000       0.57306       0.00000       0.00000       0.00000       0.00000       0.00000       0.49920       0.00000       0.28912       0.00000       0.00000       0.13782       0.07387       0.00000       0.00000       0.13782 
   1444.90480       0.00100       0.01000       0.00100       0.01000       0.21087       0.26210       0.13530       0.13530       2.73371       1.00000       0.00000       0.58623       0.00000       0.00000       0.00000       0.00000       0.00000       0.51067       0.00000       0.27847       0.00000       0.00000       0.13530       0.07557       0.00000       0.00000       0.13530 
   1445.05720       0.00100       0.01000       0.00100       0.01000       0.21329       0.26525       0.13657       0.13657       2.73525       1.00000       0.00000       0.59520       0.00000       0.00000       0.00000       0.00000       0.00000       0.51847      -0.00036       0.26824       0.00000       0.00000       0.13657       0.07672       0.00036       0.00000       0.13620 
   1445.20960       0.00100       0.01000       0.00100       0.01000       0.21838       0.27040       0.14168       0.14168       2.73580       1.00000       0.00000       0.59510       0.00000       0.00000       0.00000       0.00000       0.00000       0.51839       0.00000       0.26322       0.00000       0.00000       0.14168       0.07671       0.00000       0.00000       0.14168 
   1445.36200       0.00100       0.01000       0.00100       0.01000       0.22489       0.27615       0.14929       0.14929       2.73527       1.00000       0.00000       0.58652       0.00000       0.00000       0.00000       0.00000       0.00000       0.51092       0.00000       0.26419       0.00000       0.00000       0.14929       0.07560       0.00000       0.00000       0.14929 
   1445.51440       0.00100       0.01000       0.00100       0.01000       0.22800       0.27910       0.15264       0.15264       2.73533       1.00000       0.00000       0.58462       0.00000       0.00000       0.00000       0.00000       0.00000       0.50926       0.00000       0.26274       0.00000       0.00000       0.15264       0.07536       0.00000       0.00000       0.15264 
   1445.66680       0.00100       0.01000       0.00100       0.01000       0.22701       0.27700       0.15327       0.15327       2.73340       1.00000       0.00000       0.57207       0.00000       0.00000       0.00000       0.00000       0.00000       0.49833       0.00000       0.27467       0.00000       0.00000       0.15327       0.07374       0.00000       0.00000       0.15327 
   1445.81920       0.00100       0.01005       0.00100       0.01005       0.22057       0.26925       0.14878       0.14878       2.73052       1.00000       0.00000       0.55696       0.00000       0.00000       0.00000       0.00000       0.00000       0.48517       0.00000       0.29426       0.00000       0.00000       0.14878       0.07179       0.00000       0.00000       0.14878 
   1445.97160       0.00100       0.01576       0.00100       0.01576       0.21060       0.25660       0.14275       0.14275       2.72514       1.00000       0.00000       0.52638       0.00000       0.00000       0.00000       0.00000       0.00000       0.45853       0.00000       0.33087       0.00000       0.00000       0.14275       0.06785       0.00000       0.00000       0.14275 
