~Version Information
VERS  .          2.0                              :CWLS Log Ascii Standard - Version 2.0
WRAP  .          NO                               :One line per depth step
~Well Information Block
#MNEM.UNIT       Data Type                        Information
#---------       ---------                        -------------------------------
STRT  .M         1190.09200                       :START DEPTH
STOP  .M         2429.86500                       :STOP DEPTH
STEP  .M          0.15240                         :INCREMENT
NULL  .          -999.25                          :NULL DATA VALUE
COMP  .                                           :COMPANY
WELL  .          CMS-001                          :WELL
WBN   .          CMS-001                          :WELLBORE
FLD   .          CEMARA SELATAN                   :FIELD
LOC   .                                           :LOCATION
PROV  .                                           :PROVINCE
STAT  .                                           :STATE
CNTY  .                                           :COUNTY
CTRY  .                                           :COUNTRY
DATE  .                                           :DATE
UWI   .          CEMARASELATAN-001                :UNIQUE WELL UWI
LIC   .                                           :LICENSE NUMBER
API   .                                           :API NUMBER
SRVC  .                                           :SERVICE COMPANY
~Parameter Information Block
#MNEM.UNIT       Value                            Description
#---------       ---------                        -------------
LONG  .DEG       108.170925                       :Well Surface Location
LATI  .DEG       -6.422919                        :Well Surface Location
XWELL .M         187032.780005                    :X-coordinate of Well Head
YWELL .M         9289179.840752                   :Y-coordinate of Well Head
~Curve Information Block
#MNEM.UNIT       API Code            Curve    Description
#--------        --------------      -----    -------------------
DEPT  .M                             :0       Index
KGAS  .MD                            :1       Permeability to Gas           
KINT  .MD                            :2       Intrinsic Permeability        
KOIL  .MD                            :3       Permeability to Oil           
KWTR  .MD                            :4       Permeability to Water         
PHIT  .V/V                           :5       Total Porosity_ includes all forms of porosity, including that occupied by bound fluids, and is independent of rock and fluid materials and of environmental effects
PHTT  .V/V                           :6       Theoretical PHIT Value        
PIGE  .V/V                           :7       Effective Porosity Less Irreducible Water
PIGN  .V/V                           :8       Effective Porosity, VISO, VPAR, and Bound Water Removed
RHGA  .G/C3                          :9       Apparent Grain Density        
SUWI  .V/V                           :10      Non-Clay Water Intergranular Water Saturation for Undisturbed Zone
VCHL  .V/V                           :11      Volume of Chlorite Relative to Total Volume
VCL   .V/V                           :12      Volume of Clay Type Material Relative to Total Volume
VCLC  .V/V                           :13      Volume of Calcite Relative to Total Volume
VCOA  .V/V                           :14      Volume of Coal Relative to Total Volume
VDOL  .V/V                           :15      Volume of Dolomite Relative to Total Volume
VFEL  .V/V                           :16      Volume of Feldspar Relative to Total Volume
VIGN  .V/V                           :17      Volume of Igneous Rock Relative to Total Volume
VILL  .V/V                           :18      Volume of Illite (dry) Relative to Total Volume
VMHY  .V/V                           :19      Volume of Moved Hydrocarbon Relative to Total Volume
VQUA  .V/V                           :20      Volume of Quartz Relative to Total Volume
VUGA  .V/V                           :21      Volume of Gas in Undisturbed Zone
VUOI  .V/V                           :22      Volume of Oil in Undisturbed Zone
VUWA  .V/V                           :23      Volume of Water in Undisturbed Zone
VXBW  .V/V                           :24      Volume of Bound Water in Flushed Zone
VXGA  .V/V                           :25      Volume of Gas in Flushed Zone 
VXOI  .V/V                           :26      Volume of Oil in Flushed Zone 
VXWA  .V/V                           :27      Volume of Water in Flushed Zone
~Ascii Data Section
# ...
   2262.22600       0.00100       0.01671       0.00100       0.01671       0.12470       0.15572       0.11381       0.11381       2.72906       1.00000       0.00000       0.19375       0.69243       0.00000       0.00000       0.00000       0.00000       0.18287       0.00000       0.00000       0.00000       0.00000       0.11381       0.01089       0.00000       0.00000       0.11381 
   2262.37840       0.00100       0.01000       0.00100       0.01000       0.10986       0.14016       0.09854       0.09854       2.72946       1.00000       0.00000       0.20148       0.69964       0.00000       0.00000       0.00000       0.00000       0.19016      -0.01303       0.00034       0.00000       0.00000       0.09854       0.01132       0.01303       0.00000       0.08551 
   2262.53080       0.00100       0.01000       0.00100       0.01000       0.09721       0.12513       0.08659       0.08659       2.72801       1.00000       0.00000       0.18890       0.72451       0.00000       0.00000       0.00000       0.00000       0.17828      -0.01548       0.00000       0.00000       0.00000       0.08659       0.01061       0.01548       0.00000       0.07111 
   2262.68320       0.00100       0.01000       0.00100       0.01000       0.08830       0.11437       0.07828       0.07828       2.72683       1.00000       0.00000       0.17825       0.74346       0.00000       0.00000       0.00000       0.00000       0.16824      -0.01647       0.00000       0.00000       0.00000       0.07828       0.01002       0.01647       0.00000       0.06181 
   2262.83560       0.00100       0.01000       0.00100       0.01000       0.08543       0.11252       0.07500       0.07500       2.72350       1.00000       0.00000       0.18550       0.67907       0.00000       0.00000       0.00000       0.00000       0.17508      -0.01740       0.06042       0.00000       0.00000       0.07500       0.01042       0.01740       0.00000       0.05761 
   2262.98800       0.00100       0.01000       0.00100       0.01000       0.09195       0.12218       0.08017       0.08017       2.72467       1.00000       0.00000       0.20979       0.63106       0.00000       0.00000       0.00000       0.00000       0.19800      -0.02244       0.07898       0.00000       0.00000       0.08017       0.01179       0.02244       0.00000       0.05772 
   2263.14040       0.00100       0.05710       0.00100       0.05710       0.11301       0.14822       0.10011       0.10011       2.71020       1.00000       0.00000       0.22955       0.34394       0.00000       0.00000       0.00000       0.00000       0.21665      -0.01028       0.32641       0.00000       0.00000       0.10011       0.01290       0.01028       0.00000       0.08982 
   2263.29280       0.00100       0.42470       0.00100       0.42470       0.14695       0.18688       0.13291       0.13291       2.69994       1.00000       0.00000       0.24989       0.11563       0.00000       0.00000       0.00000       0.00000       0.23585      -0.00050       0.50157       0.00000       0.00000       0.13291       0.01404       0.00050       0.00000       0.13241 
   2263.44520       0.00100       0.70288       0.00100       0.70288       0.17285       0.21980       0.15637       0.15637       2.70067       1.00000       0.00000       0.29327       0.00092       0.00000       0.00000       0.00000       0.00000       0.27679       0.00000       0.54944       0.00000       0.00000       0.15637       0.01648       0.00000       0.00000       0.15637 
   2263.59760       0.00100       0.42532       0.00100       0.42532       0.19738       0.25212       0.17816       0.17816       2.71080       1.00000       0.00000       0.34192       0.00000       0.00000       0.00000       0.00000       0.00000       0.32270       0.00000       0.47992       0.00000       0.00000       0.17816       0.01921       0.00000       0.00000       0.17816 
   2263.75000       0.00100       0.31740       0.00100       0.31740       0.22284       0.28278       0.20180       0.20180       2.71875       1.00000       0.00000       0.37440       0.00000       0.00000       0.00000       0.00000       0.00000       0.35336       0.00000       0.42380       0.00000       0.00000       0.20180       0.02104       0.00000       0.00000       0.20180 
   2263.90240       0.00100       0.13386       0.00100       0.13386       0.24526       0.30612       0.22390       0.22390       2.73254       1.00000       0.00000       0.38013       0.13406       0.00000       0.00000       0.00000       0.00000       0.35877       0.00000       0.26191       0.00000       0.00000       0.22390       0.02136       0.00000       0.00000       0.22390 
   2264.05480       0.00100       0.06621       0.00100       0.06621       0.26131       0.32374       0.23940       0.23940       2.74305       1.00000       0.00000       0.38992       0.21815       0.00000       0.00000       0.00000       0.00000       0.36801       0.00000       0.15253       0.00000       0.00000       0.23940       0.02191       0.00000       0.00000       0.23940 
   2264.20720       0.00100       0.02077       0.00100       0.02077       0.27364       0.33829       0.25095       0.25095       2.75776       1.00000       0.00000       0.40382       0.34404       0.00000       0.00000       0.00000       0.00000       0.38113       0.00000       0.00119       0.00000       0.00000       0.25095       0.02269       0.00000       0.00000       0.25095 
   2264.35960       0.00100       0.01472       0.00100       0.01472       0.28703       0.35734       0.26235       0.26235       2.76302       1.00000       0.00000       0.43915       0.29850       0.00000       0.00000       0.00000       0.00000       0.41448       0.00000       0.00000       0.00000       0.00000       0.26235       0.02468       0.00000       0.00000       0.26235 
   2264.51200       0.00100       0.01024       0.00100       0.01024       0.30488       0.38129       0.27807       0.27807       2.76910       1.00000       0.00000       0.47721       0.24472       0.00000       0.00000       0.00000       0.00000       0.45040       0.00000       0.00000       0.00000       0.00000       0.27807       0.02681       0.00000       0.00000       0.27807 
   2264.66440       0.00100       0.01000       0.00100       0.01000       0.31055       0.39218       0.28189       0.28189       2.77366       1.00000       0.00000       0.50988       0.20823       0.00000       0.00000       0.00000       0.00000       0.48123       0.00000       0.00000       0.00000       0.00000       0.28189       0.02865       0.00000       0.00000       0.28189 
   2264.81680       0.00100       0.01000       0.00100       0.01000       0.31449       0.39747       0.28537       0.28537       2.77508       1.00000       0.00000       0.51826       0.19637       0.00000       0.00000       0.00000       0.00000       0.48914       0.00000       0.00000       0.00000       0.00000       0.28537       0.02912       0.00000       0.00000       0.28537 
   2264.96920       0.00100       0.01000       0.00100       0.01000       0.31235       0.39429       0.28359       0.28359       2.77407       1.00000       0.00000       0.51179       0.20462       0.00000       0.00000       0.00000       0.00000       0.48303       0.00000       0.00000       0.00000       0.00000       0.28359       0.02876       0.00000       0.00000       0.28359 
   2265.12160       0.00100       0.01000       0.00100       0.01000       0.30839       0.38768       0.28057       0.28057       2.77164       1.00000       0.00000       0.49523       0.22420       0.00000       0.00000       0.00000       0.00000       0.46740       0.00000       0.00000       0.00000       0.00000       0.28057       0.02783       0.00000       0.00000       0.28057 
   2265.27400       0.00100       0.01000       0.00100       0.01000       0.30359       0.38090       0.27646       0.27646       2.76969       1.00000       0.00000       0.48285       0.24069       0.00000       0.00000       0.00000       0.00000       0.45572       0.00000       0.00000       0.00000       0.00000       0.27646       0.02713       0.00000       0.00000       0.27646 
