~VERSION INFORMATION
 VERS.               1.20:   CWLS LOG ASCII STANDARD - VERSION 1.20
 WRAP.                 NO:   ONE LINE PER DEPTH STEP
~WELL INFORMATION
#MNEM.UNIT      DATA TYPE    INFORMATION
#----------   ------------   ------------------------------
 STRT.M          500.1524:   START DEPTH
 STOP.M         2803.2212:   STOP DEPTH
 STEP.M            0.1524:   STEP LENGTH
 NULL.          -999.2500:   NO VALUE
 COMP.            COMPANY:   PERTAMINA
 WELL.               WELL:   CMS-005
 WBN .            CMS-005:   WELLBORE
 FLD .              FIELD:   CEMARA SELATAN
 LOC .           LOCATION:   X = - 15283.31  Y = + 8483.38
 PROV.           PROVINCE:   JAWA BARAT
 STAT.              STATE:   INDONESIA
 SRVC.    SERVICE COMPANY:   SCHLUMBERGER
 DATE.            LOGDATE:   01/24/78
 APIN.         API NUMBER:   -
 UWI .  CEMARASELATAN-005:   UNIQUE WELL ID 
~CURVE INFORMATION
#MNEM.UNIT       API CODE    CURVE DESCRIPTION
#----------   ------------   ------------------------------
 DEPT.M                  :
 CALI.inch   60 280 00 00:   Caliper
 GR  .GAPI   42 310 00 00:   Gamma Ray
 SP  .mV     60 010 01 00:   Spontaneous Potential
 ILD .ohmm   05 070 46 00:   Induction Laterolog, Deep
 SN  .ohmm   05 040 16 00:   Short Normal 16"
 PROX.ohmm   21 270 30 00:   Proximity Log
 NPHI.%      42 890 03 00:   Neu. Porosity, Ss [%]
 RHOB.kg/cm3 42 350 01 00:   Bulk Density
 CBL .mV     81 524 00 00:   Cement Bond Log
 DRHO.kg/m3  42 356 01 00:   Density Correction
~PARAMETER INFORMATION
#MNEM.UNIT          VALUE    DESCRIPTION
#----------   ------------   ------------------------------
 EKB .M            0.0000:   Kelly bushing
 EGL .M            4.7500:   Ground level
 EDF .M           10.0000:   Drilling floor
 EPD .M           10.0000:   Permanent datum
 TD  .M         2793.0000:   Total depth
 DF  .      CONGLONGMERAT:   Deepest formation
 PROJ.       SCHLUMBERGER:   Project
 DATE.           01/24/78:   Date logged
 DD  .Mtr            2793:   Depth driller
 DL  .Mtr          2762.3:   Depth logger
 BLI .Mtr            2762:   Bottom log interval
 TLI .Mtr             500:   Top log interval
 CSS .Inch             7":   Casing size
 CTD1.Mtr     7" @ 2581,7:   Casing driller 1
 CTL1.Mtr          2581,7:   Casing logger 1
 BS  .Inch          6 1/8:   Bit size
 DFT .           Spersene:   Type fluid in hole
 DFD .G/c3           1.18:   Density
 DFV .Sec              58:   Viscosity
 COL .Inch           6-16:   Column depth/dia.
 DFPH.                 10:   pH
 DFL .Ml             2.75:   Fluid loss
 WSS .           Flowline:   Source of sample
 RM  .Ohmm           1.07:   Rm
 EMT .Degf 1.07 ohmm @ 83:   Rm Meas. temp.
 RMF .Ohmm           0.57:   Rmf
 MFT .Degf 0.57 ohmm @ 83:   Rmf Meas. temp.
 RMC .Ohmm           1.78:   Rmc
 MCST.Degf 1.78 ohmm @ 83:   Rmc Meas. temp.
 MFSS.              Press:   Source Rmf.
 MCSS.              Press:   Source Rmc.
 RMB .Degf 0.4 ohmm @ 232:   Rm. at BHT
 BHT .Degf            232:   BHT.
 TCS .Hrs               7:   Time Circ. stopped
 MRT .Degf            232:   Maximum recorded temp.
 LUN .               4618:   Logging unit number
 LUL .                WJV:   Logging unit location
 ENGI.           M. Akbar:   Recorded By
 WITN.           M.Dasuki:   Witnessed by
 RE1 .       ILD  (6FF40):   Res. Electrode #1
 RE2 .      SN   (A-16"M):   Res. Electrode #2
 DATE.           02/16/78:   Date logged
 DATE.           03/13/78:   Date logged
 DD  .Mtr            1260:   Depth driller
 DD  .Mtr            2610:   Depth driller
 DL  .Mtr            1260:   Depth logger
 DL  .Mtr            2610:   Depth logger
 BLI .Mtr            1260:   Bottom log interval
 BLI .Mtr          2605.8:   Bottom log interval
 TLI .Mtr             500:   Top log interval
 TLI .Mtr          1254.5:   Top log interval
 CSS .Inch         13 3/8:   Casing size
 CSS .Inch          9 5/8:   Casing size
 CTD1.Mtr             500:   Casing driller 1
 CTD1.Mtr            1254:   Casing driller 1
 CTL1.Mtr             500:   Casing logger 1
 CTL1.Mtr          1254.5:   Casing logger 1
 BS  .Inch         12 1/4:   Bit size
 BS  .Inch          8 5/8:   Bit size
 DFT .           spersene:   Type fluid in hole
 DFT .           spersene:   Type fluid in hole
 DFD .G/c3           1.12:   Density
 DFD .G/c3           1.18:   Density
 DFV .Sec              47:   Viscosity
 DFV .Sec              58:   Viscosity
 DFPH.                  9:   pH
 DFPH.                 10:   pH
 DFL .Ml              5.5:   Fluid loss
 DFL .Ml             2.75:   Fluid loss
 WSS .           flowline:   Source of sample
 WSS .           flowline:   Source of sample
 RM  .Ohmm           1.19:   Rm
 RM  .Ohmm           1.07:   Rm
 EMT .Degf             80:   Rm Meas. temp.
 EMT .Degf             83:   Rm Meas. temp.
 RMF .Ohmm            0.8:   Rmf
 RMF .Ohmm           0.57:   Rmf
 MFT .Degf             80:   Rmf Meas. temp.
 MFT .Degf             83:   Rmf Meas. temp.
 RMC .Ohmm           1.52:   Rmc
 RMC .Ohmm           1.78:   Rmc
 MCST.Degf             80:   Rmc Meas. temp.
 MCST.Degf             83:   Rmc Meas. temp.
 MFSS.                  p:   Source Rmf.
 MFSS.                  p:   Source Rmf.
 MCSS.                  p:   Source Rmc.
 MCSS.                  p:   Source Rmc.
 RMB .Degf 0.63 ohmm @ 150:   Rm. at BHT
 RMB .Degf 0.4 ohmm @ 232:   Rm. at BHT
 BHT .Degf            150:   BHT.
 BHT .Degf            232:   BHT.
 TCS .Hrs               3:   Time Circ. stopped
 TCS .Hrs               7:   Time Circ. stopped
 MRT .Degf            150:   Maximum recorded temp.
 MRT .Degf            232:   Maximum recorded temp.
 LUN .               4618:   Logging unit number
 LUN .               4618:   Logging unit number
 LUL .                wjv:   Logging unit location
 LUL .                wjv:   Logging unit location
 ENGI.           M. Akbar:   Recorded By
 ENGI.           M. Akbar:   Recorded By
 WITN.            Y. Rais:   Witnessed by
 WITN.          M. Dasuki:   Witnessed by
 RE1 .                ILD:   Res. Electrode #1
 RE1 .                ILD:   Res. Electrode #1
 RE2 .                 SN:   Res. Electrode #2
 RE2 .                 SN:   Res. Electrode #2
 TLAB.hh:mm             3:   Time Logger At Bottom
 TLAB.hh:mm             7:   Time Logger At Bottom
 TLAB.hh:mm             7:   Time Logger At Bottom
 DGBY.            Sukarna:   Digitized By
 DGBY.            Sukarna:   Digitized By
 DGBY.            Sukarna:   Digitized By
~T 1 Tops
D1(1453-1455)                    1453.0
~OTHER INFORMATION
# Bridleless tool, Log was correlated with cs. run no.3 4M too deep compared with run.2
~A  DEPTH     CALI         GR         SP        ILD         SN       PROX       NPHI       RHOB        CBL       DRHO
# ...
 1725.4480    14.9444    63.4685    -0.3292     0.9602     0.8338     0.8408    37.1132     2.3518    12.7818    -0.1700
 1725.6010    15.0675    62.7840    -0.3263     0.9603     0.8221     0.8904    37.4811     2.3355    13.2209    -0.1754
 1725.7530    14.9917    62.5656    -0.3235     0.9673     0.8223     0.9098    36.8261     2.3410    13.3774    -0.1583
 1725.9060    14.8545    64.2077    -0.3206     0.9814     0.8343     0.8533    36.9161     2.3799    13.0965    -0.1446
 1726.0580    14.8862    64.4544    -0.3183     1.0029     0.8525     0.8845    36.1682     2.4009    12.5231    -0.1313
 1726.2100    15.0249    63.7709    -0.3155     1.0397     0.9095     0.9642    36.0242     2.4088    11.9496    -0.1332
 1726.3630    14.7196    64.0177    -0.3124     1.0855     0.9563     1.0889    35.4638     2.4174    11.7583    -0.1347
 1726.5150    14.9810    66.1258    -0.3097     1.1417     1.0056     1.2116    34.3422     2.4151    11.7425    -0.1327
 1726.6680    15.1195    66.8339    -0.3069     1.1919     1.0425     1.1527    32.2497     2.4167    11.4323    -0.1505
 1726.8200    15.1814    65.6881    -0.3040     1.2356     1.0501     1.1365    31.0375     2.4128    10.3802    -0.1616
 1726.9720    14.9062    65.9375    -0.3012     1.2536     1.0503     0.9855    30.5690     2.4168    10.7588    -0.1605
 1727.1250    14.5862    67.1118    -0.2983     1.2537     1.0430     1.0739    30.1024     2.4370    11.1479    -0.1450
 1727.2770    14.3267    68.0566    -0.2954     1.2538     1.0507     1.1211    30.9826     2.4417    10.9875    -0.1511
 1727.4300    14.4654    68.3030    -0.2926     1.2449     1.0584     1.0820    32.0000     2.4208    10.4081    -0.1542
 1727.5820    14.6348    68.3171    -0.2897     1.2451     1.0586     1.0442    33.2047     2.4348     9.9143    -0.1333
 1727.7340    14.8351    67.8633    -0.2868     1.2186     1.0588     1.1379    33.8060     2.4294    10.0348    -0.1356
 1727.8870    14.9734    66.7148    -0.2840     1.1843     1.0514     1.1626    33.6157     2.4481    10.4780    -0.1284
 1728.0390    14.6066    66.7305    -0.2811     1.1425     1.0367     1.0225    32.8674     2.4583    10.9137    -0.1085
 1728.1920    14.8374    67.6743    -0.2783     1.1104     1.0221     0.9388    32.2142     2.4459    11.3162    -0.1123
 1728.3440    14.8993    68.3852    -0.2754     1.0947     0.9794     0.9871    31.9790     2.4281    12.1194    -0.1081
 1728.4960    14.6542    68.6319    -0.2731     1.0791     0.9316     1.0086    33.3263     2.4304    12.4293    -0.1097
 1728.6490    14.2886    68.6461    -0.2702     1.0639     0.9121     0.9461    34.7131     2.4165    12.5271    -0.1370
 1728.8010    14.2739    69.1273    -0.2672     1.0564     0.9057     0.9065    35.4069     2.4026    11.8659    -0.1416
 1728.9540    14.3514    70.7675    -0.2646     1.0489     0.9124     0.8811    35.6818     2.4112    12.0469    -0.1218
 1729.1060    14.2298    71.9445    -0.2616     1.0490     0.9257     0.9533    36.3753     2.4431    12.6654    -0.1103
 1729.2580    14.1997    71.2551    -0.2588     1.0567     0.9460     1.0537    36.5118     2.4493    12.6432    -0.1198
 1729.4110    14.0480    69.8798    -0.4108     1.0721     0.9598     1.0169    35.7646     2.4587    12.7255    -0.1309
 1729.5630    13.8804    70.1282    -0.4074     1.0722     0.9669     1.0245    34.9709     2.4455    13.3467    -0.1379
 1729.7160    13.9272    71.3035    -0.4043     1.0723     0.9465     1.0618    35.6644     2.4230    14.8206    -0.1434
 1729.8680    13.9894    71.7800    -0.4017     1.0724     0.9265     0.9888    36.6368     2.4052    15.7420    -0.1495
 1730.0200    13.9902    71.0931    -0.3988     1.0725     0.9201     0.9143    37.6925     2.3921    16.2373    -0.1344
 1730.1730    13.9911    69.7125    -0.5508     1.0803     0.9137     0.9145    38.2465     2.4061    15.7555    -0.1205
 1730.3250    14.0533    70.4280    -0.5474     1.0804     0.9270     0.9617    36.9853     2.4271    15.5246    -0.1259
 1730.4780    14.0542    70.9065    -0.5445     1.0961     0.9541     1.0936    35.2656     2.4365    16.1105    -0.1212
 1730.6300    14.0550    70.9207    -0.5417     1.1121     0.9820     1.1416    34.1473     2.4606    16.5342    -0.1273
 1730.7820    13.9332    71.1681    -0.3851     1.1283     1.0036     1.0862    33.3534     2.4420    16.9249    -0.1567
 1730.9350    13.8727    71.4113    -0.3822     1.1447     1.0255     1.0709    33.0725     2.4335    16.4685    -0.1267
 1731.0870    13.9810    70.9589    -0.2251     1.1448     1.0111     1.0943    33.4418     2.4685    15.4180    -0.1238
 1731.2400    13.9359    69.5820    -0.2221     1.1449     1.0040     0.9833    33.9496     2.4616    14.2762    -0.1643
 1731.3920    13.8754    70.5266    -0.2193     1.1206     0.9900     0.9490    34.4116     2.4150    24.2137    -0.1670
 1731.5440    13.8150    71.4708    -0.2164     1.0889     0.9760     0.8900    35.1078     2.3878     9.4204    -0.1729
 1731.6970    13.7546    71.4850    -0.2134     1.0659     0.9487     0.8714    35.6146     2.3661    11.5083    -0.1796
 1731.8490    13.7557    71.0323    -0.2107     1.0508     0.9221     0.8905    35.9840     2.3646    12.6414    -0.1814
 1732.0020    13.7411    69.6501    -0.2078     1.0585     0.9157     0.9497    35.0975     2.3802    13.2220    -0.1615
 1732.1540    13.8187    67.3387    -0.2048     1.0816     0.9290     0.9773    34.2580     2.4393    11.5968    -0.1370
 1732.3060    13.7582    67.1153    -0.2021     1.0895     0.9563     1.0499    34.0692     2.4666    24.4231    -0.1177
 1732.4590    13.6978    66.2014    -0.1992     1.1054     0.9841     0.9434    34.7169     2.4619    20.1516    -0.1304
 1732.6110    13.7450    67.3812    -0.3513     1.1215     1.0057     1.1361    34.9004     2.4402    16.4470    -0.1370
 1732.7640    13.8529    67.1600    -0.3478     1.1378     1.0131     1.0580    34.3857     2.4473    15.2450    -0.1379
 1732.9160    13.8538    66.0142    -0.1907     1.1461     1.0205     1.0582    34.1504     2.4434    15.4381    -0.1448
 1733.0680    13.8546    65.0954    -0.1874     1.1462     1.0134     1.0067    34.4263     2.4536    15.2657    -0.1429
 1733.2210    13.8247    65.1124    -0.0312     1.1546     1.0136     0.9579    34.0516     2.4521    13.4535    -0.1524
 1733.3730    13.7489    66.0573    -0.0283     1.1464     1.0066     1.0437    33.4909     2.4296    13.2921    -0.1470
 1733.5260    13.6579    66.5361    -0.0255     1.1465     1.0068     1.0589    34.6499     2.4405    13.4725    -0.1474
 1733.6780    13.7508    67.0154    -0.0222     1.1303     1.0070     1.1375    33.7174     2.4343    13.2209    -0.1669
 1733.8300    13.8283    67.0296    -0.0197     1.1143     1.0072     1.0294    32.7383     2.4251    13.8085    -0.1688
 1733.9830    13.8138    67.0409    -0.0169     1.0985     1.0073     1.0444    32.4574     2.4360    14.9502    -0.1530
 1734.1350    13.8300    66.3566    -0.0138     1.0907     1.0075     1.0521    32.5494     2.4290    15.8353    -0.1604
 1734.2880    13.8614    65.6739    -0.0114     1.0831     0.9934     0.9797    34.1246     2.4337    16.7376    -0.1601
 1734.4400    13.8163    66.6183    -0.0083     1.0832     0.9795     1.0302    33.8893     2.4136    16.8380    -0.1581
 1734.5920    13.8328    66.3978    -0.0054     1.0912     0.9796     0.9662    33.9344     2.4066    16.5844    -0.1753
 1734.7450    13.8948    65.4839    -0.0026     1.1149     0.9798     1.0454    34.6276     2.4036    15.4658    -0.1668
 1734.8970    13.8802    65.2627    -0.1548     1.1231     0.9870     0.8684    34.5777     2.3959    15.3728    -0.1780
 1735.0500    13.9119    66.4425    -0.3060     1.1476     1.0086     0.9328    35.1789     2.3850    16.3336    -0.1854
 1735.2020    13.9279    65.9916    -0.4575     1.1897     1.0606     1.1314    35.6872     2.4006    17.3666    -0.1891
 1735.3540    13.7742    64.5990    -0.6090     1.2603     1.0995     1.4949    35.7313     2.4085    18.3303    -0.1742
 1735.5070    13.1029    60.2060    -0.6061     1.3252     1.1561     1.4021    34.4265     2.4380    19.1289    -0.1545
