~Version Information
VERS  .          2.0                              :CWLS Log Ascii Standard - Version 2.0
WRAP  .          NO                               :One line per depth step
~Well Information Block
#MNEM.UNIT       Data Type                        Information
#---------       ---------                        -------------------------------
STRT  .M         1250.29000                       :START DEPTH
STOP  .M         2514.44800                       :STOP DEPTH
STEP  .M          0.15240                         :INCREMENT
NULL  .          -999.25                          :NULL DATA VALUE
COMP  .          PERTAMINA                        :COMPANY
WELL  .          CMS-008A                         :WELL
WBN   .          CMS-008A                         :WELLBORE
FLD   .          CEMARA SELATAN                   :FIELD
LOC   .                                           :LOCATION
PROV  .          INDONESIA                        :PROVINCE
STAT  .          INDONESIA                        :STATE
CNTY  .                                           :COUNTY
CTRY  .                                           :COUNTRY
DATE  .                                           :DATE
UWI   .          CEMARASELATAN-CMS-008A           :UNIQUE WELL UWI
LIC   .                                           :LICENSE NUMBER
API   .                                           :API NUMBER
SRVC  .                                           :SERVICE COMPANY
~Parameter Information Block
#MNEM.UNIT       Value                            Description
#---------       ---------                        -------------
LONG  .DEG       108.170925                       :Well Surface Location
LATI  .DEG       -6.422847                        :Well Surface Location
XWELL .M         187032.710000                    :X-coordinate of Well Head
YWELL .M         9289187.741000                   :Y-coordinate of Well Head
~Curve Information Block
#MNEM.UNIT       API Code            Curve    Description
#--------        --------------      -----    -------------------
DEPT  .M                             :0       Index
KGAS  .MD                            :1       Permeability to Gas           
KINT  .MD                            :2       Intrinsic Permeability        
KOIL  .MD                            :3       Permeability to Oil           
KWTR  .MD                            :4       Permeability to Water         
PHIT  .V/V                           :5       Total Porosity_ includes all forms of porosity, including that occupied by bound fluids, and is independent of rock and fluid materials and of environmental effects
PHTT  .V/V                           :6       Theoretical PHIT Value        
PIGE  .V/V                           :7       Effective Porosity Less Irreducible Water
PIGN  .V/V                           :8       Effective Porosity, VISO, VPAR, and Bound Water Removed
RHGA  .G/C3                          :9       Apparent Grain Density        
SUWI  .V/V                           :10      Non-Clay Water Intergranular Water Saturation for Undisturbed Zone
VCLC  .V/V                           :11      Volume of Calcite Relative to Total Volume
VCOA  .V/V                           :12      Volume of Coal Relative to Total Volume
VDOL  .V/V                           :13      Volume of Dolomite Relative to Total Volume
VFEL  .V/V                           :14      Volume of Feldspar Relative to Total Volume
VILL  .V/V                           :15      Volume of Illite (dry) Relative to Total Volume
VMHY  .V/V                           :16      Volume of Moved Hydrocarbon Relative to Total Volume
VORT  .V/V                           :17      Volume of Orthoclase Relative to Total Volume
VQUA  .V/V                           :18      Volume of Quartz Relative to Total Volume
VUGA  .V/V                           :19      Volume of Gas in Undisturbed Zone
VUOI  .V/V                           :20      Volume of Oil in Undisturbed Zone
VUWA  .V/V                           :21      Volume of Water in Undisturbed Zone
VXBW  .V/V                           :22      Volume of Bound Water in Flushed Zone
VXGA  .V/V                           :23      Volume of Gas in Flushed Zone 
VXOI  .V/V                           :24      Volume of Oil in Flushed Zone 
VXWA  .V/V                           :25      Volume of Water in Flushed Zone
~Ascii Data Section
# ...
   1417.93000       0.00100       0.04945       0.00100       0.04945       0.27056       0.30057       0.19189       0.19189       2.75906       1.00000       0.00000       0.00000       0.00000       0.00000       0.42379       0.00000       0.00000       0.30565       0.00000       0.00000       0.19189       0.07867       0.00000       0.00000       0.19189 
   1418.08240       0.00100       0.03536       0.00100       0.03536       0.26748       0.29844       0.18634       0.18634       2.76202       1.00000       0.00000       0.00000       0.00000       0.00000       0.43712       0.00000       0.00000       0.29540       0.00000       0.00000       0.18634       0.08114       0.00000       0.00000       0.18634 
   1418.23480       0.00100       0.03405       0.00100       0.03405       0.25835       0.28912       0.17773       0.17773       2.75994       1.00000       0.00000       0.00000       0.00000       0.00000       0.43434       0.00000       0.00000       0.30731       0.00000       0.00000       0.17773       0.08063       0.00000       0.00000       0.17773 
   1418.38720       0.00100       0.03177       0.00100       0.03177       0.25725       0.28819       0.17616       0.17616       2.76041       1.00000       0.00000       0.00000       0.00000       0.00000       0.43685       0.00000       0.00000       0.30590       0.00000       0.00000       0.17616       0.08109       0.00000       0.00000       0.17616 
   1418.53960       0.00100       0.03504       0.00100       0.03504       0.26591       0.29681       0.18492       0.18492       2.76158       1.00000       0.00000       0.00000       0.00000       0.00000       0.43631       0.00000       0.00000       0.29778       0.00000       0.00000       0.18492       0.08099       0.00000       0.00000       0.18492 
   1418.69200       0.00100       0.03393       0.00100       0.03393       0.26865       0.29972       0.18721       0.18721       2.76262       1.00000       0.00000       0.00000       0.00000       0.00000       0.43874       0.00000       0.00000       0.29261       0.00000       0.00000       0.18721       0.08144       0.00000       0.00000       0.18721 
   1418.84440       0.00100       0.03990       0.00100       0.03990       0.26684       0.29738       0.18679       0.18679       2.76042       1.00000       0.00000       0.00000       0.00000       0.00000       0.43125       0.00000       0.00000       0.30192       0.00000       0.00000       0.18679       0.08005       0.00000       0.00000       0.18679 
   1418.99680       0.00100       0.05536       0.00100       0.05536       0.26465       0.29416       0.18731       0.18731       2.75637       1.00000       0.00000       0.00000       0.00000       0.00000       0.41665       0.00000       0.00000       0.31870       0.00000       0.00000       0.18731       0.07734       0.00000       0.00000       0.18731 
   1419.14920       0.00100       0.08214       0.00100       0.08214       0.26715       0.29555       0.19271       0.19271       2.75273       1.00000       0.00000       0.00000       0.00000       0.00000       0.40103       0.00000       0.00000       0.33182       0.00000       0.00000       0.19271       0.07444       0.00000       0.00000       0.19271 
   1419.30160       0.00100       0.04770       0.00100       0.04770       0.26686       0.29698       0.18793       0.18793       2.75888       1.00000       0.00000       0.00000       0.00000       0.00000       0.42522       0.00000       0.00000       0.30791       0.00000       0.00000       0.18793       0.07893       0.00000       0.00000       0.18793 
   1419.45400       0.00100       0.02783       0.00100       0.02783       0.26256       0.29410       0.17988       0.17988       2.76338       1.00000       0.00000       0.00000       0.00000       0.00000       0.44539       0.00000       0.00000       0.29205       0.00000       0.00000       0.17988       0.08268       0.00000       0.00000       0.17988 
   1419.60640       0.00100       0.02385       0.00100       0.02385       0.25983       0.29171       0.17626       0.17626       2.76417       1.00000       0.00000       0.00000       0.00000       0.00000       0.45017       0.00000       0.00000       0.29000       0.00000       0.00000       0.17626       0.08357       0.00000       0.00000       0.17626 
   1419.75880       0.00100       0.03760       0.00100       0.03760       0.26170       0.29231       0.18147       0.18147       2.75989       1.00000       0.00000       0.00000       0.00000       0.00000       0.43221       0.00000       0.00000       0.30609       0.00000       0.00000       0.18147       0.08023       0.00000       0.00000       0.18147 
   1419.91120       0.00100       0.05773       0.00100       0.05773       0.25842       0.28762       0.18188       0.18188       2.75438       1.00000       0.00000       0.00000       0.00000       0.00000       0.41231       0.00000       0.00000       0.32927       0.00000       0.00000       0.18188       0.07654       0.00000       0.00000       0.18188 
   1420.06360       0.00100       0.04400       0.00100       0.04400       0.26288       0.29304       0.18384       0.18384       2.75844       1.00000       0.00000       0.00000       0.00000       0.00000       0.42579       0.00000       0.00000       0.31132       0.00000       0.00000       0.18384       0.07904       0.00000       0.00000       0.18384 
   1420.21600       0.00100       0.04811       0.00100       0.04811       0.26663       0.29660       0.18807       0.18807       2.75833       1.00000       0.00000       0.00000       0.00000       0.00000       0.42320       0.00000       0.00000       0.31017       0.00000       0.00000       0.18807       0.07856       0.00000       0.00000       0.18807 
   1420.36840       0.00100       0.08080       0.00100       0.08080       0.26824       0.29674       0.19352       0.19352       2.75325       1.00000       0.00000       0.00000       0.00000       0.00000       0.40249       0.00000       0.00000       0.32927       0.00000       0.00000       0.19352       0.07471       0.00000       0.00000       0.19352 
   1420.52080       0.00100       0.10451       0.00100       0.10451       0.27015       0.29790       0.19742       0.19742       2.75077       1.00000       0.00000       0.00000       0.00000       0.00000       0.39178       0.00000       0.00000       0.33807       0.00000       0.00000       0.19742       0.07273       0.00000       0.00000       0.19742 
   1420.67320       0.00100       0.10253       0.00100       0.10253       0.26988       0.29767       0.19705       0.19705       2.75089       1.00000       0.00000       0.00000       0.00000       0.00000       0.39237       0.00000       0.00000       0.33775       0.00000       0.00000       0.19705       0.07284       0.00000       0.00000       0.19705 
   1420.82560       0.00100       0.10712       0.00100       0.10712       0.26851       0.29613       0.19612       0.19612       2.75008       1.00000       0.00000       0.00000       0.00000       0.00000       0.38997       0.00000       0.00000       0.34151       0.00000       0.00000       0.19612       0.07239       0.00000       0.00000       0.19612 
   1420.97800       0.00100       0.07997       0.00100       0.07997       0.26387       0.29225       0.18947       0.18947       2.75221       1.00000       0.00000       0.00000       0.00000       0.00000       0.40079       0.00000       0.00000       0.33534       0.00000       0.00000       0.18947       0.07440       0.00000       0.00000       0.18947 
   1421.13040       0.00100       0.04145       0.00100       0.04145       0.26451       0.29498       0.18464       0.18464       2.75982       1.00000       0.00000       0.00000       0.00000       0.00000       0.43027       0.00000       0.00000       0.30522       0.00000       0.00000       0.18464       0.07987       0.00000       0.00000       0.18464 
