~Version Information
VERS  .          2.0                              :CWLS Log Ascii Standard - Version 2.0
WRAP  .          NO                               :One line per depth step
~Well Information Block
#MNEM.UNIT       Data Type                        Information
#---------       ---------                        -------------------------------
STRT  .M         501.09100                        :START DEPTH
STOP  .M         2801.87400                       :STOP DEPTH
STEP  .M          0.15240                         :INCREMENT
NULL  .          -999.25                          :NULL DATA VALUE
COMP  .          PERTAMINA                        :COMPANY
WELL  .          CMS-005                          :WELL
WBN   .          CMS-005                          :WELLBORE
FLD   .          CEMARA SELATAN                   :FIELD
LOC   .                                           :LOCATION
PROV  .          INDONESIA                        :PROVINCE
STAT  .          INDONESIA                        :STATE
CNTY  .                                           :COUNTY
CTRY  .                                           :COUNTRY
DATE  .                                           :DATE
UWI   .          CEMARASELATAN-005                :UNIQUE WELL UWI
LIC   .                                           :LICENSE NUMBER
API   .                                           :API NUMBER
SRVC  .                                           :SERVICE COMPANY
~Parameter Information Block
#MNEM.UNIT       Value                            Description
#---------       ---------                        -------------
LONG  .DEG       108.170923                       :Well Surface Location
LATI  .DEG       -6.423032                        :Well Surface Location
XWELL .M         187032.670000                    :X-coordinate of Well Head
YWELL .M         9289167.261000                   :Y-coordinate of Well Head
~Curve Information Block
#MNEM.UNIT       API Code            Curve    Description
#--------        --------------      -----    -------------------
DEPT  .M                             :0       Index
KGAS  .MD                            :1       Permeability to Gas           
KINT  .MD                            :2       Intrinsic Permeability        
KOIL  .MD                            :3       Permeability to Oil           
KWTR  .MD                            :4       Permeability to Water         
PHIT  .V/V                           :5       Total Porosity_ includes all forms of porosity, including that occupied by bound fluids, and is independent of rock and fluid materials and of environmental effects
PHTT  .V/V                           :6       Theoretical PHIT Value        
PIGE  .V/V                           :7       Effective Porosity Less Irreducible Water
PIGN  .V/V                           :8       Effective Porosity, VISO, VPAR, and Bound Water Removed
SUWI  .V/V                           :9       Non-Clay Water Intergranular Water Saturation for Undisturbed Zone
VILL  .V/V                           :10      Volume of Illite (dry) Relative to Total Volume
~Ascii Data Section
# ...
   1563.01420       0.00100       0.03189       0.00100       0.03189       0.22181       0.25210       0.14596       0.14596       1.00000       0.41484 
   1563.16660       0.00100       0.06483       0.00100       0.06483       0.22777       0.25610       0.15679       0.15679       1.00000       0.38823 
   1563.31900       0.00100       0.16442       0.00100       0.16442       0.23407       0.25949       0.16969       0.16969       1.00000       0.35212 
   1563.47140       0.00100       0.16727       0.00100       0.16727       0.23656       0.26201       0.17205       0.17205       1.00000       0.35285 
   1563.62380       0.00100       0.08192       0.00100       0.08192       0.23754       0.26553       0.16732       0.16732       1.00000       0.38406 
   1563.77620       0.00100       0.05445       0.00100       0.05445       0.24707       0.27676       0.17270       0.17270       1.00000       0.40674 
   1563.92860       0.00100       0.06232       0.00100       0.06232       0.25573       0.28531       0.18165       0.18165       1.00000       0.40517 
   1564.08100       0.00100       0.08962       0.00100       0.08962       0.26828       0.29712       0.19604       0.19604       1.00000       0.39508 
   1564.23340       0.00100       0.10459       0.00100       0.10459       0.27405       0.30258       0.20260       0.20260       1.00000       0.39077 
   1564.38580       0.00100       0.10872       0.00100       0.10872       0.27805       0.30655       0.20663       0.20663       1.00000       0.39059 
   1564.53820       0.00100       0.15561       0.00100       1.24485       0.28589       0.31340       0.21674       0.21674       1.00000       0.37817 
   1564.69060       0.00100       0.15601       0.00100       0.15601       0.28124       0.30859       0.21240       0.21240       1.00000       0.37648 
   1564.84300       0.00100       0.13254       0.00100       0.13254       0.27718       0.30499       0.20735       0.20735       1.00000       0.38190 
   1564.99540       0.00100       0.11992       0.00100       0.11992       0.27195       0.29994       0.20170       0.20170       1.00000       0.38416 
   1565.14780       0.00100       0.09476       0.00100       0.09476       0.26658       0.29519       0.19490       0.19490       1.00000       0.39202 
   1565.30020       0.00100       0.15254       0.00100       0.15254       0.27208       0.29923       0.20369       0.20369       1.00000       0.37402 
   1565.45260       0.00100       0.08140       0.00100       0.08140       0.28238       0.31189       0.20845       0.20845       1.00000       0.40431 
   1565.60500       0.00100       0.05329       0.00100       0.05329       0.28869       0.31966       0.21114       0.21114       1.00000       0.42417 
   1565.75740       0.00100       0.02597       0.00100       0.02597       0.28875       0.32193       0.20563       0.20563       1.00000       0.45456 
   1565.90980       0.00100       0.02359       0.00100       0.02359       0.28726       0.32072       0.20348       0.20348       1.00000       0.45823 
   1566.06220       0.00100       0.02830       0.00100       0.02830       0.28495       0.31779       0.20270       0.20270       1.00000       0.44985 
   1566.21460       0.00100       0.01000       0.00100       0.01000       0.26033       0.29665       0.16935       0.16935       1.00000       0.49754 
   1566.36700       0.00100       0.01497       0.00100       0.01497       0.26294       0.29721       0.17711       0.17711       1.00000       0.46940 
   1566.51940       0.00100       0.01596       0.00100       0.01596       0.25733       0.29122       0.17244       0.17244       1.00000       0.46429 
   1566.67180       0.00100       0.03893       0.00100       0.03893       0.26193       0.29318       0.18366       0.18366       1.00000       0.42805 
   1566.82420       0.00100       0.04578       0.00100       0.04578       0.26080       0.29151       0.18389       0.18389       1.00000       0.42063 
   1566.97660       0.00100       0.03608       0.00100       0.03608       0.25704       0.28837       0.17856       0.17856       1.00000       0.42917 
   1567.12900       0.00100       0.02784       0.00100       0.02784       0.25122       0.28317       0.17121       0.17121       1.00000       0.43760 
   1567.28140       0.00100       0.02031       0.00100       0.02031       0.23968       0.27218       0.15828       0.15828       1.00000       0.44521 
   1567.43380       0.00100       0.01050       0.00100       0.01050       0.22733       0.25954       0.14667       0.14667       1.00000       0.44115 
   1567.58620       0.00100       0.02752       0.00100       0.02752       0.22379       0.25215       0.15276       0.15276       1.00000       0.38847 
   1567.73860       0.00100       0.03773       0.00100       0.03773       0.20911       0.23513       0.14394       0.14394       1.00000       0.35644 
   1567.89100       0.00100       0.27583       0.00100       0.27583       0.22211       0.24563       0.16318       0.16318       1.00000       0.32230 
   1568.04340       0.00100       0.15090       0.00100       0.15090       0.24514       0.27126       0.17894       0.17894       1.00000       0.36205 
   1568.19580       0.00100       0.04863       0.00100       0.04863       0.25068       0.28086       0.17509       0.17509       1.00000       0.41340 
   1568.34820       0.00100       0.01940       0.00100       0.01940       0.25911       0.29245       0.17561       0.17561       1.00000       0.45667 
   1568.50060       0.00100       0.01519       0.00100       0.01519       0.26028       0.29442       0.17477       0.17477       1.00000       0.46768 
   1568.65300       0.00100       0.02087       0.00100       0.02087       0.26408       0.29735       0.18078       0.18078       1.00000       0.45561 
   1568.80540       0.00100       0.05034       0.00100       0.05034       0.26782       0.29844       0.19112       0.19112       1.00000       0.41946 
   1568.95780       0.00100       0.06635       0.00100       0.06635       0.27026       0.30010       0.19554       0.19554       1.00000       0.40865 
   1569.11020       0.00100       0.04377       0.00100       0.04377       0.26854       0.29961       0.19070       0.19070       1.00000       0.42570 
   1569.26260       0.00100       0.03916       0.00100       0.03916       0.26793       0.29934       0.18927       0.18927       1.00000       0.43022 
   1569.41500       0.00100       0.02345       0.00100       0.02345       0.26578       0.29873       0.18326       0.18326       1.00000       0.45129 
   1569.56740       0.00100       0.01812       0.00100       0.01812       0.26540       0.29915       0.18089       0.18089       1.00000       0.46219 
   1569.71980       0.00100       0.02062       0.00100       0.02062       0.27128       0.30478       0.18737       0.18737       1.00000       0.45887 
   1569.87220       0.00100       0.04224       0.00100       0.04224       0.28429       0.31588       0.20518       0.20518       1.00000       0.43267 
   1570.02460       0.00100       0.03282       0.00100       0.03282       0.29163       0.32414       0.21018       0.21018       1.00000       0.44545 
   1570.17700       0.00100       0.03736       0.00100       0.03736       0.28867       0.32073       0.20837       0.20837       1.00000       0.43916 
   1570.32940       0.00100       0.04244       0.00100       0.04244       0.28437       0.31595       0.20529       0.20529       1.00000       0.43250 
   1570.48180       0.00100       0.07264       0.00100       0.07264       0.28918       0.31920       0.21399       0.21399       1.00000       0.41125 
   1570.63420       0.00100       0.08288       0.00100       0.08288       0.29828       0.32809       0.22364       0.22364       1.00000       0.40824 
   1570.78660       0.00100       0.11337       0.00100       0.11337       0.30667       0.33567       0.23403       0.23403       1.00000       0.39724 
