~VERSION INFORMATION
 VERS.               1.20:   CWLS LOG ASCII STANDARD - VERSION 1.20
 WRAP.                 NO:   ONE LINE PER DEPTH STEP
~WELL INFORMATION
#MNEM.UNIT      DATA TYPE    INFORMATION
#----------   ------------   ------------------------------
 STRT.M          500.1524:   START DEPTH
 STOP.M         2803.2212:   STOP DEPTH
 STEP.M            0.1524:   STEP LENGTH
 NULL.          -999.2500:   NO VALUE
 COMP.            COMPANY:   PERTAMINA
 WELL.               WELL:   CMS-005
 WBN .            CMS-005:   WELLBORE
 FLD .              FIELD:   CEMARA SELATAN
 LOC .           LOCATION:   X = - 15283.31  Y = + 8483.38
 PROV.           PROVINCE:   JAWA BARAT
 STAT.              STATE:   INDONESIA
 SRVC.    SERVICE COMPANY:   SCHLUMBERGER
 DATE.            LOGDATE:   01/24/78
 APIN.         API NUMBER:   -
 UWI .  CEMARASELATAN-005:   UNIQUE WELL ID 
~CURVE INFORMATION
#MNEM.UNIT       API CODE    CURVE DESCRIPTION
#----------   ------------   ------------------------------
 DEPT.M                  :
 CALI.inch   60 280 00 00:   Caliper
 GR  .GAPI   42 310 00 00:   Gamma Ray
 SP  .mV     60 010 01 00:   Spontaneous Potential
 ILD .ohmm   05 070 46 00:   Induction Laterolog, Deep
 SN  .ohmm   05 040 16 00:   Short Normal 16"
 PROX.ohmm   21 270 30 00:   Proximity Log
 NPHI.%      42 890 03 00:   Neu. Porosity, Ss [%]
 RHOB.kg/cm3 42 350 01 00:   Bulk Density
 CBL .mV     81 524 00 00:   Cement Bond Log
 DRHO.kg/m3  42 356 01 00:   Density Correction
~PARAMETER INFORMATION
#MNEM.UNIT          VALUE    DESCRIPTION
#----------   ------------   ------------------------------
 EKB .M            0.0000:   Kelly bushing
 EGL .M            4.7500:   Ground level
 EDF .M           10.0000:   Drilling floor
 EPD .M           10.0000:   Permanent datum
 TD  .M         2793.0000:   Total depth
 DF  .      CONGLONGMERAT:   Deepest formation
 PROJ.       SCHLUMBERGER:   Project
 DATE.           01/24/78:   Date logged
 DD  .Mtr            2793:   Depth driller
 DL  .Mtr          2762.3:   Depth logger
 BLI .Mtr            2762:   Bottom log interval
 TLI .Mtr             500:   Top log interval
 CSS .Inch             7":   Casing size
 CTD1.Mtr     7" @ 2581,7:   Casing driller 1
 CTL1.Mtr          2581,7:   Casing logger 1
 BS  .Inch          6 1/8:   Bit size
 DFT .           Spersene:   Type fluid in hole
 DFD .G/c3           1.18:   Density
 DFV .Sec              58:   Viscosity
 COL .Inch           6-16:   Column depth/dia.
 DFPH.                 10:   pH
 DFL .Ml             2.75:   Fluid loss
 WSS .           Flowline:   Source of sample
 RM  .Ohmm           1.07:   Rm
 EMT .Degf 1.07 ohmm @ 83:   Rm Meas. temp.
 RMF .Ohmm           0.57:   Rmf
 MFT .Degf 0.57 ohmm @ 83:   Rmf Meas. temp.
 RMC .Ohmm           1.78:   Rmc
 MCST.Degf 1.78 ohmm @ 83:   Rmc Meas. temp.
 MFSS.              Press:   Source Rmf.
 MCSS.              Press:   Source Rmc.
 RMB .Degf 0.4 ohmm @ 232:   Rm. at BHT
 BHT .Degf            232:   BHT.
 TCS .Hrs               7:   Time Circ. stopped
 MRT .Degf            232:   Maximum recorded temp.
 LUN .               4618:   Logging unit number
 LUL .                WJV:   Logging unit location
 ENGI.           M. Akbar:   Recorded By
 WITN.           M.Dasuki:   Witnessed by
 RE1 .       ILD  (6FF40):   Res. Electrode #1
 RE2 .      SN   (A-16"M):   Res. Electrode #2
 DATE.           02/16/78:   Date logged
 DATE.           03/13/78:   Date logged
 DD  .Mtr            1260:   Depth driller
 DD  .Mtr            2610:   Depth driller
 DL  .Mtr            1260:   Depth logger
 DL  .Mtr            2610:   Depth logger
 BLI .Mtr            1260:   Bottom log interval
 BLI .Mtr          2605.8:   Bottom log interval
 TLI .Mtr             500:   Top log interval
 TLI .Mtr          1254.5:   Top log interval
 CSS .Inch         13 3/8:   Casing size
 CSS .Inch          9 5/8:   Casing size
 CTD1.Mtr             500:   Casing driller 1
 CTD1.Mtr            1254:   Casing driller 1
 CTL1.Mtr             500:   Casing logger 1
 CTL1.Mtr          1254.5:   Casing logger 1
 BS  .Inch         12 1/4:   Bit size
 BS  .Inch          8 5/8:   Bit size
 DFT .           spersene:   Type fluid in hole
 DFT .           spersene:   Type fluid in hole
 DFD .G/c3           1.12:   Density
 DFD .G/c3           1.18:   Density
 DFV .Sec              47:   Viscosity
 DFV .Sec              58:   Viscosity
 DFPH.                  9:   pH
 DFPH.                 10:   pH
 DFL .Ml              5.5:   Fluid loss
 DFL .Ml             2.75:   Fluid loss
 WSS .           flowline:   Source of sample
 WSS .           flowline:   Source of sample
 RM  .Ohmm           1.19:   Rm
 RM  .Ohmm           1.07:   Rm
 EMT .Degf             80:   Rm Meas. temp.
 EMT .Degf             83:   Rm Meas. temp.
 RMF .Ohmm            0.8:   Rmf
 RMF .Ohmm           0.57:   Rmf
 MFT .Degf             80:   Rmf Meas. temp.
 MFT .Degf             83:   Rmf Meas. temp.
 RMC .Ohmm           1.52:   Rmc
 RMC .Ohmm           1.78:   Rmc
 MCST.Degf             80:   Rmc Meas. temp.
 MCST.Degf             83:   Rmc Meas. temp.
 MFSS.                  p:   Source Rmf.
 MFSS.                  p:   Source Rmf.
 MCSS.                  p:   Source Rmc.
 MCSS.                  p:   Source Rmc.
 RMB .Degf 0.63 ohmm @ 150:   Rm. at BHT
 RMB .Degf 0.4 ohmm @ 232:   Rm. at BHT
 BHT .Degf            150:   BHT.
 BHT .Degf            232:   BHT.
 TCS .Hrs               3:   Time Circ. stopped
 TCS .Hrs               7:   Time Circ. stopped
 MRT .Degf            150:   Maximum recorded temp.
 MRT .Degf            232:   Maximum recorded temp.
 LUN .               4618:   Logging unit number
 LUN .               4618:   Logging unit number
 LUL .                wjv:   Logging unit location
 LUL .                wjv:   Logging unit location
 ENGI.           M. Akbar:   Recorded By
 ENGI.           M. Akbar:   Recorded By
 WITN.            Y. Rais:   Witnessed by
 WITN.          M. Dasuki:   Witnessed by
 RE1 .                ILD:   Res. Electrode #1
 RE1 .                ILD:   Res. Electrode #1
 RE2 .                 SN:   Res. Electrode #2
 RE2 .                 SN:   Res. Electrode #2
 TLAB.hh:mm             3:   Time Logger At Bottom
 TLAB.hh:mm             7:   Time Logger At Bottom
 TLAB.hh:mm             7:   Time Logger At Bottom
 DGBY.            Sukarna:   Digitized By
 DGBY.            Sukarna:   Digitized By
 DGBY.            Sukarna:   Digitized By
~T 1 Tops
D1(1453-1455)                    1453.0
~OTHER INFORMATION
# Bridleless tool, Log was correlated with cs. run no.3 4M too deep compared with run.2
~A  DEPTH     CALI         GR         SP        ILD         SN       PROX       NPHI       RHOB        CBL       DRHO
# ...
  510.3630    16.2935  -999.2500   -42.5621     0.7104     0.8288     0.9593  -999.2500  -999.2500  -999.2500  -999.2500
  510.5160    16.2482  -999.2500   -43.3242     0.7207     0.8174     0.9391  -999.2500  -999.2500  -999.2500  -999.2500
  510.6680    16.0024  -999.2500   -43.4709     0.7106     0.7560     0.8502  -999.2500  -999.2500  -999.2500  -999.2500
  510.8200    15.8172  -999.2500   -43.3035     0.6956     0.7350     0.9000  -999.2500  -999.2500  -999.2500  -999.2500
  510.9730    15.5723  -999.2500   -42.8312     0.6762     0.7300     0.8502  -999.2500  -999.2500  -999.2500  -999.2500
  511.1250    15.3571  -999.2500   -42.3578     0.6620     0.7200     0.9065  -999.2500  -999.2500  -999.2500  -999.2500
  511.2780    15.1732  -999.2500   -42.3481     0.6528     0.7151     0.8874  -999.2500  -999.2500  -999.2500  -999.2500
  511.4300    15.0969  -999.2500   -42.3383     0.6391     0.7154     0.8265  -999.2500  -999.2500  -999.2500  -999.2500
  511.5820    14.9432  -999.2500   -42.6377     0.6256     0.7156     0.8687  -999.2500  -999.2500  -999.2500  -999.2500
  511.7350    14.8209  -999.2500   -42.4734     0.6081     0.7107     0.8504  -999.2500  -999.2500  -999.2500  -999.2500
  511.8870    14.8218  -999.2500   -41.6902     0.5996     0.7059     0.8750  -999.2500  -999.2500  -999.2500  -999.2500
  512.0400    14.8071  -999.2500   -41.2194     0.5912     0.6913     0.8445  -999.2500  -999.2500  -999.2500  -999.2500
  512.1920    14.7000  -999.2500   -40.5914     0.5871     0.6721     0.8566  -999.2500  -999.2500  -999.2500  -999.2500
  512.3440    14.7627  -999.2500   -40.2721     0.5789     0.6675     0.8326  -999.2500  -999.2500  -999.2500  -999.2500
  512.4970    14.8710  -999.2500   -40.1102     0.5790     0.6726     0.8209  -999.2500  -999.2500  -999.2500  -999.2500
  512.6490    14.9642  -999.2500   -39.9437     0.5791     0.6728     0.8568  -999.2500  -999.2500  -999.2500  -999.2500
  512.8020    14.9957  -999.2500   -39.7796     0.5751     0.6731     0.8507  -999.2500  -999.2500  -999.2500  -999.2500
  512.9540    15.0581  -999.2500   -39.7699     0.5752     0.6733     0.8210  -999.2500  -999.2500  -999.2500  -999.2500
  513.1060    15.1052  -999.2500   -39.6055     0.5753     0.6688     0.8095  -999.2500  -999.2500  -999.2500  -999.2500
  513.2590    15.1519  -999.2500   -39.7523     0.5713     0.6690     0.8388  -999.2500  -999.2500  -999.2500  -999.2500
  513.4110    15.1526  -999.2500   -39.5861     0.5755     0.6645     0.8038  -999.2500  -999.2500  -999.2500  -999.2500
  513.5640    15.0763  -999.2500   -40.1945     0.5756     0.6648     0.8212  -999.2500  -999.2500  -999.2500  -999.2500
  513.7160    14.9230  -999.2500   -40.8050     0.5798     0.6650     0.8039  -999.2500  -999.2500  -999.2500  -999.2500
  513.8680    14.6765  -999.2500   -40.4821     0.5841     0.6652     0.8041  -999.2500  -999.2500  -999.2500  -999.2500
  514.0210    14.4160  -999.2500   -39.7016     0.5884     0.6702     0.8510  -999.2500  -999.2500  -999.2500  -999.2500
  514.1730    14.2473  -999.2500   -39.5391     0.5885     0.6752     0.8511  -999.2500  -999.2500  -999.2500  -999.2500
  514.3260    14.2943  -999.2500   -39.3750     0.5928     0.6755     0.8757  -999.2500  -999.2500  -999.2500  -999.2500
  514.4780    14.4183  -999.2500   -39.5217     0.5887     0.6757     0.8273  -999.2500  -999.2500  -999.2500  -999.2500
  514.6300    14.2176  -999.2500   -39.6681     0.5888     0.6711     0.7705  -999.2500  -999.2500  -999.2500  -999.2500
  514.7830    13.7880  -999.2500   -40.2750     0.5805     0.6714     0.7761  -999.2500  -999.2500  -999.2500  -999.2500
  514.9350    13.6500  -999.2500   -40.8835     0.5806     0.6621     0.8099  -999.2500  -999.2500  -999.2500  -999.2500
  515.0880    13.5738  -999.2500   -40.8718     0.5807     0.6576     0.8453  -999.2500  -999.2500  -999.2500  -999.2500
  515.2400    13.5590  -999.2500   -40.5529     0.5808     0.6579     0.8574  -999.2500  -999.2500  -999.2500  -999.2500
  515.3920    13.5599  -999.2500   -40.2341     0.5809     0.6582     0.8042  -999.2500  -999.2500  -999.2500  -999.2500
  515.5450    13.5605  -999.2500   -40.2243     0.5852     0.6584     0.7653  -999.2500  -999.2500  -999.2500  -999.2500
  515.6970    13.5612  -999.2500   -40.2146     0.5895     0.6586     0.8101  -999.2500  -999.2500  -999.2500  -999.2500
  515.8500    13.5774  -999.2500   -40.2048     0.5896     0.6589     0.7987  -999.2500  -999.2500  -999.2500  -999.2500
  516.0020    13.5935  -999.2500   -40.1951     0.5855     0.6591     0.8218  -999.2500  -999.2500  -999.2500  -999.2500
  516.1540    13.6097  -999.2500   -40.0308     0.5856     0.6593     0.7930  -999.2500  -999.2500  -999.2500  -999.2500
  516.3070    13.6258  -999.2500   -40.1776     0.5815     0.6595     0.7600  -999.2500  -999.2500  -999.2500  -999.2500
  516.4590    13.6883  -999.2500   -40.6343     0.5775     0.6598     0.7493  -999.2500  -999.2500  -999.2500  -999.2500
  516.6120    13.7814  -999.2500   -41.2400     0.5735     0.6600     0.7989  -999.2500  -999.2500  -999.2500  -999.2500
  516.7640    13.8900  -999.2500   -41.3848     0.5736     0.6650     0.7656  -999.2500  -999.2500  -999.2500  -999.2500
  516.9160    13.9370  -999.2500   -41.3750     0.5696     0.6652     0.8047  -999.2500  -999.2500  -999.2500  -999.2500
  517.0690    13.9530  -999.2500   -41.9855     0.5657     0.6655     0.7877  -999.2500  -999.2500  -999.2500  -999.2500
  517.2210    13.9230  -999.2500   -41.6645     0.5658     0.6609     0.8281  -999.2500  -999.2500  -999.2500  -999.2500
  517.3740    13.8160  -999.2500   -41.5004     0.5659     0.6612     0.8703  -999.2500  -999.2500  -999.2500  -999.2500
  517.5260    13.7087  -999.2500   -42.1088     0.5660     0.6567     0.8459  -999.2500  -999.2500  -999.2500  -999.2500
  517.6780    13.7406  -999.2500   -42.0986     0.5661     0.6523     0.8520  -999.2500  -999.2500  -999.2500  -999.2500
  517.8310    13.8026  -999.2500   -41.9348     0.5621     0.6479     0.8282  -999.2500  -999.2500  -999.2500  -999.2500
  517.9830    13.9422  -999.2500   -41.9250     0.5622     0.6435     0.8107  -999.2500  -999.2500  -999.2500  -999.2500
  518.1360    14.0044  -999.2500   -41.9153     0.5623     0.6438     0.8050  -999.2500  -999.2500  -999.2500  -999.2500
  518.2880    13.9436  -999.2500   -41.4419     0.5624     0.6486     0.7880  -999.2500  -999.2500  -999.2500  -999.2500
  518.4400    13.8053  -999.2500   -41.2791     0.5625     0.6535     0.8109  -999.2500  -999.2500  -999.2500  -999.2500
  518.5930    13.6985  -999.2500   -41.1152     0.5626     0.6537     0.8343  -999.2500  -999.2500  -999.2500  -999.2500
  518.7450    13.7148  -999.2500   -41.2620     0.5627     0.6540     0.7658  -999.2500  -999.2500  -999.2500  -999.2500
  518.8980    13.7616  -999.2500   -41.2503     0.5628     0.6589     0.7186  -999.2500  -999.2500  -999.2500  -999.2500
  519.0500    13.7624  -999.2500   -41.2405     0.5629     0.6638     0.7939  -999.2500  -999.2500  -999.2500  -999.2500
  519.2020    13.7631  -999.2500   -41.0750     0.5590     0.6641     0.7883  -999.2500  -999.2500  -999.2500  -999.2500
  519.3550    13.7331  -999.2500   -40.6028     0.5591     0.6595     0.8053  -999.2500  -999.2500  -999.2500  -999.2500
  519.5070    13.7183  -999.2500   -40.5930     0.5592     0.6505     0.8111  -999.2500  -999.2500  -999.2500  -999.2500
  519.6600    13.7808  -999.2500   -40.5833     0.5593     0.6507     0.8228  -999.2500  -999.2500  -999.2500  -999.2500
  519.8120    13.7815  -999.2500   -40.5736     0.5594     0.6463     0.7828  -999.2500  -999.2500  -999.2500  -999.2500
  519.9640    13.8441  -999.2500   -40.5638     0.5595     0.6466     0.8055  -999.2500  -999.2500  -999.2500  -999.2500
  520.1170    13.9062  -999.2500   -40.7106     0.5596     0.6468     0.8055  -999.2500  -999.2500  -999.2500  -999.2500
  520.2690    13.9531  -999.2500   -40.5443     0.5637     0.6516     0.8527  -999.2500  -999.2500  -999.2500  -999.2500
  520.4220    13.9693  -999.2500   -40.6911     0.5598     0.6519     0.7999  -999.2500  -999.2500  -999.2500  -999.2500
