~Version Information
VERS  .          2.0                              :CWLS Log Ascii Standard - Version 2.0
WRAP  .          NO                               :One line per depth step
~Well Information Block
#MNEM.UNIT       Data Type                        Information
#---------       ---------                        -------------------------------
STRT  .M         1250.29000                       :START DEPTH
STOP  .M         2514.44800                       :STOP DEPTH
STEP  .M          0.15240                         :INCREMENT
NULL  .          -999.25                          :NULL DATA VALUE
COMP  .          PERTAMINA                        :COMPANY
WELL  .          CMS-008A                         :WELL
WBN   .          CMS-008A                         :WELLBORE
FLD   .          CEMARA SELATAN                   :FIELD
LOC   .                                           :LOCATION
PROV  .          INDONESIA                        :PROVINCE
STAT  .          INDONESIA                        :STATE
CNTY  .                                           :COUNTY
CTRY  .                                           :COUNTRY
DATE  .                                           :DATE
UWI   .          CEMARASELATAN-CMS-008A           :UNIQUE WELL UWI
LIC   .                                           :LICENSE NUMBER
API   .                                           :API NUMBER
SRVC  .                                           :SERVICE COMPANY
~Parameter Information Block
#MNEM.UNIT       Value                            Description
#---------       ---------                        -------------
LONG  .DEG       108.170925                       :Well Surface Location
LATI  .DEG       -6.422847                        :Well Surface Location
XWELL .M         187032.710000                    :X-coordinate of Well Head
YWELL .M         9289187.741000                   :Y-coordinate of Well Head
~Curve Information Block
#MNEM.UNIT       API Code            Curve    Description
#--------        --------------      -----    -------------------
DEPT  .M                             :0       Index
KGAS  .MD                            :1       Permeability to Gas           
KINT  .MD                            :2       Intrinsic Permeability        
KOIL  .MD                            :3       Permeability to Oil           
KWTR  .MD                            :4       Permeability to Water         
PHIT  .V/V                           :5       Total Porosity_ includes all forms of porosity, including that occupied by bound fluids, and is independent of rock and fluid materials and of environmental effects
PHTT  .V/V                           :6       Theoretical PHIT Value        
PIGE  .V/V                           :7       Effective Porosity Less Irreducible Water
PIGN  .V/V                           :8       Effective Porosity, VISO, VPAR, and Bound Water Removed
RHGA  .G/C3                          :9       Apparent Grain Density        
SUWI  .V/V                           :10      Non-Clay Water Intergranular Water Saturation for Undisturbed Zone
VCLC  .V/V                           :11      Volume of Calcite Relative to Total Volume
VCOA  .V/V                           :12      Volume of Coal Relative to Total Volume
VDOL  .V/V                           :13      Volume of Dolomite Relative to Total Volume
VFEL  .V/V                           :14      Volume of Feldspar Relative to Total Volume
VILL  .V/V                           :15      Volume of Illite (dry) Relative to Total Volume
VMHY  .V/V                           :16      Volume of Moved Hydrocarbon Relative to Total Volume
VORT  .V/V                           :17      Volume of Orthoclase Relative to Total Volume
VQUA  .V/V                           :18      Volume of Quartz Relative to Total Volume
VUGA  .V/V                           :19      Volume of Gas in Undisturbed Zone
VUOI  .V/V                           :20      Volume of Oil in Undisturbed Zone
VUWA  .V/V                           :21      Volume of Water in Undisturbed Zone
VXBW  .V/V                           :22      Volume of Bound Water in Flushed Zone
VXGA  .V/V                           :23      Volume of Gas in Flushed Zone 
VXOI  .V/V                           :24      Volume of Oil in Flushed Zone 
VXWA  .V/V                           :25      Volume of Water in Flushed Zone
~Ascii Data Section
# ...
   2085.13720       0.00100       0.01000       0.00100       0.01000       0.18601       0.23913       0.14469       0.14469       2.79128       1.00000       0.40616       0.00000       0.00000       0.00000       0.40783      -0.01804       0.00000       0.00000       0.00000       0.00000       0.14469       0.04132       0.01804       0.00000       0.12665 
   2085.28960       0.00100       0.01000       0.00100       0.01000       0.17532       0.22677       0.13491       0.13491       2.78847       1.00000       0.42578       0.00000       0.00000       0.00000       0.39890      -0.02108       0.00000       0.00000       0.00000       0.00000       0.13491       0.04041       0.02108       0.00000       0.11383 
   2085.44200       0.00100       0.01000       0.00100       0.01000       0.16396       0.21072       0.12675       0.12675       2.78130       1.00000       0.46868       0.00000       0.00000       0.00000       0.36736      -0.02391       0.00000       0.00000       0.00000       0.00000       0.12675       0.03722       0.02356       0.00034       0.10284 
   2085.59440       0.00100       0.01000       0.00100       0.01000       0.14861       0.18578       0.11827       0.11827       2.76710       1.00000       0.55191       0.00000       0.00000       0.00000       0.29948      -0.02609       0.00000       0.00000       0.00000       0.00000       0.11827       0.03034       0.02554       0.00055       0.09218 
   2085.74680       0.00100       0.01000       0.00100       0.01000       0.11561       0.14964       0.08872       0.08872       2.75872       1.00000       0.61899       0.00000       0.00000       0.00000       0.26541      -0.01543       0.00000       0.00000       0.00000       0.00000       0.08872       0.02689       0.01535       0.00008       0.07329 
   2085.89920       0.00100       0.01000       0.00100       0.01000       0.09656       0.12599       0.07314       0.07314       2.75153       1.00000       0.67225       0.00000       0.00000       0.00000       0.23119      -0.01483       0.00000       0.00000       0.00000       0.00000       0.07314       0.02342       0.01483       0.00000       0.05831 
   2086.05160       0.00100       0.01000       0.00100       0.01000       0.09031       0.11452       0.07037       0.07037       2.74509       1.00000       0.71295       0.00000       0.00000       0.00000       0.19675      -0.01827       0.00000       0.00000       0.00000       0.00000       0.07037       0.01993       0.01813       0.00014       0.05210 
   2086.20400       0.00100       0.01000       0.00100       0.01000       0.08422       0.10472       0.06691       0.06691       2.74027       1.00000       0.74492       0.00000       0.00000       0.00000       0.17085      -0.01960       0.00000       0.00000       0.00000       0.00000       0.06691       0.01731       0.01928       0.00032       0.04731 
   2086.35640       0.00100       0.01000       0.00100       0.01000       0.08048       0.09705       0.06617       0.06617       2.73492       1.00000       0.77831       0.00000       0.00000       0.00000       0.14121      -0.01876       0.00000       0.00000       0.00000       0.00000       0.06617       0.01431       0.01843       0.00033       0.04741 
   2086.50880       0.00100       0.01000       0.00100       0.01000       0.07722       0.09034       0.06542       0.06542       2.73048       1.00000       0.80631       0.00000       0.00000       0.00000       0.11647      -0.01918       0.00000       0.00000       0.00000       0.00000       0.06542       0.01180       0.01884       0.00034       0.04624 
   2086.66120       0.00100       0.01000       0.00100       0.01000       0.07571       0.08719       0.06484       0.06484       2.72883       1.00000       0.81703       0.00000       0.00000       0.00000       0.10726      -0.02182       0.00000       0.00000       0.00000       0.00000       0.06484       0.01087       0.02133       0.00049       0.04302 
   2086.81360       0.00100       0.01000       0.00100       0.01000       0.07591       0.08834       0.06403       0.06403       2.73058       1.00000       0.80686       0.00000       0.00000       0.00000       0.11723      -0.02481       0.00000       0.00000       0.00000       0.00000       0.06403       0.01188       0.02413       0.00068       0.03922 
   2086.96600       0.00100       0.01000       0.00100       0.01000       0.07831       0.09066       0.06642       0.06642       2.73066       1.00000       0.80430       0.00000       0.00000       0.00000       0.11739      -0.02559       0.00000       0.00000       0.00000       0.00000       0.06642       0.01189       0.02483       0.00077       0.04083 
   2087.11840       0.00100       0.01000       0.00100       0.01000       0.07776       0.09111       0.06502       0.06502       2.73212       1.00000       0.79651       0.00000       0.00000       0.00000       0.12573      -0.02651       0.00000       0.00000       0.00000       0.00000       0.06502       0.01274       0.02573       0.00079       0.03850 
   2087.27080       0.00100       0.01000       0.00100       0.01000       0.07975       0.09447       0.06573       0.06573       2.73438       1.00000       0.78194       0.00000       0.00000       0.00000       0.13831      -0.02898       0.00000       0.00000       0.00000       0.00000       0.06573       0.01401       0.02807       0.00092       0.03675 
   2087.42320       0.00100       0.01000       0.00100       0.01000       0.08318       0.09959       0.06781       0.06781       2.73685       1.00000       0.76509       0.00000       0.00000       0.00000       0.15173      -0.02971       0.00000       0.00000       0.00000       0.00000       0.06781       0.01537       0.02909       0.00062       0.03810 
   2087.57560       0.00100       0.01000       0.00100       0.07016       0.08557       0.10279       0.06939       0.06939       2.73834       1.00000       0.75469       0.00000       0.00000       0.00000       0.15974      -0.03130       0.00000       0.00000       0.00000       0.00000       0.06939       0.01618       0.03101       0.00029       0.03809 
   2087.72800       0.00100       0.01000       0.00100       0.01984       0.08843       0.10594       0.07177       0.07177       2.73928       1.00000       0.74703       0.00000       0.00000       0.00000       0.16453      -0.03348       0.00000       0.00000       0.00000       0.00000       0.07177       0.01667       0.03344       0.00003       0.03829 
   2087.88040       0.00100       0.01000       0.00100       0.01000       0.09404       0.11450       0.07497       0.07497       2.74372       1.00000       0.71768       0.00000       0.00000       0.00000       0.18827      -0.03553       0.00000       0.00000       0.00000       0.00000       0.07497       0.01907       0.03546       0.00007       0.03944 
   2088.03280       0.00100       0.01000       0.00100       0.01000       0.10598       0.13152       0.08281       0.08281       2.75150       1.00000       0.66537       0.00000       0.00000       0.00000       0.22865      -0.03845       0.00000       0.00000       0.00000       0.00000       0.08281       0.02316       0.03843       0.00001       0.04437 
   2088.18520       0.00100       0.01000       0.00100       0.01000       0.13074       0.16823       0.09915       0.09915       2.76826       1.00000       0.55745       0.00000       0.00000       0.00000       0.31180      -0.03468       0.00000       0.00000       0.00000       0.00000       0.09915       0.03159       0.03468       0.00000       0.06447 
   2088.33760       0.00100       0.01000       0.00100       0.01000       0.15600       0.20226       0.11832       0.11832       2.78153       1.00000       0.47212       0.00000       0.00000       0.00000       0.37188      -0.03103       0.00000       0.00000       0.00000       0.00000       0.11832       0.03768       0.03103       0.00000       0.08730 
