~Version Information
VERS  .          2.0                              :CWLS Log Ascii Standard - Version 2.0
WRAP  .          NO                               :One line per depth step
~Well Information Block
#MNEM.UNIT       Data Type                        Information
#---------       ---------                        -------------------------------
STRT  .M         1190.09200                       :START DEPTH
STOP  .M         2429.86500                       :STOP DEPTH
STEP  .M          0.15240                         :INCREMENT
NULL  .          -999.25                          :NULL DATA VALUE
COMP  .                                           :COMPANY
WELL  .          CMS-001                          :WELL
WBN   .          CMS-001                          :WELLBORE
FLD   .          CEMARA SELATAN                   :FIELD
LOC   .                                           :LOCATION
PROV  .                                           :PROVINCE
STAT  .                                           :STATE
CNTY  .                                           :COUNTY
CTRY  .                                           :COUNTRY
DATE  .                                           :DATE
UWI   .          CEMARASELATAN-001                :UNIQUE WELL UWI
LIC   .                                           :LICENSE NUMBER
API   .                                           :API NUMBER
SRVC  .                                           :SERVICE COMPANY
~Parameter Information Block
#MNEM.UNIT       Value                            Description
#---------       ---------                        -------------
LONG  .DEG       108.170925                       :Well Surface Location
LATI  .DEG       -6.422919                        :Well Surface Location
XWELL .M         187032.780005                    :X-coordinate of Well Head
YWELL .M         9289179.840752                   :Y-coordinate of Well Head
~Curve Information Block
#MNEM.UNIT       API Code            Curve    Description
#--------        --------------      -----    -------------------
DEPT  .M                             :0       Index
KGAS  .MD                            :1       Permeability to Gas           
KINT  .MD                            :2       Intrinsic Permeability        
KOIL  .MD                            :3       Permeability to Oil           
KWTR  .MD                            :4       Permeability to Water         
PHIT  .V/V                           :5       Total Porosity_ includes all forms of porosity, including that occupied by bound fluids, and is independent of rock and fluid materials and of environmental effects
PHTT  .V/V                           :6       Theoretical PHIT Value        
PIGE  .V/V                           :7       Effective Porosity Less Irreducible Water
PIGN  .V/V                           :8       Effective Porosity, VISO, VPAR, and Bound Water Removed
RHGA  .G/C3                          :9       Apparent Grain Density        
SUWI  .V/V                           :10      Non-Clay Water Intergranular Water Saturation for Undisturbed Zone
VCHL  .V/V                           :11      Volume of Chlorite Relative to Total Volume
VCL   .V/V                           :12      Volume of Clay Type Material Relative to Total Volume
VCLC  .V/V                           :13      Volume of Calcite Relative to Total Volume
VCOA  .V/V                           :14      Volume of Coal Relative to Total Volume
VDOL  .V/V                           :15      Volume of Dolomite Relative to Total Volume
VFEL  .V/V                           :16      Volume of Feldspar Relative to Total Volume
VIGN  .V/V                           :17      Volume of Igneous Rock Relative to Total Volume
VILL  .V/V                           :18      Volume of Illite (dry) Relative to Total Volume
VMHY  .V/V                           :19      Volume of Moved Hydrocarbon Relative to Total Volume
VQUA  .V/V                           :20      Volume of Quartz Relative to Total Volume
VUGA  .V/V                           :21      Volume of Gas in Undisturbed Zone
VUOI  .V/V                           :22      Volume of Oil in Undisturbed Zone
VUWA  .V/V                           :23      Volume of Water in Undisturbed Zone
VXBW  .V/V                           :24      Volume of Bound Water in Flushed Zone
VXGA  .V/V                           :25      Volume of Gas in Flushed Zone 
VXOI  .V/V                           :26      Volume of Oil in Flushed Zone 
VXWA  .V/V                           :27      Volume of Water in Flushed Zone
~Ascii Data Section
# ...
   2342.23600       0.00100       0.03208       0.00100       0.03208       0.23767       0.31761       0.20961       0.20961       2.74347       1.00000       0.00000       0.49928       0.00000       0.00000       0.00000       0.00000       0.00000       0.47122       0.00000       0.29111       0.00000       0.00000       0.20961       0.02805       0.00000       0.00000       0.20961 
   2342.38840       0.00100       0.01000       0.00100       0.01000       0.20025       0.30816       0.16237       0.16237       2.77028       1.00000       0.00000       0.67401       0.00000       0.00000       0.00000       0.00000       0.00000       0.63613       0.00000       0.16362       0.00000       0.00000       0.16237       0.03787       0.00000       0.00000       0.16237 
   2342.54080       0.00100       0.01000       0.00100       0.01000       0.17633       0.29550       0.13450       0.13450       2.77897       1.00000       0.00000       0.74432       0.00000       0.00000       0.00000       0.00000       0.00000       0.70249       0.00000       0.12118       0.00000       0.00000       0.13450       0.04182       0.00000       0.00000       0.13450 
   2342.69320       0.00100       0.01000       0.00100       0.01000       0.16443       0.27717       0.12486       0.12486       2.77034       1.00000       0.00000       0.70415       0.00101       0.00000       0.00000       0.00000       0.00000       0.66458       0.00000       0.16998       0.00000       0.00000       0.12486       0.03957       0.00000       0.00000       0.12486 
   2342.84560       0.00100       0.01000       0.00100       0.01000       0.16608       0.26747       0.13050       0.13050       2.75837       1.00000       0.00000       0.63324       0.00000       0.00000       0.00000       0.00000       0.00000       0.59766       0.00000       0.23626       0.00000       0.00000       0.13050       0.03558       0.00000       0.00000       0.13050 
   2342.99800       0.00100       0.01000       0.00100       0.01000       0.17494       0.26213       0.14435       0.14435       2.74419       1.00000       0.00000       0.54453       0.00000       0.00000       0.00000       0.00000       0.00000       0.51393       0.00000       0.31113       0.00000       0.00000       0.14435       0.03060       0.00000       0.00000       0.14435 
   2343.15040       0.00100       0.05381       0.00100       0.05381       0.17985       0.24984       0.15528       0.15528       2.72607       1.00000       0.00000       0.43717       0.00000       0.00000       0.00000       0.00000       0.00000       0.41260       0.00000       0.40755       0.00000       0.00000       0.15528       0.02456       0.00000       0.00000       0.15528 
   2343.30280       0.00100       0.71881       0.00100       0.71881       0.19584       0.24359       0.17824       0.17824       2.70560       1.00000       0.00000       0.31326       0.00000       0.00000       0.00000       0.00000       0.00000       0.29566      -0.01602       0.50850       0.00000       0.00000       0.17824       0.01760       0.01602       0.00000       0.16221 
   2343.45520       0.00100      28.47798       0.00100      28.47798       0.22598       0.24421       0.21760       0.21760       2.67751       1.00000       0.00000       0.14922       0.00000       0.00000       0.00000       0.00000       0.00000       0.14084      -0.03778       0.63318       0.00000       0.00000       0.21760       0.00838       0.03778       0.00000       0.17982 
   2343.60760       0.00100       0.01000       0.00100       0.01000       0.02909       0.11196       0.00010       0.00010       2.00568       1.00000       0.00000       0.51762       0.00000       0.48238       0.00000       0.00000       0.00000       0.48854       0.00000       0.00000       0.00000       0.00000       0.00000       0.02909       0.00000       0.00000       0.00000 
   2343.76000       0.00100       0.01000       0.00100       0.01000       0.02039       0.07847       0.00010       0.00010       1.75969       1.00000       0.00000       0.36280       0.00000       0.63720       0.00000       0.00000       0.00000       0.34241       0.00000       0.00000       0.00000       0.00000       0.00000       0.02039       0.00000       0.00000       0.00000 
   2343.91240       0.00100       0.01000       0.00100       0.01000       0.01454       0.05597       0.00010       0.00010       1.59685       1.00000       0.00000       0.25878       0.00000       0.74122       0.00000       0.00000       0.00000       0.24424       0.00000       0.00000       0.00000       0.00000       0.00000       0.01454       0.00000       0.00000       0.00000 
   2344.06480       0.00100       0.01000       0.00100       0.01000       0.01681       0.06472       0.00010       0.00010       1.65990       1.00000       0.00000       0.29920       0.00000       0.70080       0.00000       0.00000       0.00000       0.28239       0.00000       0.00000       0.00000       0.00000       0.00000       0.01681       0.00000       0.00000       0.00000 
   2344.21720       0.00100       0.01000       0.00100       0.01000       0.02386       0.09186       0.00010       0.00010       1.85746       1.00000       0.00000       0.42467       0.00000       0.57534       0.00000       0.00000       0.00000       0.40080       0.00000       0.00000       0.00000       0.00000       0.00000       0.02386       0.00000       0.00000       0.00000 
   2344.36960       0.00100       0.21547       0.00100       0.21547       0.24071       0.28520       0.21804       0.21804       2.72584       1.00000       0.00000       0.40349       0.00000       0.00000       0.00000       0.00000       0.00000       0.38081      -0.13410       0.37847       0.00000       0.00000       0.21804       0.02267       0.13410       0.00000       0.08394 
   2344.52200       0.00100       0.03010       0.00100       0.03010       0.20948       0.27361       0.18199       0.18199       2.73830       1.00000       0.00000       0.48909       0.00000       0.00000       0.00000       0.00000       0.00000       0.46161      -0.09447       0.32892       0.00000       0.00000       0.18199       0.02748       0.09447       0.00000       0.08752 
   2344.67440       0.00100       0.01961       0.00100       0.01961       0.23564       0.29758       0.20620       0.20620       2.74780       1.00000       0.00000       0.52382       0.00000       0.00000       0.00000       0.00000       0.00000       0.49439      -0.14621       0.26997       0.00000       0.00000       0.20620       0.02943       0.14621       0.00000       0.05999 
   2344.82680       0.00100       0.13609       0.00100       0.13609       0.26223       0.31033       0.23779       0.23779       2.73413       1.00000       0.00000       0.43494       0.00000       0.00000       0.00000       0.00000       0.00000       0.41050      -0.14354       0.32728       0.00000       0.00000       0.23779       0.02444       0.14354       0.00000       0.09425 
   2344.97920       0.00100       0.01000       0.00100       0.01000       0.03210       0.12355       0.00010       0.00010       2.09182       1.00000       0.00000       0.57119       0.00000       0.42881       0.00000       0.00000       0.00000       0.53909       0.00000       0.00000       0.00000       0.00000       0.00000       0.03210       0.00000       0.00000       0.00000 
   2345.13160       0.00100       0.01000       0.00100       0.01000       0.03181       0.12245       0.00010       0.00010       2.08362       1.00000       0.00000       0.56610       0.00000       0.43390       0.00000       0.00000       0.00000       0.53429       0.00000       0.00000       0.00000       0.00000       0.00000       0.03181       0.00000       0.00000       0.00000 
   2345.28400       0.00100       0.24105       0.00100       0.24105       0.23150       0.29209       0.20940       0.20940       2.72303       1.00000       0.00000       0.39327       0.00000       0.00000       0.00000       0.00000       0.00000       0.37118      -0.01588       0.39732       0.00000       0.00000       0.20940       0.02210       0.01588       0.00000       0.19353 
