~VERSION INFORMATION
 VERS.               1.20:   CWLS LOG ASCII STANDARD - VERSION 1.20
 WRAP.                 NO:   ONE LINE PER DEPTH STEP
~WELL INFORMATION
#MNEM.UNIT      DATA TYPE    INFORMATION
#----------   ------------   ------------------------------
 STRT.M          630.6096:   START DEPTH
 STOP.M         3133.6272:   STOP DEPTH
 STEP.M            0.1524:   STEP LENGTH
 NULL.          -999.2500:   NO VALUE
 COMP.            COMPANY:   PERTAMINA
 WELL.               WELL:   CMS-004
 WBN .            CMS-004:   WELLBORE
 FLD .              FIELD:   CEMARA SELATAN
 LOC .           LOCATION:   X = + 149636.27  Y = - 719813.7
 PROV.           PROVINCE:   JAWA BARAT
 STAT.              STATE:   INDONESIA
 SRVC.    SERVICE COMPANY:   SCHLUMBERGER
 DATE.            LOGDATE:   11/24/77
 APIN.         API NUMBER:   -
 UWI .  CEMARASELATAN-004:   UNIQUE WELL ID 
~CURVE INFORMATION
#MNEM.UNIT       API CODE    CURVE DESCRIPTION
#----------   ------------   ------------------------------
 DEPT.M                  :
 CALI.inch   60 280 00 00:   Caliper
 GR  .GAPI   60 310 00 00:   Gamma Ray
 SP  .mV     60 010 01 00:   Spontaneous Potential
 ILD .ohmm   05 070 46 00:   Induction Laterolog, Deep
 SN  .ohmm   05 040 16 00:   Short Normal 16"
 NPHI.%      42 890 03 00:   Neu. Porosity, Ss [%]
 RHOB.kg/cm3 42 350 01 00:   Bulk Density
 DRHO.g/cc   42 356 01 00:   Density Correction
 PROX.ohmm   21 270 30 00:   Proximity Log
~PARAMETER INFORMATION
#MNEM.UNIT          VALUE    DESCRIPTION
#----------   ------------   ------------------------------
 EKB .M            0.0000:   Kelly bushing
 EGL .M            0.0000:   Ground level
 EDF .M           10.0000:   Drilling floor
 EPD .M           10.0000:   Permanent datum
 TD  .M         3129.0000:   Total depth
 DF  .      CONGLONGMERAT:   Deepest formation
 PROJ.       SCHLUMBERGER:   Project
 DATE.           11/24/77:   Date logged
 SRFX.M       185028.4000:   Surface X position
 SRFY.M      9281121.0000:   Surface Y position
 STUS.                  3:   1-18 API codes
 SLAT.DECIMAL DE  -6.4963:   Surface Latitude
 SLNG.DECIMAL DE 108.1521:   Surface Longitude
 BLAT.DECIMAL DE   0.0000:   Bottom Latitude
 BLNG.DECIMAL DE   0.0000:   Bottom Longitude
 SCTN.                  0:   Section Number
 NSFT.F            0.0000:   N-S Footage
 EWFT.F            0.0000:   E-F Footage
 BHT .Degf            100:   Bottom Hole Temperature
 MRT .Degf            100:   Max Recorded Temperature
 MST .Degf             87:   Mud Temperature
 RM  .Ohmm            3.0:   Mud Resistivity
 RMB .Degf  2.7 ohmm @100:   Mud BHT Resistivity
 RMC .Ohmm           4.72:   Mud Cake Resistivity
 RMF .Ohmm           1.93:   Mud Filtrate Resistivity
 DFD .G/c3           1.05:   Drilling Fluid Density
 DFV .Sec              43:   Drilling Fluid Viscosity
 DFPH.                  9:   Drilling Fluid pH
 DFL .Ml               14:   Drilling Fluid Loss
 DD  .Mtr          3129.0:   Depth driller
 DL  .Mtr          3129.8:   Depth logger
 BLI .Mtr          3129.5:   Bottom log interval
 TLI .Mtr            2767:   Top log interval
 CSS .Inch          9 5/8:   Casing size
 CTD1.Mtr   9 5/8" @ 1300:   Casing driller 1
 CTL1.Mtr          1299.7:   Casing logger 1
 BS  .Inch          8 5/8:   Bit size
 DFT . Bentonite / Q.Broxin:   Type fluid in hole
 WSS .           Flowline:   Source of sample
 EMT .Degf 0.48 ohmm @ 95:   Rm Meas. temp.
 MFT .Degf 0.31 ohmm @ 80:   Rmf Meas. temp.
 MCST.Degf 0.66 ohmm @ 26:   Rmc Meas. temp.
 MFSS.              Press:   Source Rmf.
 MCSS.              Press:   Source Rmc.
 TCS .HRS              12:   Time Circ. stopped
 LUN .               RS18:   Logging unit number
 LUL .                WJV:   Logging unit location
 ENGI.            M.Akbar:   Recorded By
 WITN.  Wardoyo / Sugipto:   Witnessed by
 RE1 .        ILD (6FF40):   Res. Electrode #1
 RE2 .      SN  (A-16" M):   Res. Electrode #2
 TLAB.Hrs              12:   Time logger at bottom
 DATE.           12/02/77:   Date logged
 DATE.           12/13/77:   Date logged
 DATE.           01/10/77:   Date logged
 DATE.           01/28/78:   Date logged
 BHT .Degf            110:   Bottom Hole Temperature
 BHT .Degf            155:   Bottom Hole Temperature
 BHT .Degf            250:   Bottom Hole Temperature
 BHT .Degf            270:   Bottom Hole Temperature
 MRT .Degf            110:   Max Recorded Temperature
 MRT .Degf            155:   Max Recorded Temperature
 MRT .Degf            250:   Max Recorded Temperature
 MRT .Degf            270:   Max Recorded Temperature
 MST .Degf             80:   Mud Temperature
 MST .Degf             85:   Mud Temperature
 MST .Degf             85:   Mud Temperature
 MST .Degf             95:   Mud Temperature
 RM  .Ohmm           2.05:   Mud Resistivity
 RM  .Ohmm           1.51:   Mud Resistivity
 RM  .Ohmm           0.71:   Mud Resistivity
 RM  .Ohmm           0.48:   Mud Resistivity
 RMB .Degf 1.6 ohmm @ 110:   Mud BHT Resistivity
 RMB .Degf 0.9 ohmm @ 155:   Mud BHT Resistivity
 RMB .Degf 0.24 ohmm @ 250:   Mud BHT Resistivity
 RMB .Degf 0.16 ohmm @ 270:   Mud BHT Resistivity
 RMC .Ohmm           2.12:   Mud Cake Resistivity
 RMC .Ohmm           1.62:   Mud Cake Resistivity
 RMC .Ohmm           1.11:   Mud Cake Resistivity
 RMC .Ohmm 0.66 ohmm @ 26:   Mud Cake Resistivity
 RMF .Ohmm           1.91:   Mud Filtrate Resistivity
 RMF .Ohmm           1.36:   Mud Filtrate Resistivity
 RMF .Ohmm           0.46:   Mud Filtrate Resistivity
 RMF .Ohmm 0.31 ohmm @ 80:   Mud Filtrate Resistivity
 DFD .G/c3           1.15:   Drilling Fluid Density
 DFD .G/c3           1.14:   Drilling Fluid Density
 DFD .G/c3           1.17:   Drilling Fluid Density
 DFD .G/c3           1.23:   Drilling Fluid Density
 DFV .Sec              42:   Drilling Fluid Viscosity
 DFV .Sec              55:   Drilling Fluid Viscosity
 DFV .Sec              65:   Drilling Fluid Viscosity
 DFV .Sec              65:   Drilling Fluid Viscosity
 DFPH.                  9:   Drilling Fluid pH
 DFPH.                  9:   Drilling Fluid pH
 DFPH.                9.5:   Drilling Fluid pH
 DFPH.                9.5:   Drilling Fluid pH
 DFL .Ml               10:   Drilling Fluid Loss
 DFL .Ml              6.5:   Drilling Fluid Loss
 DFL .Ml                5:   Drilling Fluid Loss
 DFL .Ml                5:   Drilling Fluid Loss
 DD  .Mtr             255:   Depth driller
 DD  .Mtr             635:   Depth driller
 DD  .Mtr            1305:   Depth driller
 DD  .Mtr            2798:   Depth driller
 DL  .Mtr             255:   Depth logger
 DL  .Mtr             635:   Depth logger
 DL  .Mtr            1303:   Depth logger
 DL  .Mtr          2799.3:   Depth logger
 BLI .Mtr           254.7:   Bottom log interval
 BLI .Mtr           634.7:   Bottom log interval
 BLI .Mtr            1302:   Bottom log interval
 BLI .Mtr          2799.0:   Bottom log interval
 TLI .Mtr            30.0:   Top log interval
 TLI .Mtr           259.3:   Top log interval
 TLI .Mtr           630.5:   Top log interval
 TLI .Mtr          1299.7:   Top log interval
 CSS .Inch             30:   Casing size
 CSS .Inch             20:   Casing size
 CSS .Inch         12 1/4:   Casing size
 CSS .Inch          9 5/8:   Casing size
 CTD1.Mtr              30:   Casing driller 1
 CTD1.Mtr           259.1:   Casing driller 1
 CTD1.Mtr             630:   Casing driller 1
 CTD1.Mtr            1300:   Casing driller 1
 CTL1.Mtr              30:   Casing logger 1
 CTL1.Mtr           250.5:   Casing logger 1
 CTL1.Mtr           630.5:   Casing logger 1
 CTL1.Mtr          1299.7:   Casing logger 1
 BS  .Inch          9 7/8:   Bit size
 BS  .Inch          9 7/8:   Bit size
 BS  .Inch             12:   Bit size
 BS  .Inch          8 5/8:   Bit size
 DFT .          bentonite:   Type fluid in hole
 DFT .          bentonite:   Type fluid in hole
 DFT .          bentonite:   Type fluid in hole
 DFT .          bentonite:   Type fluid in hole
 WSS .           flowline:   Source of sample
 WSS .           flowline:   Source of sample
 WSS .           flowline:   Source of sample
 WSS .           flowline:   Source of sample
 EMT .Degf  3.0 ohmm @ 87:   Rm Meas. temp.
 EMT .Degf 2.05 ohmm @ 80:   Rm Meas. temp.
 EMT .Degf 1.51 ohmm @ 85:   Rm Meas. temp.
 EMT .Degf 0.71 ohmm @ 85:   Rm Meas. temp.
 MFT .Degf 2.72 ohmm @ 87:   Rmf Meas. temp.
 MFT .Degf 1.91 ohmm @ 80:   Rmf Meas. temp.
 MFT .Degf 1.36 ohmm @ 85:   Rmf Meas. temp.
 MFT .Degf 0.46 ohmm @ 85:   Rmf Meas. temp.
 MCST.Degf 1.93 ohmm @ 87:   Rmc Meas. temp.
 MCST.Degf 2.12 ohmm @ 80:   Rmc Meas. temp.
 MCST.Degf 1.62 ohmm @ 85:   Rmc Meas. temp.
 MCST.Degf 1.11 ohmm @ 85:   Rmc Meas. temp.
 MFSS.                  p:   Source Rmf.
 MFSS.                  p:   Source Rmf.
 MFSS.                  p:   Source Rmf.
 MFSS.                  p:   Source Rmf.
 MCSS.                  p:   Source Rmc.
 MCSS.                  p:   Source Rmc.
 MCSS.                  p:   Source Rmc.
 MCSS.                  p:   Source Rmc.
 TCS .HRS             1.5:   Time Circ. stopped
 TCS .HRS               3:   Time Circ. stopped
 TCS .HRS               4:   Time Circ. stopped
 TCS .HRS               7:   Time Circ. stopped
 LUN .               4618:   Logging unit number
 LUN .               4618:   Logging unit number
 LUN .               4618:   Logging unit number
 LUL .                mjv:   Logging unit location
 LUL .                mjv:   Logging unit location
 LUL .                mjv:   Logging unit location
 LUL .                mjv:   Logging unit location
 WITN.            Sukarna:   Witnessed by
 RE1 .                ILD:   Res. Electrode #1
 RE1 .                ILD:   Res. Electrode #1
 RE1 .                ILD:   Res. Electrode #1
 RE1 .                ILD:   Res. Electrode #1
 RE2 .                 SN:   Res. Electrode #2
 RE2 .                 SN:   Res. Electrode #2
 RE2 .                 SN:   Res. Electrode #2
 RE2 .                 SN:   Res. Electrode #2
 TLAB.Hrs             1.5:   Time logger at bottom
 TLAB.Hrs               3:   Time logger at bottom
 TLAB.Hrs               4:   Time logger at bottom
 TLAB.Hrs               7:   Time logger at bottom
 DGBY.            Sukarna:   Digitized By
 DGBY.            Sukarna:   Digitized By
 DGBY.            Sukarna:   Digitized By
 DGBY.            Sukarna:   Digitized By
 DGBY.            Sukarna:   Digitized By
~A  DEPTH     CALI         GR         SP        ILD         SN       NPHI       RHOB       DRHO       PROX
# ...
 1542.8760    11.2918    77.8643     0.2330     1.2842     1.5358    30.6835     2.3455     0.0912     1.9683
 1543.0280    11.2464    80.9293     0.5142     1.2064     1.5134    32.0177     2.2688     0.1277     1.8876
 1543.1810    10.9472    88.5650     0.7232     1.1472     1.3782    32.9021     2.2752     0.1237     1.1932
 1543.3330    10.7692    91.1557     1.0670     1.0789     1.2329    33.5553     2.2654     0.1133     0.9570
 1543.4860    10.6204    92.7752     1.4475     1.0045     1.1393    35.6347     2.2395     0.1342     0.9593
 1543.6380    10.5439    93.2197     1.7382     0.9292     1.0725    36.4971     2.2117     0.1082     0.9594
 1543.7900    10.5599    93.3789     1.8025     0.8761     1.0152    36.6704     2.1953     0.0854     0.9925
 1543.9430    10.5739    93.3508     1.6242     0.8279     0.9877    36.8510     2.1799     0.0541     0.9444
 1544.0950    10.5316    92.7022     1.1866     0.7972     0.9745    37.1328     2.1743     0.0259     0.9936
 1544.2480    10.4425    89.9763     1.1868     0.7765     0.9607    37.4187     2.1877     0.0265     1.0740
 1544.4000    10.3699    87.6033     1.1870     0.7655     0.9489    37.7778     2.2052     0.0500     0.9695
 1544.5520    10.4052    86.3857     1.3412     0.7664     0.9243    37.8505     2.2138     0.0781     0.9058
 1544.7050    10.5003    87.8549     1.3066     0.7711     0.9050    37.0184     2.2008     0.1041     0.9455
 1544.8570    10.6356    89.8482     1.0454     0.7678     0.8953    35.6984     2.2314     0.1053     0.9034
 1545.0100    10.7665    88.5651     0.6653     0.7550     0.8851    35.8429     2.2109     0.1172     0.8816
 1545.1620    10.8147    85.7276     0.4175     0.7382     0.8649    38.5852     2.1994     0.1205     0.9067
 1545.3140    10.8574    85.0042     0.3923     0.7254     0.8457    39.8010     2.1768     0.1174     0.8506
 1545.4670    10.9683    86.6485     0.2638     0.7128     0.8342    40.8870     2.1602     0.1129     0.8630
 1545.6190    10.8533    88.7147     0.2640     0.7083     0.8343    40.3525     2.1456     0.0900     0.8281
 1545.7720    10.3024    87.0527     0.4183     0.7086     0.8344    39.4307     2.1580     0.0655     0.7871
 1545.9240    10.2034    88.8879     0.6047     0.7163     0.8383    38.7113     2.1885     0.0495     0.7873
 1546.0760    10.2988    91.1152     0.8809     0.7264     0.8406    37.7146     2.2020     0.0643     0.7896
 1546.2290    10.4635    91.4807     0.9694     0.7368     0.8473    38.4524     2.2004     0.0844     0.7729
 1546.3810    10.6348    89.7106     1.0354     0.7502     0.8571    39.3141     2.2236     0.0627     0.7550
 1546.5340    10.8178    87.3792     1.1963     0.7699     0.8688    38.8035     2.2230     0.0697     0.8284
 1546.6860    10.9715    87.8099     1.4295     0.7880     0.8840    38.2430     2.2103     0.0805     0.8943
 1546.8380    11.0610    85.0923     1.4947     0.8021     0.8908    37.8339     2.1883     0.1009     0.9272
 1546.9910    11.0835    82.6978     1.3444     0.8115     0.8988    37.4360     2.1894     0.1319     0.8966
 1547.1430    11.0527    84.5391     1.3446     0.8183     0.9103    36.6106     2.1962     0.1629     0.8654
 1547.2960    11.0350    87.2639     1.5321     0.8233     0.9231    35.6368     2.1919     0.1655     0.9043
 1547.4480    11.0349    90.3294     1.6531     0.8197     0.9365    36.3153     2.2109     0.1559     0.9474
 1547.6000    11.0386    92.6012     1.6533     0.8060     0.9334    37.0830     2.2506     0.1384     0.8848
 1547.7530    11.0416    94.0616     1.6535     0.7862     0.9110    36.4421     2.2207     0.1437     0.8601
 1547.9050    11.0529    91.6045     1.4759     0.7561     0.8795    35.6629     2.2069     0.1060     0.9225
 1548.0580    11.1548    88.4764     1.3457     0.7335     0.8663    36.1343     2.2287     0.0815     0.9274
 1548.2100    11.2012    87.7670     1.3459     0.7043     0.8665    35.6866     2.2541     0.1258     0.8801
 1548.3620    11.2411    88.8041     1.3461     0.6892     0.8666    34.5656     2.2304     0.1442     0.8428
 1548.5150    11.3049    88.3008     1.3320     0.6833     0.8667    34.8276     2.2466     0.1286     0.8919
 1548.6670    11.3610    83.9664     1.1420     0.6798     0.8730    34.7870     2.2743     0.1420     0.9120
 1548.8200    11.4148    85.4429     0.9519     0.6848     0.8874    34.2142     2.2715     0.1496     0.8809
 1548.9720    11.4831    87.4570     0.7306     0.6897     0.9034    34.4058     2.2604     0.1282     0.8680
 1549.1240    11.5353    85.1520     0.8897     0.7020     0.9195    34.7091     2.2570     0.1444     0.9126
 1549.2770    11.5688    81.9883     1.0801     0.7193     0.9380    34.4133     2.2781     0.1248     0.8955
 1549.4290    11.5888    80.2588     1.4248     0.7489     0.9528    33.7562     2.2965     0.1462     0.9024
 1549.5820    11.6124    78.6187     1.8825     0.7898     0.9699    32.3182     2.3319     0.1477     0.9134
 1549.7340    11.6186    69.7167     2.2724     0.8504     0.9913    30.6004     2.3686     0.1283     0.8629
 1549.8860    11.5457    54.3334     2.0553     1.0039     1.0443    27.5853     2.3915     0.0671     1.0280
 1550.0390    11.4163    52.2994     1.7429     1.2764     1.1379    22.3848     2.4539     0.0105     6.8718
 1550.1910    11.3002    52.7774     1.3451     1.5316     1.4325    19.0279     2.4807     0.0160    15.0264
 1550.3440    11.3934    57.5590     0.8864     1.6743     1.8224    21.1105     2.4219     0.0725     2.9116
 1550.4960    11.5433    62.3416     0.4024     1.8422     2.0721    24.6610     2.3707     0.1516     1.7121
 1550.6480    11.6997    70.2457     0.2122     1.9430     2.2553    26.8375     2.3437     0.1699     1.4931
 1550.8010    11.8183    73.7198     0.0222     1.9656     2.1263    28.0606     2.2908     0.1959     1.4335
 1550.9530    11.7932    73.3263    -0.1914     1.8859     1.8758    28.1591     2.2819     0.1385     1.4858
 1551.1060    11.6986    72.1099    -0.3832     1.6833     1.7057    28.1740     2.3020     0.1004     1.4483
 1551.2580    11.6566    72.0528    -0.9536     1.5017     1.6030    28.4597     2.3036     0.1050     1.3282
 1551.4100    11.7087    72.9461    -1.3543     1.3293     1.5654    28.8623     2.3320     0.0862     1.4556
 1551.5630    11.8034    72.2232    -1.4233     1.2829     1.5473    28.9255     2.3283     0.1116     1.4529
 1551.7150    11.8817    70.3090    -1.1053     1.3085     1.5475    28.1723     2.3239     0.0881     1.4079
 1551.8680    11.9391    69.9286    -0.5800     1.3969     1.5478    27.4004     2.3554     0.0756     1.4562
 1552.0200    11.9585    69.8726    -0.3441     1.4987     1.5619    27.6777     2.3365     0.0616     1.4342
 1552.1720    11.9807    66.7426    -0.5671     1.5775     1.5982    27.5140     2.3245     0.0259     1.5874
 1552.3250    11.9234    63.9274    -1.1141     1.6117     1.6703    27.1113     2.3442     0.0110     1.6445
 1552.4770    11.8130    64.3468    -1.6060     1.5859     1.7730    27.3738     2.3476     0.0532     2.5432
 1552.6300    11.8212    72.2134    -1.7301     1.5090     1.8395    29.6436     2.3288     0.0689     4.2222
 1552.7820    11.8572    80.9330    -1.6277     1.3784     1.8318    32.7403     2.2730     0.1202     2.8295
 1552.9340    11.8903    82.7196    -1.4215     1.2705     1.6944    34.9740     2.2161     0.1497     1.3924
 1553.0870    11.8854    82.8736    -1.2059     1.1626     1.5059    36.3545     2.2103     0.1157     1.0942
 1553.2390    11.4623    80.9553    -0.4654     1.0930     1.3789    36.3209     2.2437     0.0868     1.0856
 1553.3920    11.3772    80.2505     0.7692     1.0010     1.2116    35.8715     2.2697     0.0954     1.0674
 1553.5440    11.4059    85.2442     1.8151     0.9351     1.1370    35.2866     2.2508     0.1183     1.1586
 1553.6960    11.4642    89.0725     1.9693     0.8873     1.1133    34.8874     2.2222     0.1041     1.1291
 1553.8490    11.5969    88.6550     1.9695     0.8746     1.1093    34.2299     2.2328     0.0722     1.0977
