~Version Information
VERS  .          2.0                              :CWLS Log Ascii Standard - Version 2.0
WRAP  .          NO                               :One line per depth step
~Well Information Block
#MNEM.UNIT       Data Type                        Information
#---------       ---------                        -------------------------------
STRT  .M         1250.29000                       :START DEPTH
STOP  .M         2514.44800                       :STOP DEPTH
STEP  .M          0.15240                         :INCREMENT
NULL  .          -999.25                          :NULL DATA VALUE
COMP  .          PERTAMINA                        :COMPANY
WELL  .          CMS-008A                         :WELL
WBN   .          CMS-008A                         :WELLBORE
FLD   .          CEMARA SELATAN                   :FIELD
LOC   .                                           :LOCATION
PROV  .          INDONESIA                        :PROVINCE
STAT  .          INDONESIA                        :STATE
CNTY  .                                           :COUNTY
CTRY  .                                           :COUNTRY
DATE  .                                           :DATE
UWI   .          CEMARASELATAN-CMS-008A           :UNIQUE WELL UWI
LIC   .                                           :LICENSE NUMBER
API   .                                           :API NUMBER
SRVC  .                                           :SERVICE COMPANY
~Parameter Information Block
#MNEM.UNIT       Value                            Description
#---------       ---------                        -------------
LONG  .DEG       108.170925                       :Well Surface Location
LATI  .DEG       -6.422847                        :Well Surface Location
XWELL .M         187032.710000                    :X-coordinate of Well Head
YWELL .M         9289187.741000                   :Y-coordinate of Well Head
~Curve Information Block
#MNEM.UNIT       API Code            Curve    Description
#--------        --------------      -----    -------------------
DEPT  .M                             :0       Index
KGAS  .MD                            :1       Permeability to Gas           
KINT  .MD                            :2       Intrinsic Permeability        
KOIL  .MD                            :3       Permeability to Oil           
KWTR  .MD                            :4       Permeability to Water         
PHIT  .V/V                           :5       Total Porosity_ includes all forms of porosity, including that occupied by bound fluids, and is independent of rock and fluid materials and of environmental effects
PHTT  .V/V                           :6       Theoretical PHIT Value        
PIGE  .V/V                           :7       Effective Porosity Less Irreducible Water
PIGN  .V/V                           :8       Effective Porosity, VISO, VPAR, and Bound Water Removed
RHGA  .G/C3                          :9       Apparent Grain Density        
SUWI  .V/V                           :10      Non-Clay Water Intergranular Water Saturation for Undisturbed Zone
VCLC  .V/V                           :11      Volume of Calcite Relative to Total Volume
VCOA  .V/V                           :12      Volume of Coal Relative to Total Volume
VDOL  .V/V                           :13      Volume of Dolomite Relative to Total Volume
VFEL  .V/V                           :14      Volume of Feldspar Relative to Total Volume
VILL  .V/V                           :15      Volume of Illite (dry) Relative to Total Volume
VMHY  .V/V                           :16      Volume of Moved Hydrocarbon Relative to Total Volume
VORT  .V/V                           :17      Volume of Orthoclase Relative to Total Volume
VQUA  .V/V                           :18      Volume of Quartz Relative to Total Volume
VUGA  .V/V                           :19      Volume of Gas in Undisturbed Zone
VUOI  .V/V                           :20      Volume of Oil in Undisturbed Zone
VUWA  .V/V                           :21      Volume of Water in Undisturbed Zone
VXBW  .V/V                           :22      Volume of Bound Water in Flushed Zone
VXGA  .V/V                           :23      Volume of Gas in Flushed Zone 
VXOI  .V/V                           :24      Volume of Oil in Flushed Zone 
VXWA  .V/V                           :25      Volume of Water in Flushed Zone
~Ascii Data Section
# ...
   1669.39000       0.00100       0.01000       0.00100       0.01000       0.25303       0.28794       0.16153       0.16153       2.77388       1.00000       0.00000       0.00000       0.00000       0.00000       0.49293       0.00000       0.00000       0.25404       0.00000       0.00000       0.16153       0.09150       0.00000       0.00000       0.16153 
   1669.54240       0.00100       0.01000       0.00100       0.01000       0.25762       0.29230       0.16673       0.16673       2.77382       1.00000       0.00000       0.00000       0.00000       0.00000       0.48964       0.00000       0.00000       0.25274       0.00000       0.00000       0.16673       0.09089       0.00000       0.00000       0.16673 
   1669.69480       0.00100       0.01078       0.00100       0.01078       0.25928       0.29357       0.16941       0.16941       2.77270       1.00000       0.00000       0.00000       0.00000       0.00000       0.48414       0.00000       0.00000       0.25658       0.00000       0.00000       0.16941       0.08987       0.00000       0.00000       0.16941 
   1669.84720       0.00100       0.01013       0.00100       0.01013       0.25797       0.29333       0.16528       0.16528       2.77631       1.00000       0.00000       0.00000       0.00000       0.00000       0.49929       0.00000       0.00000       0.24274       0.00000       0.00000       0.16528       0.09268       0.00000       0.00000       0.16528 
   1669.99960       0.00100       0.01000       0.00100       0.01000       0.26139       0.29778       0.16602       0.16602       2.78059       1.00000       0.00000       0.00000       0.00000       0.00000       0.51378       0.00000       0.00000       0.22483       0.00000       0.00000       0.16602       0.09537       0.00000       0.00000       0.16602 
   1670.15200       0.00100       0.01000       0.00100       0.01000       0.26630       0.30168       0.17357       0.17357       2.77782       1.00000       0.00000       0.00000       0.00000       0.00000       0.49956       0.00000       0.00000       0.23414       0.00000       0.00000       0.17357       0.09273       0.00000       0.00000       0.17357 
   1670.30440       0.00100       0.01000       0.00100       0.01000       0.27227       0.30811       0.17833       0.17833       2.78055       1.00000       0.00000       0.00000       0.00000       0.00000       0.50606       0.00000       0.00000       0.22168       0.00000       0.00000       0.17833       0.09394       0.00000       0.00000       0.17833 
   1670.45680       0.00100       0.01000       0.00100       0.01000       0.27083       0.30593       0.17882       0.17882       2.77761       1.00000       0.00000       0.00000       0.00000       0.00000       0.49564       0.00000       0.00000       0.23353       0.00000       0.00000       0.17882       0.09201       0.00000       0.00000       0.17882 
   1670.60920       0.00100       0.01299       0.00100       0.01299       0.26702       0.30097       0.17803       0.17803       2.77279       1.00000       0.00000       0.00000       0.00000       0.00000       0.47942       0.00000       0.00000       0.25356       0.00000       0.00000       0.17803       0.08899       0.00000       0.00000       0.17803 
   1670.76160       0.00100       0.01450       0.00100       0.01450       0.25834       0.29167       0.17097       0.17097       2.76914       1.00000       0.00000       0.00000       0.00000       0.00000       0.47068       0.00000       0.00000       0.27098       0.00000       0.00000       0.17097       0.08737       0.00000       0.00000       0.17097 
   1670.91400       0.00100       0.01316       0.00100       0.01316       0.24412       0.27727       0.15723       0.15723       2.76625       1.00000       0.00000       0.00000       0.00000       0.00000       0.46806       0.00000       0.00000       0.28782       0.00000       0.00000       0.15723       0.08689       0.00000       0.00000       0.15723 
   1671.06640       0.00100       0.01041       0.00100       0.01041       0.21945       0.25285       0.13189       0.13189       2.77363       1.00000       0.13315       0.00000       0.00000       0.00000       0.47165       0.00000       0.00000       0.17575       0.00000       0.00000       0.13189       0.08755       0.00000       0.00000       0.13189 
   1671.21880       0.00100       0.01000       0.00100       0.01000       0.19998       0.22907       0.12374       0.12374       2.76829       1.00000       0.29195       0.00000       0.00000       0.00000       0.41069       0.00000       0.00000       0.09738       0.00000       0.00000       0.12374       0.07624       0.00000       0.00000       0.12374 
   1671.37120       0.00100       0.01001       0.00100       0.01001       0.18340       0.20869       0.11710       0.11710       2.75353       1.00000       0.29110       0.00000       0.00000       0.00000       0.35714       0.00000       0.00000       0.16836       0.00000       0.00000       0.11710       0.06630       0.00000       0.00000       0.11710 
   1671.52360       0.00100       0.02465       0.00100       0.02465       0.16574       0.18824       0.10675       0.10675       2.73718       1.00000       0.21736       0.00000       0.00000       0.00000       0.31776       0.00000       0.00000       0.29914       0.00000       0.00000       0.10675       0.05899       0.00000       0.00000       0.10675 
   1671.67600       0.00100       0.07835       0.00100       0.07835       0.15659       0.17763       0.10145       0.10145       2.72197       1.00000       0.08199       0.00000       0.00000       0.00000       0.29705       0.00000       0.00000       0.46437       0.00000       0.00000       0.10145       0.05514       0.00000       0.00000       0.10145 
   1671.82840       0.00100       0.09229       0.00100       0.09229       0.15988       0.18179       0.10198       0.10198       2.72032       1.00000       0.00868       0.00000       0.00000       0.00000       0.31193      -0.00121       0.00000       0.51951       0.00000       0.00000       0.10198       0.05790       0.00121       0.00000       0.10077 
   1671.98080       0.00100       0.05674       0.00100       0.05674       0.19296       0.21904       0.12428       0.12428       2.73616       1.00000       0.00000       0.00000       0.00000       0.00000       0.36994      -0.00077       0.00000       0.43710       0.00000       0.00000       0.12428       0.06867       0.00077       0.00000       0.12351 
   1672.13320       0.00100       0.01626       0.00100       0.01626       0.22019       0.25227       0.13608       0.13608       2.75917       1.00000       0.00000       0.00000       0.00000       0.00000       0.45311      -0.00009       0.00000       0.32670       0.00000       0.00000       0.13608       0.08411       0.00009       0.00000       0.13599 
   1672.28560       0.00100       0.01009       0.00100       0.01009       0.23237       0.26765       0.13990       0.13990       2.77183       1.00000       0.00000       0.00000       0.00000       0.00000       0.49812       0.00000       0.00000       0.26951       0.00000       0.00000       0.13990       0.09247       0.00000       0.00000       0.13990 
   1672.43800       0.00100       0.01000       0.00100       0.01000       0.24499       0.27986       0.15359       0.15359       2.77242       1.00000       0.00000       0.00000       0.00000       0.00000       0.49236       0.00000       0.00000       0.26265       0.00000       0.00000       0.15359       0.09140       0.00000       0.00000       0.15359 
   1672.59040       0.00100       0.01000       0.00100       0.01000       0.24490       0.28063       0.15124       0.15124       2.77543       1.00000       0.00000       0.00000       0.00000       0.00000       0.50455       0.00000       0.00000       0.25056       0.00000       0.00000       0.15124       0.09366       0.00000       0.00000       0.15124 
