~VERSION INFORMATION
 VERS.               1.20:   CWLS LOG ASCII STANDARD - VERSION 1.20
 WRAP.                 NO:   ONE LINE PER DEPTH STEP
~WELL INFORMATION
#MNEM.UNIT      DATA TYPE    INFORMATION
#----------   ------------   ------------------------------
 STRT.M          500.1524:   START DEPTH
 STOP.M         2803.2212:   STOP DEPTH
 STEP.M            0.1524:   STEP LENGTH
 NULL.          -999.2500:   NO VALUE
 COMP.            COMPANY:   PERTAMINA
 WELL.               WELL:   CMS-005
 WBN .            CMS-005:   WELLBORE
 FLD .              FIELD:   CEMARA SELATAN
 LOC .           LOCATION:   X = - 15283.31  Y = + 8483.38
 PROV.           PROVINCE:   JAWA BARAT
 STAT.              STATE:   INDONESIA
 SRVC.    SERVICE COMPANY:   SCHLUMBERGER
 DATE.            LOGDATE:   01/24/78
 APIN.         API NUMBER:   -
 UWI .  CEMARASELATAN-005:   UNIQUE WELL ID 
~CURVE INFORMATION
#MNEM.UNIT       API CODE    CURVE DESCRIPTION
#----------   ------------   ------------------------------
 DEPT.M                  :
 CALI.inch   60 280 00 00:   Caliper
 GR  .GAPI   42 310 00 00:   Gamma Ray
 SP  .mV     60 010 01 00:   Spontaneous Potential
 ILD .ohmm   05 070 46 00:   Induction Laterolog, Deep
 SN  .ohmm   05 040 16 00:   Short Normal 16"
 PROX.ohmm   21 270 30 00:   Proximity Log
 NPHI.%      42 890 03 00:   Neu. Porosity, Ss [%]
 RHOB.kg/cm3 42 350 01 00:   Bulk Density
 CBL .mV     81 524 00 00:   Cement Bond Log
 DRHO.kg/m3  42 356 01 00:   Density Correction
~PARAMETER INFORMATION
#MNEM.UNIT          VALUE    DESCRIPTION
#----------   ------------   ------------------------------
 EKB .M            0.0000:   Kelly bushing
 EGL .M            4.7500:   Ground level
 EDF .M           10.0000:   Drilling floor
 EPD .M           10.0000:   Permanent datum
 TD  .M         2793.0000:   Total depth
 DF  .      CONGLONGMERAT:   Deepest formation
 PROJ.       SCHLUMBERGER:   Project
 DATE.           01/24/78:   Date logged
 DD  .Mtr            2793:   Depth driller
 DL  .Mtr          2762.3:   Depth logger
 BLI .Mtr            2762:   Bottom log interval
 TLI .Mtr             500:   Top log interval
 CSS .Inch             7":   Casing size
 CTD1.Mtr     7" @ 2581,7:   Casing driller 1
 CTL1.Mtr          2581,7:   Casing logger 1
 BS  .Inch          6 1/8:   Bit size
 DFT .           Spersene:   Type fluid in hole
 DFD .G/c3           1.18:   Density
 DFV .Sec              58:   Viscosity
 COL .Inch           6-16:   Column depth/dia.
 DFPH.                 10:   pH
 DFL .Ml             2.75:   Fluid loss
 WSS .           Flowline:   Source of sample
 RM  .Ohmm           1.07:   Rm
 EMT .Degf 1.07 ohmm @ 83:   Rm Meas. temp.
 RMF .Ohmm           0.57:   Rmf
 MFT .Degf 0.57 ohmm @ 83:   Rmf Meas. temp.
 RMC .Ohmm           1.78:   Rmc
 MCST.Degf 1.78 ohmm @ 83:   Rmc Meas. temp.
 MFSS.              Press:   Source Rmf.
 MCSS.              Press:   Source Rmc.
 RMB .Degf 0.4 ohmm @ 232:   Rm. at BHT
 BHT .Degf            232:   BHT.
 TCS .Hrs               7:   Time Circ. stopped
 MRT .Degf            232:   Maximum recorded temp.
 LUN .               4618:   Logging unit number
 LUL .                WJV:   Logging unit location
 ENGI.           M. Akbar:   Recorded By
 WITN.           M.Dasuki:   Witnessed by
 RE1 .       ILD  (6FF40):   Res. Electrode #1
 RE2 .      SN   (A-16"M):   Res. Electrode #2
 DATE.           02/16/78:   Date logged
 DATE.           03/13/78:   Date logged
 DD  .Mtr            1260:   Depth driller
 DD  .Mtr            2610:   Depth driller
 DL  .Mtr            1260:   Depth logger
 DL  .Mtr            2610:   Depth logger
 BLI .Mtr            1260:   Bottom log interval
 BLI .Mtr          2605.8:   Bottom log interval
 TLI .Mtr             500:   Top log interval
 TLI .Mtr          1254.5:   Top log interval
 CSS .Inch         13 3/8:   Casing size
 CSS .Inch          9 5/8:   Casing size
 CTD1.Mtr             500:   Casing driller 1
 CTD1.Mtr            1254:   Casing driller 1
 CTL1.Mtr             500:   Casing logger 1
 CTL1.Mtr          1254.5:   Casing logger 1
 BS  .Inch         12 1/4:   Bit size
 BS  .Inch          8 5/8:   Bit size
 DFT .           spersene:   Type fluid in hole
 DFT .           spersene:   Type fluid in hole
 DFD .G/c3           1.12:   Density
 DFD .G/c3           1.18:   Density
 DFV .Sec              47:   Viscosity
 DFV .Sec              58:   Viscosity
 DFPH.                  9:   pH
 DFPH.                 10:   pH
 DFL .Ml              5.5:   Fluid loss
 DFL .Ml             2.75:   Fluid loss
 WSS .           flowline:   Source of sample
 WSS .           flowline:   Source of sample
 RM  .Ohmm           1.19:   Rm
 RM  .Ohmm           1.07:   Rm
 EMT .Degf             80:   Rm Meas. temp.
 EMT .Degf             83:   Rm Meas. temp.
 RMF .Ohmm            0.8:   Rmf
 RMF .Ohmm           0.57:   Rmf
 MFT .Degf             80:   Rmf Meas. temp.
 MFT .Degf             83:   Rmf Meas. temp.
 RMC .Ohmm           1.52:   Rmc
 RMC .Ohmm           1.78:   Rmc
 MCST.Degf             80:   Rmc Meas. temp.
 MCST.Degf             83:   Rmc Meas. temp.
 MFSS.                  p:   Source Rmf.
 MFSS.                  p:   Source Rmf.
 MCSS.                  p:   Source Rmc.
 MCSS.                  p:   Source Rmc.
 RMB .Degf 0.63 ohmm @ 150:   Rm. at BHT
 RMB .Degf 0.4 ohmm @ 232:   Rm. at BHT
 BHT .Degf            150:   BHT.
 BHT .Degf            232:   BHT.
 TCS .Hrs               3:   Time Circ. stopped
 TCS .Hrs               7:   Time Circ. stopped
 MRT .Degf            150:   Maximum recorded temp.
 MRT .Degf            232:   Maximum recorded temp.
 LUN .               4618:   Logging unit number
 LUN .               4618:   Logging unit number
 LUL .                wjv:   Logging unit location
 LUL .                wjv:   Logging unit location
 ENGI.           M. Akbar:   Recorded By
 ENGI.           M. Akbar:   Recorded By
 WITN.            Y. Rais:   Witnessed by
 WITN.          M. Dasuki:   Witnessed by
 RE1 .                ILD:   Res. Electrode #1
 RE1 .                ILD:   Res. Electrode #1
 RE2 .                 SN:   Res. Electrode #2
 RE2 .                 SN:   Res. Electrode #2
 TLAB.hh:mm             3:   Time Logger At Bottom
 TLAB.hh:mm             7:   Time Logger At Bottom
 TLAB.hh:mm             7:   Time Logger At Bottom
 DGBY.            Sukarna:   Digitized By
 DGBY.            Sukarna:   Digitized By
 DGBY.            Sukarna:   Digitized By
~T 1 Tops
D1(1453-1455)                    1453.0
~OTHER INFORMATION
# Bridleless tool, Log was correlated with cs. run no.3 4M too deep compared with run.2
~A  DEPTH     CALI         GR         SP        ILD         SN       PROX       NPHI       RHOB        CBL       DRHO
# ...
  663.5250    13.7877  -999.2500   -48.1490     0.8757     1.0062     1.7259  -999.2500  -999.2500  -999.2500  -999.2500
  663.6780    13.8035  -999.2500   -49.2235     0.8696     0.9921     1.6307  -999.2500  -999.2500  -999.2500  -999.2500
  663.8300    13.8347  -999.2500   -49.9900     0.8574     0.9781     1.6662  -999.2500  -999.2500  -999.2500  -999.2500
  663.9820    13.8506  -999.2500   -50.6020     0.8515     0.9505     1.4251  -999.2500  -999.2500  -999.2500  -999.2500
  664.1350    13.8665  -999.2500   -49.8230     0.8336     0.8855     1.3757  -999.2500  -999.2500  -999.2500  -999.2500
  664.2870    13.8823  -999.2500   -48.1138     0.8160     0.8485     1.2279  -999.2500  -999.2500  -999.2500  -999.2500
  664.4400    13.8982  -999.2500   -46.1010     0.8046     0.8131     1.2458  -999.2500  -999.2500  -999.2500  -999.2500
  664.5920    13.8831  -999.2500   -44.7034     0.7933     0.8017     1.2639  -999.2500  -999.2500  -999.2500  -999.2500
  664.7440    13.8837  -999.2500   -42.5301     0.7878     0.7848     1.1690  -999.2500  -999.2500  -999.2500  -999.2500
  664.8970    13.8842  -999.2500   -41.1364     0.7993     0.7738     1.3009  -999.2500  -999.2500  -999.2500  -999.2500
  665.0490    13.8846  -999.2500   -40.5119     0.8109     0.7739     1.5002  -999.2500  -999.2500  -999.2500  -999.2500
  665.2020    13.9005  -999.2500   -40.5056     0.8286     0.7795     1.6340  -999.2500  -999.2500  -999.2500  -999.2500
  665.3540    13.9009  -999.2500   -40.3460     0.8466     0.7908     1.6814  -999.2500  -999.2500  -999.2500  -999.2500
  665.5060    13.9169  -999.2500   -41.1185     0.8651     0.8256     1.5007  -999.2500  -999.2500  -999.2500  -999.2500
  665.6590    13.9635  -999.2500   -43.2701     0.8777     0.8741     1.4590  -999.2500  -999.2500  -999.2500  -999.2500
  665.8110    13.9794  -999.2500   -44.5004     0.8592     0.9059     1.3883  -999.2500  -999.2500  -999.2500  -999.2500
  665.9640    13.9952  -999.2500   -44.1850     0.8412     0.9322     1.3498  -999.2500  -999.2500  -999.2500  -999.2500
  666.1160    14.0265  -999.2500   -43.5605     0.8293     0.9061     1.2754  -999.2500  -999.2500  -999.2500  -999.2500
  666.2680    14.0424  -999.2500   -42.3158     0.8119     0.8621     1.2305  -999.2500  -999.2500  -999.2500  -999.2500
  666.4210    14.0736  -999.2500   -41.5387     0.7949     0.8145     1.0529  -999.2500  -999.2500  -999.2500  -999.2500
  666.5730    14.1048  -999.2500   -40.6035     0.7893     0.7860     1.0382  -999.2500  -999.2500  -999.2500  -999.2500
  666.7260    14.1361  -999.2500   -39.3624     0.7783     0.7640     1.0609  -999.2500  -999.2500  -999.2500  -999.2500
  666.8780    14.1520  -999.2500   -38.2741     0.7619     0.7427     1.0840  -999.2500  -999.2500  -999.2500  -999.2500
  667.0300    14.1679  -999.2500   -37.1852     0.7301     0.7219     1.0388  -999.2500  -999.2500  -999.2500  -999.2500
  667.1830    14.1683  -999.2500   -36.8706     0.7097     0.7067     1.0099  -999.2500  -999.2500  -999.2500  -999.2500
  667.3350    14.1688  -999.2500   -36.8642     0.6997     0.6968     0.9610  -999.2500  -999.2500  -999.2500  -999.2500
  667.4880    14.1846  -999.2500   -36.7048     0.6949     0.6870     1.0103  -999.2500  -999.2500  -999.2500  -999.2500
  667.6400    14.1851  -999.2500   -36.5440     0.7000     0.6871     0.9082  -999.2500  -999.2500  -999.2500  -999.2500
  667.7920    14.2164  -999.2500   -36.2282     0.7051     0.6872     0.9824  -999.2500  -999.2500  -999.2500  -999.2500
  667.9450    14.2322  -999.2500   -36.0678     0.7103     0.6824     0.9825  -999.2500  -999.2500  -999.2500  -999.2500
  668.0970    14.2327  -999.2500   -36.0613     0.7206     0.6825     0.9551  -999.2500  -999.2500  -999.2500  -999.2500
  668.2500    14.2332  -999.2500   -35.9007     0.7363     0.6924     1.0185  -999.2500  -999.2500  -999.2500  -999.2500
  668.4020    14.2336  -999.2500   -35.8945     0.7523     0.7074     1.2432  -999.2500  -999.2500  -999.2500  -999.2500
  668.5540    14.2341  -999.2500   -35.7333     0.7743     0.7386     1.5174  -999.2500  -999.2500  -999.2500  -999.2500
  668.7070    14.2345  -999.2500   -35.5728     0.8025     0.7931     1.4543  -999.2500  -999.2500  -999.2500  -999.2500
  668.8590    14.2349  -999.2500   -36.4958     0.8318     0.8518     1.2705  -999.2500  -999.2500  -999.2500  -999.2500
  669.0120    14.2354  -999.2500   -38.0333     0.8438     0.8829     1.1103  -999.2500  -999.2500  -999.2500  -999.2500
  669.1640    14.2358  -999.2500   -39.1102     0.8622     0.8893     1.0794  -999.2500  -999.2500  -999.2500  -999.2500
  669.3160    14.2363  -999.2500   -38.4827     0.8685     0.8582     1.0199  -999.2500  -999.2500  -999.2500  -999.2500
  669.4690    14.2367  -999.2500   -37.8612     0.8625     0.8283     1.0201  -999.2500  -999.2500  -999.2500  -999.2500
  669.6210    14.2372  -999.2500   -37.2358     0.8444     0.8109     1.0130  -999.2500  -999.2500  -999.2500  -999.2500
  669.7740    14.2223  -999.2500   -36.6122     0.8325     0.7938     1.0500  -999.2500  -999.2500  -999.2500  -999.2500
  669.9260    14.2073  -999.2500   -36.6059     0.8093     0.7939     1.0805  -999.2500  -999.2500  -999.2500  -999.2500
  670.0780    14.1767  -999.2500   -36.4439     0.7754     0.7883     0.9922  -999.2500  -999.2500  -999.2500  -999.2500
  670.2310    14.1158  -999.2500   -35.9752     0.7484     0.7663     0.9442  -999.2500  -999.2500  -999.2500  -999.2500
  670.3830    14.0699  -999.2500   -35.6596     0.7327     0.7556     0.9786  -999.2500  -999.2500  -999.2500  -999.2500
  670.5360    14.1167  -999.2500   -35.4990     0.7276     0.7345     0.9581  -999.2500  -999.2500  -999.2500  -999.2500
  670.6880    14.1017  -999.2500   -35.4927     0.7277     0.7038     0.8989  -999.2500  -999.2500  -999.2500  -999.2500
  670.8400    13.9789  -999.2500   -35.3315     0.7330     0.6890     0.9662  -999.2500  -999.2500  -999.2500  -999.2500
  670.9930    13.9794  -999.2500   -35.1711     0.7332     0.6842     1.3488  -999.2500  -999.2500  -999.2500  -999.2500
  671.1450    13.9953  -999.2500   -35.1649     0.7438     0.6992     1.5665  -999.2500  -999.2500  -999.2500  -999.2500
  671.2980    14.0110  -999.2500   -35.7768     0.7492     0.7508     1.6466  -999.2500  -999.2500  -999.2500  -999.2500
  671.4500    14.0423  -999.2500   -37.7799     0.7547     0.8180     1.3689  -999.2500  -999.2500  -999.2500  -999.2500
  671.6020    14.1200  -999.2500   -40.1002     0.7712     0.8785     1.3402  -999.2500  -999.2500  -999.2500  -999.2500
  671.7550    14.1973  -999.2500   -42.7145     0.7768     0.8849     1.3890  -999.2500  -999.2500  -999.2500  -999.2500
  671.9070    14.2748  -999.2500   -42.0876     0.7769     0.8724     1.1141  -999.2500  -999.2500  -999.2500  -999.2500
  672.0600    14.3061  -999.2500   -40.3836     0.7715     0.8302     0.9134  -999.2500  -999.2500  -999.2500  -999.2500
  672.2120    14.3066  -999.2500   -38.3678     0.7553     0.7622     0.9136  -999.2500  -999.2500  -999.2500  -999.2500
  672.3640    14.3070  -999.2500   -36.5040     0.7341     0.7047     0.8881  -999.2500  -999.2500  -999.2500  -999.2500
  672.5170    14.3075  -999.2500   -35.2643     0.7137     0.6611     0.8820  -999.2500  -999.2500  -999.2500  -999.2500
  672.6690    14.3079  -999.2500   -34.6399     0.6888     0.6335     0.8884  -999.2500  -999.2500  -999.2500  -999.2500
  672.8220    14.3084  -999.2500   -34.6336     0.6695     0.6291     0.8698  -999.2500  -999.2500  -999.2500  -999.2500
  672.9740    14.3088  -999.2500   -34.6273     0.6648     0.6337     0.8824  -999.2500  -999.2500  -999.2500  -999.2500
  673.1260    14.3093  -999.2500   -34.6211     0.6649     0.6428     0.8338  -999.2500  -999.2500  -999.2500  -999.2500
  673.2790    14.3098  -999.2500   -34.6148     0.6698     0.6383     0.9345  -999.2500  -999.2500  -999.2500  -999.2500
  673.4310    14.3102  -999.2500   -34.6086     0.6747     0.6476     0.9618  -999.2500  -999.2500  -999.2500  -999.2500
  673.5840    14.3261  -999.2500   -34.7581     0.6894     0.6570     1.0182  -999.2500  -999.2500  -999.2500  -999.2500
