~Version Information
VERS  .          2.0                              :CWLS Log Ascii Standard - Version 2.0
WRAP  .          NO                               :One line per depth step
~Well Information Block
#MNEM.UNIT       Data Type                        Information
#---------       ---------                        -------------------------------
STRT  .M         501.09100                        :START DEPTH
STOP  .M         2801.87400                       :STOP DEPTH
STEP  .M          0.15240                         :INCREMENT
NULL  .          -999.25                          :NULL DATA VALUE
COMP  .          PERTAMINA                        :COMPANY
WELL  .          CMS-005                          :WELL
WBN   .          CMS-005                          :WELLBORE
FLD   .          CEMARA SELATAN                   :FIELD
LOC   .                                           :LOCATION
PROV  .          INDONESIA                        :PROVINCE
STAT  .          INDONESIA                        :STATE
CNTY  .                                           :COUNTY
CTRY  .                                           :COUNTRY
DATE  .                                           :DATE
UWI   .          CEMARASELATAN-005                :UNIQUE WELL UWI
LIC   .                                           :LICENSE NUMBER
API   .                                           :API NUMBER
SRVC  .                                           :SERVICE COMPANY
~Parameter Information Block
#MNEM.UNIT       Value                            Description
#---------       ---------                        -------------
LONG  .DEG       108.170923                       :Well Surface Location
LATI  .DEG       -6.423032                        :Well Surface Location
XWELL .M         187032.670000                    :X-coordinate of Well Head
YWELL .M         9289167.261000                   :Y-coordinate of Well Head
~Curve Information Block
#MNEM.UNIT       API Code            Curve    Description
#--------        --------------      -----    -------------------
DEPT  .M                             :0       Index
KGAS  .MD                            :1       Permeability to Gas           
KINT  .MD                            :2       Intrinsic Permeability        
KOIL  .MD                            :3       Permeability to Oil           
KWTR  .MD                            :4       Permeability to Water         
PHIT  .V/V                           :5       Total Porosity_ includes all forms of porosity, including that occupied by bound fluids, and is independent of rock and fluid materials and of environmental effects
PHTT  .V/V                           :6       Theoretical PHIT Value        
PIGE  .V/V                           :7       Effective Porosity Less Irreducible Water
PIGN  .V/V                           :8       Effective Porosity, VISO, VPAR, and Bound Water Removed
SUWI  .V/V                           :9       Non-Clay Water Intergranular Water Saturation for Undisturbed Zone
VILL  .V/V                           :10      Volume of Illite (dry) Relative to Total Volume
~Ascii Data Section
# ...
   2173.22380       0.00100       0.19206       0.00100       0.19206       0.18133       0.20255       0.12482       0.12482       1.00000       0.30323 
   2173.37620       0.00100       0.14216       0.00100       0.14216       0.17497       0.19672       0.11728       0.11728       1.00000       0.30958 
   2173.52860       0.00100       0.16326       0.00100       0.16326       0.17805       0.19961       0.12087       0.12087       1.00000       0.30687 
   2173.68100       0.00100       0.28014       0.00100       0.28014       0.18336       0.20355       0.12948       0.12948       1.00000       0.28913 
   2173.83340       0.00100       0.23134       0.00100       0.23134       0.17920       0.19959       0.12455       0.12455       1.00000       0.29324 
   2173.98580       0.00100       0.06042       0.00100       0.06042       0.16600       0.18949       0.10344       0.10344       1.00000       0.33566 
   2174.13820       0.00100       0.02882       0.00100       0.02882       0.16018       0.18536       0.09323       0.09323       1.00000       0.35925 
   2174.29060       0.00100       0.08768       0.00100       0.08768       0.17195       0.19466       0.11106       0.11106       1.00000       0.32673 
   2174.44300       0.00100       0.11203       0.00100       0.11203       0.17333       0.19530       0.11409       0.11409       1.00000       0.31790 
   2174.59540       0.00100       0.12829       0.00100       0.12829       0.17505       0.19661       0.11654       0.11654       1.00000       0.31400 
   2174.74780       0.00100       0.09775       0.00100       0.09775       0.17281       0.19513       0.11260       0.11260       1.00000       0.32308 
   2174.90020       0.00100       0.07273       0.00100       0.07273       0.16624       0.18919       0.10508       0.10508       1.00000       0.32821 
   2175.05260       0.00100       0.02635       0.00100       0.02635       0.15522       0.18027       0.08878       0.08878       1.00000       0.35653 
   2175.20500       0.00100       0.03426       0.00100       0.03426       0.15861       0.18321       0.09335       0.09335       1.00000       0.35019 
   2175.35740       0.00100       0.03863       0.00100       0.03863       0.16299       0.18763       0.09764       0.09764       1.00000       0.35066 
   2175.50980       0.00100       0.08905       0.00100       0.08905       0.17410       0.19697       0.11291       0.11291       1.00000       0.32838 
   2175.66220       0.00100       0.14516       0.00100       0.14516       0.18159       0.20329       0.12282       0.12282       1.00000       0.31535 
   2175.81460       0.00100       0.13233       0.00100       0.13233       0.18208       0.20395       0.12249       0.12249       1.00000       0.31976 
   2175.96700       0.00100       0.05570       0.00100       0.05570       0.17459       0.19858       0.10963       0.10963       1.00000       0.34861 
   2176.11940       0.00100       0.04661       0.00100       0.37291       0.17178       0.19632       0.10599       0.10599       1.00000       0.35300 
   2176.27180       0.00100       0.06053       0.00100       0.06053       0.17914       0.20339       0.11394       0.11394       1.00000       0.34987 
   2176.42420       0.00100       0.06310       0.00100       0.06310       0.18504       0.20951       0.11907       0.11907       1.00000       0.35399 
   2176.57660       0.00100       0.04277       0.00100       0.04277       0.18412       0.20984       0.11526       0.11526       1.00000       0.36951 
   2176.72900       0.00100       0.07606       0.00100       0.07606       0.19310       0.21733       0.12721       0.12721       1.00000       0.35357 
   2176.88140       0.00100       0.06446       0.00100       0.06446       0.18894       0.21356       0.12245       0.12245       1.00000       0.35679 
   2177.03380       0.00100       0.04324       0.00100       0.04324       0.18076       0.20623       0.11262       0.11262       1.00000       0.36568 
   2177.18620       0.00100       0.03162       0.00100       0.25298       0.17156       0.19730       0.10281       0.10281       1.00000       0.36892 
   2177.33860       0.00100       0.04347       0.00100       0.04347       0.17272       0.19757       0.10620       0.10620       1.00000       0.35695 
   2177.49100       0.00100       0.05663       0.00100       0.05663       0.18009       0.20453       0.11419       0.11419       1.00000       0.35364 
   2177.64340       0.00100       0.04568       0.00100       0.36542       0.18261       0.20812       0.11454       0.11454       1.00000       0.36524 
   2177.79580       0.00100       0.06194       0.00100       0.06194       0.19553       0.22099       0.12761       0.12761       1.00000       0.36445 
   2177.94820       0.00100       0.05101       0.00100       0.05101       0.19444       0.22043       0.12516       0.12516       1.00000       0.37174 
   2178.10060       0.00100       0.03167       0.00100       0.03167       0.18667       0.21367       0.11498       0.11498       1.00000       0.38469 
   2178.25300       0.00100       0.03630       0.00100       0.03630       0.18205       0.20832       0.11229       0.11229       1.00000       0.37435 
   2178.40540       0.00100       0.09956       0.00100       0.09956       0.18909       0.21240       0.12601       0.12601       1.00000       0.33848 
   2178.55780       0.00100       0.07688       0.00100       0.07688       0.18583       0.20965       0.12128       0.12128       1.00000       0.34639 
   2178.71020       0.00100       0.04945       0.00100       0.04945       0.18032       0.20548       0.11331       0.11331       1.00000       0.35959 
   2178.86260       0.00100       0.06011       0.00100       0.06011       0.18059       0.20503       0.11506       0.11506       1.00000       0.35164 
   2179.01500       0.00100       0.08783       0.00100       0.08783       0.18872       0.21264       0.12472       0.12472       1.00000       0.34346 
   2179.16740       0.00100       0.13667       0.00100       0.13667       0.19237       0.21512       0.13125       0.13125       1.00000       0.32797 
   2179.31980       0.00100       0.09716       0.00100       0.09716       0.18565       0.20898       0.12298       0.12298       1.00000       0.33630 
   2179.47220       0.00100       0.14387       0.00100       0.14387       0.19143       0.21375       0.13087       0.13087       1.00000       0.32495 
   2179.62460       0.00100       0.10808       0.00100       0.10808       0.18615       0.20893       0.12423       0.12423       1.00000       0.33225 
   2179.77700       0.00100       0.08775       0.00100       0.08775       0.18194       0.20510       0.11914       0.11914       1.00000       0.33701 
   2179.92940       0.00100       0.09964       0.00100       0.09964       0.19155       0.21500       0.12806       0.12806       1.00000       0.34069 
   2180.08180       0.00100       0.11036       0.00100       0.11036       0.19704       0.22063       0.13346       0.13346       1.00000       0.34117 
   2180.23420       0.00100       0.08243       0.00100       0.08243       0.19396       0.21825       0.12857       0.12857       1.00000       0.35091 
   2180.38660       0.00100       0.07327       0.00100       0.07327       0.18743       0.21173       0.12222       0.12222       1.00000       0.34995 
   2180.53900       0.00100       0.06571       0.00100       0.06571       0.18296       0.20721       0.11769       0.11769       1.00000       0.35024 
   2180.69140       0.00100       0.04616       0.00100       0.04616       0.17748       0.20268       0.11047       0.11047       1.00000       0.35954 
   2180.84380       0.00100       0.10134       0.00100       0.10134       0.18273       0.20592       0.12091       0.12091       1.00000       0.33169 
   2180.99620       0.00100       0.06227       0.00100       0.06227       0.17742       0.20179       0.11277       0.11277       1.00000       0.34690 
