~VERSION INFORMATION
 VERS.               1.20:   CWLS LOG ASCII STANDARD - VERSION 1.20
 WRAP.                 NO:   ONE LINE PER DEPTH STEP
~WELL INFORMATION
#MNEM.UNIT      DATA TYPE    INFORMATION
#----------   ------------   ------------------------------
 STRT.M          500.1524:   START DEPTH
 STOP.M         2803.2212:   STOP DEPTH
 STEP.M            0.1524:   STEP LENGTH
 NULL.          -999.2500:   NO VALUE
 COMP.            COMPANY:   PERTAMINA
 WELL.               WELL:   CMS-005
 WBN .            CMS-005:   WELLBORE
 FLD .              FIELD:   CEMARA SELATAN
 LOC .           LOCATION:   X = - 15283.31  Y = + 8483.38
 PROV.           PROVINCE:   JAWA BARAT
 STAT.              STATE:   INDONESIA
 SRVC.    SERVICE COMPANY:   SCHLUMBERGER
 DATE.            LOGDATE:   01/24/78
 APIN.         API NUMBER:   -
 UWI .  CEMARASELATAN-005:   UNIQUE WELL ID 
~CURVE INFORMATION
#MNEM.UNIT       API CODE    CURVE DESCRIPTION
#----------   ------------   ------------------------------
 DEPT.M                  :
 CALI.inch   60 280 00 00:   Caliper
 GR  .GAPI   42 310 00 00:   Gamma Ray
 SP  .mV     60 010 01 00:   Spontaneous Potential
 ILD .ohmm   05 070 46 00:   Induction Laterolog, Deep
 SN  .ohmm   05 040 16 00:   Short Normal 16"
 PROX.ohmm   21 270 30 00:   Proximity Log
 NPHI.%      42 890 03 00:   Neu. Porosity, Ss [%]
 RHOB.kg/cm3 42 350 01 00:   Bulk Density
 CBL .mV     81 524 00 00:   Cement Bond Log
 DRHO.kg/m3  42 356 01 00:   Density Correction
~PARAMETER INFORMATION
#MNEM.UNIT          VALUE    DESCRIPTION
#----------   ------------   ------------------------------
 EKB .M            0.0000:   Kelly bushing
 EGL .M            4.7500:   Ground level
 EDF .M           10.0000:   Drilling floor
 EPD .M           10.0000:   Permanent datum
 TD  .M         2793.0000:   Total depth
 DF  .      CONGLONGMERAT:   Deepest formation
 PROJ.       SCHLUMBERGER:   Project
 DATE.           01/24/78:   Date logged
 DD  .Mtr            2793:   Depth driller
 DL  .Mtr          2762.3:   Depth logger
 BLI .Mtr            2762:   Bottom log interval
 TLI .Mtr             500:   Top log interval
 CSS .Inch             7":   Casing size
 CTD1.Mtr     7" @ 2581,7:   Casing driller 1
 CTL1.Mtr          2581,7:   Casing logger 1
 BS  .Inch          6 1/8:   Bit size
 DFT .           Spersene:   Type fluid in hole
 DFD .G/c3           1.18:   Density
 DFV .Sec              58:   Viscosity
 COL .Inch           6-16:   Column depth/dia.
 DFPH.                 10:   pH
 DFL .Ml             2.75:   Fluid loss
 WSS .           Flowline:   Source of sample
 RM  .Ohmm           1.07:   Rm
 EMT .Degf 1.07 ohmm @ 83:   Rm Meas. temp.
 RMF .Ohmm           0.57:   Rmf
 MFT .Degf 0.57 ohmm @ 83:   Rmf Meas. temp.
 RMC .Ohmm           1.78:   Rmc
 MCST.Degf 1.78 ohmm @ 83:   Rmc Meas. temp.
 MFSS.              Press:   Source Rmf.
 MCSS.              Press:   Source Rmc.
 RMB .Degf 0.4 ohmm @ 232:   Rm. at BHT
 BHT .Degf            232:   BHT.
 TCS .Hrs               7:   Time Circ. stopped
 MRT .Degf            232:   Maximum recorded temp.
 LUN .               4618:   Logging unit number
 LUL .                WJV:   Logging unit location
 ENGI.           M. Akbar:   Recorded By
 WITN.           M.Dasuki:   Witnessed by
 RE1 .       ILD  (6FF40):   Res. Electrode #1
 RE2 .      SN   (A-16"M):   Res. Electrode #2
 DATE.           02/16/78:   Date logged
 DATE.           03/13/78:   Date logged
 DD  .Mtr            1260:   Depth driller
 DD  .Mtr            2610:   Depth driller
 DL  .Mtr            1260:   Depth logger
 DL  .Mtr            2610:   Depth logger
 BLI .Mtr            1260:   Bottom log interval
 BLI .Mtr          2605.8:   Bottom log interval
 TLI .Mtr             500:   Top log interval
 TLI .Mtr          1254.5:   Top log interval
 CSS .Inch         13 3/8:   Casing size
 CSS .Inch          9 5/8:   Casing size
 CTD1.Mtr             500:   Casing driller 1
 CTD1.Mtr            1254:   Casing driller 1
 CTL1.Mtr             500:   Casing logger 1
 CTL1.Mtr          1254.5:   Casing logger 1
 BS  .Inch         12 1/4:   Bit size
 BS  .Inch          8 5/8:   Bit size
 DFT .           spersene:   Type fluid in hole
 DFT .           spersene:   Type fluid in hole
 DFD .G/c3           1.12:   Density
 DFD .G/c3           1.18:   Density
 DFV .Sec              47:   Viscosity
 DFV .Sec              58:   Viscosity
 DFPH.                  9:   pH
 DFPH.                 10:   pH
 DFL .Ml              5.5:   Fluid loss
 DFL .Ml             2.75:   Fluid loss
 WSS .           flowline:   Source of sample
 WSS .           flowline:   Source of sample
 RM  .Ohmm           1.19:   Rm
 RM  .Ohmm           1.07:   Rm
 EMT .Degf             80:   Rm Meas. temp.
 EMT .Degf             83:   Rm Meas. temp.
 RMF .Ohmm            0.8:   Rmf
 RMF .Ohmm           0.57:   Rmf
 MFT .Degf             80:   Rmf Meas. temp.
 MFT .Degf             83:   Rmf Meas. temp.
 RMC .Ohmm           1.52:   Rmc
 RMC .Ohmm           1.78:   Rmc
 MCST.Degf             80:   Rmc Meas. temp.
 MCST.Degf             83:   Rmc Meas. temp.
 MFSS.                  p:   Source Rmf.
 MFSS.                  p:   Source Rmf.
 MCSS.                  p:   Source Rmc.
 MCSS.                  p:   Source Rmc.
 RMB .Degf 0.63 ohmm @ 150:   Rm. at BHT
 RMB .Degf 0.4 ohmm @ 232:   Rm. at BHT
 BHT .Degf            150:   BHT.
 BHT .Degf            232:   BHT.
 TCS .Hrs               3:   Time Circ. stopped
 TCS .Hrs               7:   Time Circ. stopped
 MRT .Degf            150:   Maximum recorded temp.
 MRT .Degf            232:   Maximum recorded temp.
 LUN .               4618:   Logging unit number
 LUN .               4618:   Logging unit number
 LUL .                wjv:   Logging unit location
 LUL .                wjv:   Logging unit location
 ENGI.           M. Akbar:   Recorded By
 ENGI.           M. Akbar:   Recorded By
 WITN.            Y. Rais:   Witnessed by
 WITN.          M. Dasuki:   Witnessed by
 RE1 .                ILD:   Res. Electrode #1
 RE1 .                ILD:   Res. Electrode #1
 RE2 .                 SN:   Res. Electrode #2
 RE2 .                 SN:   Res. Electrode #2
 TLAB.hh:mm             3:   Time Logger At Bottom
 TLAB.hh:mm             7:   Time Logger At Bottom
 TLAB.hh:mm             7:   Time Logger At Bottom
 DGBY.            Sukarna:   Digitized By
 DGBY.            Sukarna:   Digitized By
 DGBY.            Sukarna:   Digitized By
~T 1 Tops
D1(1453-1455)                    1453.0
~OTHER INFORMATION
# Bridleless tool, Log was correlated with cs. run no.3 4M too deep compared with run.2
~A  DEPTH     CALI         GR         SP        ILD         SN       PROX       NPHI       RHOB        CBL       DRHO
# ...
 2634.2100     7.6810    73.2189    16.5172     7.7214     5.5868     0.4587    30.8057     2.3931  -999.2500    -0.1360
 2634.3620     7.6977    76.0030    16.2138     6.3586     5.4315     0.4588    32.8588     2.4125  -999.2500    -0.1661
 2634.5140     7.7145    76.9498    16.5256     5.6251     5.2802     0.4657    35.0113     2.4610  -999.2500    -0.1900
 2634.6670     7.7311    79.7250    16.5295     5.0517     5.1705     0.4691    36.1510     2.5115  -999.2500    -0.2033
 2634.8190     7.7165    79.3532    16.5333     4.5023     5.0627     0.4555    37.5822     2.5381  -999.2500    -0.1953
 2634.9720     7.7645    78.0677    16.3835     3.9277     4.9221     0.4589    38.3909     2.5251  -999.2500    -0.2007
 2635.1240     7.7812    75.8466    16.6946     3.6031     4.7512     0.4231    37.7663     2.4055  -999.2500    -0.1920
 2635.2760     7.7824    74.2431    17.6201     3.4011     4.5857     0.4358    37.4691     2.2697  -999.2500    -0.1858
 2635.4290     7.7836    75.6455    17.1631     3.1888     4.4266     0.4391    38.8518     2.2044  -999.2500    -0.2215
 2635.5810     7.7847    77.2774    16.8589     3.0323     4.2125     0.4108    39.5646     2.2270  -999.2500    -0.1940
 2635.7340     7.8014    78.9060    17.0171     2.8837     4.0664     0.4232    39.9425     2.3172  -999.2500    -0.1662
 2635.8860     7.7868    76.1515    17.4819     2.7821     4.0387     0.3989    39.6013     2.3607  -999.2500    -0.1397
 2636.0380     7.6478    75.0097    18.2547     2.8024     4.0405     0.3902    40.4094     2.3411  -999.2500    -0.1197
 2636.1910     7.2925    75.9506    18.7183     2.7626     4.0421     0.3990    39.5403     2.2661  -999.2500    -0.1289
 2636.3430     7.0608    76.8886    18.4144     2.7828     3.9863     0.4202    36.2754     2.3453  -999.2500    -0.0912
 2636.4960     7.0462    76.9004    17.9572     2.8032     4.0164     0.4203    33.9259     2.4274  -999.2500    -0.0369
 2636.6480     7.1097    78.3004    18.2682     3.0784     4.0758     0.4203    33.1549     2.4548  -999.2500    -0.0672
 2636.8000     7.1265    79.7000    18.1178     3.3577     4.1071     0.4235    34.0097     2.4240  -999.2500    -0.1228
 2636.9530     7.1587    79.9445    17.8143     4.0470     4.2882     0.4266    33.7643     2.4393  -999.2500    -0.1804
 2637.1050     7.1754    79.9599    18.4337     5.2455     4.5426     0.3992    34.1426     2.4424  -999.2500    -0.2234
 2637.2580     7.1839    79.9748    18.7444     6.1884     4.8458     0.3904    32.0286     2.4536  -999.2500    -0.2508
 2637.4100     7.1930    79.2936    19.0555     6.7960     5.2067     0.3992    31.5928     2.4277  -999.2500    -0.2389
 2637.5630     7.2253    78.1583    19.0593     6.9949     5.7564     0.4097    33.7405     2.3526  -999.2500    -0.2254
 2637.7150     7.2419    75.4040    18.6015     6.7483     6.2295     0.4237    35.6500     2.2879  -999.2500    -0.2338
 2637.8670     7.2432    69.1815    18.4517     6.5102     6.5051     0.4332    37.0348     2.0904  -999.2500    -0.2081
 2638.0200     7.2443    65.2769    19.0708     6.4179     6.6484     0.4365    38.2717     1.8213  -999.2500    -0.1798
 2638.1720     7.2455    59.7563    19.2282     6.6537     6.6510     0.4333    39.3212     1.7150  -999.2500    -0.1713
 2638.3240     7.2466    53.7628    19.5393     6.4172     6.7014     0.4365    45.7074     1.5893  -999.2500    -0.1860
 2638.4770     7.2477    50.7860    19.0823     5.7216     6.7520     0.4398    54.3923     1.5652  -999.2500    -0.1895
 2638.6290     7.2333    51.7328    18.7786     4.7103     6.6583     0.4564    54.8173     1.5902  -999.2500    -0.1728
 2638.7810     7.2345    56.3829    18.6283     3.9930     6.4720     0.4737    53.3957     1.6645  -999.2500    -0.1705
 2638.9340     7.2047    63.7536    19.0930     3.8804     6.0728     0.4772    46.4734     1.7134  -999.2500    -0.1661
 2639.0860     7.2032    67.0061    19.7118     3.7703     5.7777     0.4773    43.0637     1.7233  -999.2500    -0.1387
 2639.2390     7.1912    70.2420    19.8687     3.6377     5.4598     0.4634    41.7688     2.0829  -999.2500    -0.1149
 2639.3910     7.1927    67.2535    19.8726     3.6119     5.3075     0.4368    43.8734     2.3743  -999.2500    -0.1475
 2639.5440     7.1939    61.5024    19.7220     3.6122     5.1605     0.4241    50.3283     2.4629  -999.2500    -0.1610
 2639.6960     7.1949    62.9019    19.1114     3.8266     5.1253     0.4148    51.6631     2.4337  -999.2500    -0.1695
 2639.8480     7.2118    65.4802    18.6539     4.1435     5.0187     0.4179    48.6146     2.4119  -999.2500    -0.1642
 2640.0010     7.2127    73.0855    18.5046     4.5487     4.9144     0.4211    40.7334     2.4062  -999.2500    -0.1580
 2640.1530     7.2139    80.9538    17.8943     4.8535     4.7777     0.4468    37.5169     2.4028  -999.2500    -0.1597
 2640.3060     7.2307    89.9614    17.2834     4.8539     4.6783     0.4602    34.7837     2.3696  -999.2500    -0.1749
 2640.4580     7.2473    91.1271    17.4416     4.9961     4.6133     0.4403    33.9637     2.3131  -999.2500    -0.1935
 2640.6100     7.2172    86.7537    17.9072     5.2549     4.7490     0.4469    34.1508     2.2636  -999.2500    -0.1947
 2640.7630     7.2028    83.3137    18.3709     5.3698     4.7849     0.4536    34.9574     2.1725  -999.2500    -0.2102
 2640.9150     7.2042    79.3986    18.6823     5.4091     4.7867     0.4404    39.8902     2.0109  -999.2500    -0.2076
 2641.0680     7.2053    72.9588    18.9931     5.1810     4.7203     0.4244    46.1506     1.8810  -999.2500    -0.1929
 2641.2200     7.2065    69.9707    19.3042     4.7870     4.5894     0.4245    47.9655     1.8551  -999.2500    -0.2020
 2641.3720     7.2077    74.8407    19.9224     4.4227     4.4613     0.4341    47.0385     2.1475  -999.2500    -0.1866
 2641.5250     7.2245    77.6158    19.9254     4.1761     4.2458     0.4605    41.8721     2.3399  -999.2500    -0.1664
 2641.6770     7.2567    80.6315    19.9293     4.0578     4.0111     0.4780    37.4095     2.4093  -999.2500    -0.1526
 2641.8300     7.2734    81.3378    19.6251     4.0004     3.8172     0.4675    34.7732     2.3955  -999.2500    -0.1865
 2641.9820     7.2901    78.3500    20.3979     3.8593     3.7645     0.4374    33.6178     2.3776  -999.2500    -0.2174
 2642.1350     7.2913    72.1368    20.7088     3.6966     3.6858     0.4506    33.2290     2.3832  -999.2500    -0.2052
 2642.2870     7.2459    65.9209    20.8663     3.5655     3.5834     0.4817    32.0259     2.4299  -999.2500    -0.1492
 2642.4390     7.2157    60.1609    20.8703     3.3666     3.4344     0.4925    31.3986     2.4871  -999.2500    -0.0777
 2642.5920     7.1706    56.4891    21.0275     3.1336     3.2917     0.4154    36.3715     2.4984  -999.2500    -0.1086
 2642.7440     7.1715    52.8086    21.1850     2.9584     3.1099     0.4474    38.3301     2.5427  -999.2500    -0.0652
 2642.8960     7.1882    48.4285    21.0344     2.8540     2.9170     0.4783    28.4107     2.4490  -999.2500    -0.1317
 2643.0490     7.1894    43.3798    21.3463     2.7935     2.7173     0.4508    31.8046     2.4360  -999.2500    -0.1418
 2643.2010     7.1906    44.7838    21.6573     2.6947     2.5489     0.4377    34.1121     2.5127  -999.2500    -0.1149
 2643.3540     7.1918    47.3326    21.6611     2.5445     2.4606     0.5001    42.5189     2.5609  -999.2500    -0.1162
 2643.5060     7.1929    48.2706    21.6650     2.4372     2.3922     0.4928    44.5720     2.5713  -999.2500    -0.1592
 2643.6580     7.1940    47.3623    21.8237     2.3681     2.3252     0.5077    46.4831     2.5679  -999.2500    -0.1726
 2643.8110     7.1795    47.6080    22.2871     2.3013     2.2288     0.4378    47.0513     2.5268  -999.2500    -0.1470
 2643.9630     7.1652    49.6982    22.5977     2.2685     2.1668     0.4510    46.7051     2.5057  -999.2500    -0.1313
 2644.1150     7.1666    50.4040    22.7554     2.2203     2.1518     0.4544    44.7830     2.5161  -999.2500    -0.1229
 2644.2680     7.1676    49.2650    22.9122     2.2205     2.1072     0.4379    43.6324     2.5257  -999.2500    -0.1196
