~VERSION INFORMATION
 VERS.               1.20:   CWLS LOG ASCII STANDARD - VERSION 1.20
 WRAP.                 NO:   ONE LINE PER DEPTH STEP
~WELL INFORMATION
#MNEM.UNIT      DATA TYPE    INFORMATION
#----------   ------------   ------------------------------
 STRT.M          630.6096:   START DEPTH
 STOP.M         3133.6272:   STOP DEPTH
 STEP.M            0.1524:   STEP LENGTH
 NULL.          -999.2500:   NO VALUE
 COMP.            COMPANY:   PERTAMINA
 WELL.               WELL:   CMS-004
 WBN .            CMS-004:   WELLBORE
 FLD .              FIELD:   CEMARA SELATAN
 LOC .           LOCATION:   X = + 149636.27  Y = - 719813.7
 PROV.           PROVINCE:   JAWA BARAT
 STAT.              STATE:   INDONESIA
 SRVC.    SERVICE COMPANY:   SCHLUMBERGER
 DATE.            LOGDATE:   11/24/77
 APIN.         API NUMBER:   -
 UWI .  CEMARASELATAN-004:   UNIQUE WELL ID 
~CURVE INFORMATION
#MNEM.UNIT       API CODE    CURVE DESCRIPTION
#----------   ------------   ------------------------------
 DEPT.M                  :
 CALI.inch   60 280 00 00:   Caliper
 GR  .GAPI   60 310 00 00:   Gamma Ray
 SP  .mV     60 010 01 00:   Spontaneous Potential
 ILD .ohmm   05 070 46 00:   Induction Laterolog, Deep
 SN  .ohmm   05 040 16 00:   Short Normal 16"
 NPHI.%      42 890 03 00:   Neu. Porosity, Ss [%]
 RHOB.kg/cm3 42 350 01 00:   Bulk Density
 DRHO.g/cc   42 356 01 00:   Density Correction
 PROX.ohmm   21 270 30 00:   Proximity Log
~PARAMETER INFORMATION
#MNEM.UNIT          VALUE    DESCRIPTION
#----------   ------------   ------------------------------
 EKB .M            0.0000:   Kelly bushing
 EGL .M            0.0000:   Ground level
 EDF .M           10.0000:   Drilling floor
 EPD .M           10.0000:   Permanent datum
 TD  .M         3129.0000:   Total depth
 DF  .      CONGLONGMERAT:   Deepest formation
 PROJ.       SCHLUMBERGER:   Project
 DATE.           11/24/77:   Date logged
 SRFX.M       185028.4000:   Surface X position
 SRFY.M      9281121.0000:   Surface Y position
 STUS.                  3:   1-18 API codes
 SLAT.DECIMAL DE  -6.4963:   Surface Latitude
 SLNG.DECIMAL DE 108.1521:   Surface Longitude
 BLAT.DECIMAL DE   0.0000:   Bottom Latitude
 BLNG.DECIMAL DE   0.0000:   Bottom Longitude
 SCTN.                  0:   Section Number
 NSFT.F            0.0000:   N-S Footage
 EWFT.F            0.0000:   E-F Footage
 BHT .Degf            100:   Bottom Hole Temperature
 MRT .Degf            100:   Max Recorded Temperature
 MST .Degf             87:   Mud Temperature
 RM  .Ohmm            3.0:   Mud Resistivity
 RMB .Degf  2.7 ohmm @100:   Mud BHT Resistivity
 RMC .Ohmm           4.72:   Mud Cake Resistivity
 RMF .Ohmm           1.93:   Mud Filtrate Resistivity
 DFD .G/c3           1.05:   Drilling Fluid Density
 DFV .Sec              43:   Drilling Fluid Viscosity
 DFPH.                  9:   Drilling Fluid pH
 DFL .Ml               14:   Drilling Fluid Loss
 DD  .Mtr          3129.0:   Depth driller
 DL  .Mtr          3129.8:   Depth logger
 BLI .Mtr          3129.5:   Bottom log interval
 TLI .Mtr            2767:   Top log interval
 CSS .Inch          9 5/8:   Casing size
 CTD1.Mtr   9 5/8" @ 1300:   Casing driller 1
 CTL1.Mtr          1299.7:   Casing logger 1
 BS  .Inch          8 5/8:   Bit size
 DFT . Bentonite / Q.Broxin:   Type fluid in hole
 WSS .           Flowline:   Source of sample
 EMT .Degf 0.48 ohmm @ 95:   Rm Meas. temp.
 MFT .Degf 0.31 ohmm @ 80:   Rmf Meas. temp.
 MCST.Degf 0.66 ohmm @ 26:   Rmc Meas. temp.
 MFSS.              Press:   Source Rmf.
 MCSS.              Press:   Source Rmc.
 TCS .HRS              12:   Time Circ. stopped
 LUN .               RS18:   Logging unit number
 LUL .                WJV:   Logging unit location
 ENGI.            M.Akbar:   Recorded By
 WITN.  Wardoyo / Sugipto:   Witnessed by
 RE1 .        ILD (6FF40):   Res. Electrode #1
 RE2 .      SN  (A-16" M):   Res. Electrode #2
 TLAB.Hrs              12:   Time logger at bottom
 DATE.           12/02/77:   Date logged
 DATE.           12/13/77:   Date logged
 DATE.           01/10/77:   Date logged
 DATE.           01/28/78:   Date logged
 BHT .Degf            110:   Bottom Hole Temperature
 BHT .Degf            155:   Bottom Hole Temperature
 BHT .Degf            250:   Bottom Hole Temperature
 BHT .Degf            270:   Bottom Hole Temperature
 MRT .Degf            110:   Max Recorded Temperature
 MRT .Degf            155:   Max Recorded Temperature
 MRT .Degf            250:   Max Recorded Temperature
 MRT .Degf            270:   Max Recorded Temperature
 MST .Degf             80:   Mud Temperature
 MST .Degf             85:   Mud Temperature
 MST .Degf             85:   Mud Temperature
 MST .Degf             95:   Mud Temperature
 RM  .Ohmm           2.05:   Mud Resistivity
 RM  .Ohmm           1.51:   Mud Resistivity
 RM  .Ohmm           0.71:   Mud Resistivity
 RM  .Ohmm           0.48:   Mud Resistivity
 RMB .Degf 1.6 ohmm @ 110:   Mud BHT Resistivity
 RMB .Degf 0.9 ohmm @ 155:   Mud BHT Resistivity
 RMB .Degf 0.24 ohmm @ 250:   Mud BHT Resistivity
 RMB .Degf 0.16 ohmm @ 270:   Mud BHT Resistivity
 RMC .Ohmm           2.12:   Mud Cake Resistivity
 RMC .Ohmm           1.62:   Mud Cake Resistivity
 RMC .Ohmm           1.11:   Mud Cake Resistivity
 RMC .Ohmm 0.66 ohmm @ 26:   Mud Cake Resistivity
 RMF .Ohmm           1.91:   Mud Filtrate Resistivity
 RMF .Ohmm           1.36:   Mud Filtrate Resistivity
 RMF .Ohmm           0.46:   Mud Filtrate Resistivity
 RMF .Ohmm 0.31 ohmm @ 80:   Mud Filtrate Resistivity
 DFD .G/c3           1.15:   Drilling Fluid Density
 DFD .G/c3           1.14:   Drilling Fluid Density
 DFD .G/c3           1.17:   Drilling Fluid Density
 DFD .G/c3           1.23:   Drilling Fluid Density
 DFV .Sec              42:   Drilling Fluid Viscosity
 DFV .Sec              55:   Drilling Fluid Viscosity
 DFV .Sec              65:   Drilling Fluid Viscosity
 DFV .Sec              65:   Drilling Fluid Viscosity
 DFPH.                  9:   Drilling Fluid pH
 DFPH.                  9:   Drilling Fluid pH
 DFPH.                9.5:   Drilling Fluid pH
 DFPH.                9.5:   Drilling Fluid pH
 DFL .Ml               10:   Drilling Fluid Loss
 DFL .Ml              6.5:   Drilling Fluid Loss
 DFL .Ml                5:   Drilling Fluid Loss
 DFL .Ml                5:   Drilling Fluid Loss
 DD  .Mtr             255:   Depth driller
 DD  .Mtr             635:   Depth driller
 DD  .Mtr            1305:   Depth driller
 DD  .Mtr            2798:   Depth driller
 DL  .Mtr             255:   Depth logger
 DL  .Mtr             635:   Depth logger
 DL  .Mtr            1303:   Depth logger
 DL  .Mtr          2799.3:   Depth logger
 BLI .Mtr           254.7:   Bottom log interval
 BLI .Mtr           634.7:   Bottom log interval
 BLI .Mtr            1302:   Bottom log interval
 BLI .Mtr          2799.0:   Bottom log interval
 TLI .Mtr            30.0:   Top log interval
 TLI .Mtr           259.3:   Top log interval
 TLI .Mtr           630.5:   Top log interval
 TLI .Mtr          1299.7:   Top log interval
 CSS .Inch             30:   Casing size
 CSS .Inch             20:   Casing size
 CSS .Inch         12 1/4:   Casing size
 CSS .Inch          9 5/8:   Casing size
 CTD1.Mtr              30:   Casing driller 1
 CTD1.Mtr           259.1:   Casing driller 1
 CTD1.Mtr             630:   Casing driller 1
 CTD1.Mtr            1300:   Casing driller 1
 CTL1.Mtr              30:   Casing logger 1
 CTL1.Mtr           250.5:   Casing logger 1
 CTL1.Mtr           630.5:   Casing logger 1
 CTL1.Mtr          1299.7:   Casing logger 1
 BS  .Inch          9 7/8:   Bit size
 BS  .Inch          9 7/8:   Bit size
 BS  .Inch             12:   Bit size
 BS  .Inch          8 5/8:   Bit size
 DFT .          bentonite:   Type fluid in hole
 DFT .          bentonite:   Type fluid in hole
 DFT .          bentonite:   Type fluid in hole
 DFT .          bentonite:   Type fluid in hole
 WSS .           flowline:   Source of sample
 WSS .           flowline:   Source of sample
 WSS .           flowline:   Source of sample
 WSS .           flowline:   Source of sample
 EMT .Degf  3.0 ohmm @ 87:   Rm Meas. temp.
 EMT .Degf 2.05 ohmm @ 80:   Rm Meas. temp.
 EMT .Degf 1.51 ohmm @ 85:   Rm Meas. temp.
 EMT .Degf 0.71 ohmm @ 85:   Rm Meas. temp.
 MFT .Degf 2.72 ohmm @ 87:   Rmf Meas. temp.
 MFT .Degf 1.91 ohmm @ 80:   Rmf Meas. temp.
 MFT .Degf 1.36 ohmm @ 85:   Rmf Meas. temp.
 MFT .Degf 0.46 ohmm @ 85:   Rmf Meas. temp.
 MCST.Degf 1.93 ohmm @ 87:   Rmc Meas. temp.
 MCST.Degf 2.12 ohmm @ 80:   Rmc Meas. temp.
 MCST.Degf 1.62 ohmm @ 85:   Rmc Meas. temp.
 MCST.Degf 1.11 ohmm @ 85:   Rmc Meas. temp.
 MFSS.                  p:   Source Rmf.
 MFSS.                  p:   Source Rmf.
 MFSS.                  p:   Source Rmf.
 MFSS.                  p:   Source Rmf.
 MCSS.                  p:   Source Rmc.
 MCSS.                  p:   Source Rmc.
 MCSS.                  p:   Source Rmc.
 MCSS.                  p:   Source Rmc.
 TCS .HRS             1.5:   Time Circ. stopped
 TCS .HRS               3:   Time Circ. stopped
 TCS .HRS               4:   Time Circ. stopped
 TCS .HRS               7:   Time Circ. stopped
 LUN .               4618:   Logging unit number
 LUN .               4618:   Logging unit number
 LUN .               4618:   Logging unit number
 LUL .                mjv:   Logging unit location
 LUL .                mjv:   Logging unit location
 LUL .                mjv:   Logging unit location
 LUL .                mjv:   Logging unit location
 WITN.            Sukarna:   Witnessed by
 RE1 .                ILD:   Res. Electrode #1
 RE1 .                ILD:   Res. Electrode #1
 RE1 .                ILD:   Res. Electrode #1
 RE1 .                ILD:   Res. Electrode #1
 RE2 .                 SN:   Res. Electrode #2
 RE2 .                 SN:   Res. Electrode #2
 RE2 .                 SN:   Res. Electrode #2
 RE2 .                 SN:   Res. Electrode #2
 TLAB.Hrs             1.5:   Time logger at bottom
 TLAB.Hrs               3:   Time logger at bottom
 TLAB.Hrs               4:   Time logger at bottom
 TLAB.Hrs               7:   Time logger at bottom
 DGBY.            Sukarna:   Digitized By
 DGBY.            Sukarna:   Digitized By
 DGBY.            Sukarna:   Digitized By
 DGBY.            Sukarna:   Digitized By
 DGBY.            Sukarna:   Digitized By
~A  DEPTH     CALI         GR         SP        ILD         SN       NPHI       RHOB       DRHO       PROX
# ...
 2510.7680    11.2146    33.8987     8.6339     2.9825     3.4705    26.1653     2.3818     0.0107     5.0522
 2510.9210    11.4046    33.6034     8.6358     2.9615     3.4247    26.0202     2.3635     0.0087     4.9814
 2511.0730    11.9177    33.5303     8.7171     2.8616     3.3828    26.0072     2.3813     0.0189     5.4703
 2511.2260    11.3997    33.4278     8.9101     2.7629     3.3276    25.4692     2.3992     0.0143     4.5542
 2511.3780    10.9045    32.7413     8.9506     2.7066     3.2489    24.7818     2.4395    -0.0069     3.5706
 2511.5310    10.9333    33.2163     9.1412     2.6625     3.1793    24.2333     2.4528    -0.0010     3.7795
 2511.6830    10.9239    34.2888     9.3341     2.6626     3.0621    23.4608     2.4834     0.0020     3.3467
 2511.8350    10.7263    33.0507     9.5268     2.6778     3.0188    22.7625     2.4701    -0.0049     3.3636
 2511.9880    10.6469    34.5739     9.7310     2.7254     3.0374    22.6723     2.4590    -0.0005     3.8594
 2512.1400    10.6416    35.7688     9.7328     2.8389     3.1306    23.1959     2.4437     0.0064     3.6221
 2512.2920    10.6246    36.6138     9.7347     2.9507     3.2886    24.0849     2.4432     0.0135     4.3101
 2512.4450    10.5910    36.3174     9.7366     3.0491     3.4079    24.6000     2.4442     0.0262     4.8027
 2512.5970    10.5831    35.9037     9.5841     3.1439     3.5862    24.9816     2.4488     0.0207     4.2320
 2512.7500    10.5803    35.1577     9.4311     3.3674     3.7353    25.2644     2.4408     0.0055     3.9734
 2512.9020    10.5637    34.3698     9.4862     3.5156     3.8693    25.3485     2.4298     0.0095     4.4842
 2513.0540    10.5454    33.4989     9.6792     3.5395     3.9865    25.0906     2.4245     0.0166     5.2506
 2513.2070    10.5416    32.0919     9.9008     3.5530     4.0929    24.6305     2.4346     0.0410     5.8691
 2513.3590    10.5407    30.6207    10.0570     3.6161     4.2400    23.7690     2.4391     0.0295     5.0337
 2513.5120    10.5403    29.6597    10.1031     3.6683     4.4125    23.7878     2.4365     0.0040     5.1703
 2513.6640    10.5400    28.3290    10.2959     3.8000     4.6304    23.9383     2.4446     0.0144     4.8155
 2513.8160    10.5395    27.7085    10.3721     3.9448     4.7761    23.5252     2.4685     0.0209     5.1704
 2513.9690    10.5390    27.3220    10.2191     4.1033     4.9166    23.0254     2.4796     0.0008     7.9171
 2514.1210    10.5386    28.5978    10.2210     4.2591     5.0931    22.6938     2.4802     0.0072     9.8076
 2514.2740    10.5381    29.5464    10.2229     4.3998     5.3021    22.4974     2.4741     0.0263     6.9712
 2514.4260    10.5376    28.5291    10.2247     4.5315     5.4672    22.4892     2.4624     0.0073     7.0166
 2514.5780    10.5372    27.6132    10.2267     4.6939     5.7137    22.1161     2.4437     0.0133     5.6833
 2514.7310    10.5365    29.1465    10.2285     4.8757     5.9484    21.6799     2.4499     0.0062     6.9719
 2514.8830    10.5361    31.0996    10.2304     4.9955     6.2024    21.5117     2.4402     0.0052    10.6829
 2515.0360    10.5357    32.2197    10.0332     5.1020     6.2917    21.5151     2.4656     0.0106    10.1790
 2515.1880    10.5352    33.0847     9.9250     5.1250     6.4385    21.1435     2.4780     0.0103    10.9594
 2515.3400    10.5347    32.6626     9.7722     5.0890     6.4956    20.5589     2.4895     0.0005    11.0816
 2515.4930    10.5342    31.6297     9.7199     5.0473     6.4548    20.0096     2.5142     0.0029     8.9438
 2515.6450    10.5337    30.5481     9.5308     4.9484     6.2923    19.2107     2.5572     0.0082     6.8517
 2515.7980    10.5332    30.0045     9.4689     4.8388     5.9834    18.1330     2.5949    -0.0079     6.2060
 2515.9500    10.5327    29.5658     9.6253     4.6738     5.6765    17.0468     2.6066    -0.0026     6.0061
 2516.1020    10.5338    28.8188     9.6727     4.5388     5.3113    16.4643     2.6313     0.0047     6.5881
 2516.2550    10.5630    27.6858     9.8656     4.3826     4.9044    16.6150     2.6339    -0.0012     5.0674
 2516.4070    10.6639    26.6537    10.0950     4.2315     4.6377    16.8819     2.6264     0.0016     4.4326
 2516.5600    10.5681    27.4146    10.2511     4.1069     4.3831    16.9802     2.6155     0.0198     3.3821
 2516.7120    10.5516    28.4469    10.2898     3.9698     4.1945    16.7726     2.6031     0.0041     2.8670
 2516.8650    10.5299    27.6496    10.4828     3.8412     4.0468    16.9216     2.6297     0.0103     3.6514
 2517.0170    10.5294    27.9091    10.5659     3.7414     3.9295    16.6483     2.6391     0.0172     4.1606
 2517.1690    10.5289    25.9881    10.7224     3.6799     3.8777    16.3520     2.6551     0.0357     4.7357
 2517.3220    10.5285    25.2461    10.6963     3.6981     3.9230    16.4341     2.6249     0.0144     5.4383
 2517.4740    10.5280    24.0316    10.5071     3.7601     4.0473    16.6094     2.6297     0.0108     5.3996
 2517.6260    10.5276    23.0589    10.3180     3.8160     4.1955    16.8397     2.6014    -0.0023     5.2861
 2517.7790    10.5271    22.4874    10.1118     3.8324     4.3231    17.0479     2.6158     0.0173     4.7110
 2517.9310    10.5266    23.1708     9.9588     3.8326     4.3316    17.2831     2.5891    -0.0010     5.0045
 2518.0830    10.5260    23.6555    10.3810     3.8327     4.2719    17.6153     2.5887    -0.0063     6.2261
 2518.2360    10.6238    23.1950    10.6732     3.8424     4.1060    17.9927     2.6060     0.0107     5.3448
 2518.3880    10.6628    22.1681    10.7377     3.9092     3.8599    18.5626     2.6201     0.0080     4.4507
 2518.5410    10.6820    23.1957    10.5743     4.0288     3.5775    19.4022     2.5991     0.0099     3.9364
 2518.6930    10.7014    24.3582    10.3851     4.0593     3.3652    20.1221     2.5687     0.0156     3.7849
 2518.8460    10.7208    24.7783    10.1961     4.0782     3.2462    20.6860     2.5477    -0.0005     3.3779
 2518.9980    10.7391    24.8519    10.1267     4.0580     3.1974    21.1628     2.5435     0.0017     3.5958
 2519.1500    10.7433    24.8065    10.2832     4.0295     3.1695    21.5699     2.5632     0.0060     2.7151
 2519.3030    10.7605    24.5103    10.2468     3.9725     3.1553    21.9528     2.5474     0.0033     2.4012
 2519.4550    10.8112    24.6181    10.0578     3.9448     3.1330    22.3042     2.5366    -0.0116     2.3153
 2519.6080    10.9592    25.8643     9.9797     3.9722     3.1092    22.5287     2.5300    -0.0154     2.2775
 2519.7600    11.0645    26.8711     9.8271     4.0637     3.0889    22.6791     2.5093    -0.0091     2.4430
 2519.9120    10.9850    27.1306     9.8289     4.1465     3.0890    22.7244     2.5227    -0.0036     2.7349
 2520.0650    10.8949    26.3576     9.8308     4.1763     3.0672    22.6044     2.5606     0.0148     2.6719
 2520.2170    10.8816    25.7371     9.8327     4.1765     3.0673    22.3720     2.5619     0.0206     3.1919
 2520.3700    10.8970    25.2930     9.9893     4.1374     3.0673    22.0451     2.5472     0.0076     3.2771
 2520.5220    10.9065    26.1323    10.1456     4.0310     3.0674    21.8694     2.5528     0.0135     3.3784
 2520.6740    10.8905    27.9652    10.1474     3.9344     3.0835    21.6124     2.5372    -0.0010     2.4362
 2520.8270    11.3991    26.5781    10.0559     3.8527     3.0896    21.0833     2.5526     0.0009     1.8593
 2520.9790    11.9028    25.2539     9.9967     3.8359     3.1384    20.0873     2.5506     0.0137     2.5227
 2521.1320    11.1221    27.1992     9.9985     3.9187     3.1862    19.3736     2.5431     0.0149     2.1572
 2521.2840    10.7243    29.8730    10.0004     3.9825     3.2874    18.4567     2.5303     0.0025     3.7333
 2521.4360    10.6500    30.6139     9.8331     4.0703     3.4140    17.0651     2.5311    -0.0127     4.1859
 2521.5890    10.6340    30.7706     9.5408     4.1229     3.5525    16.4982     2.5531    -0.0032     3.8749
 2521.7410    10.6520    31.1385     9.3851     4.2081     3.6700    16.8930     2.6142     0.0141     2.8446
