~Version Information
VERS  .          2.0                              :CWLS Log Ascii Standard - Version 2.0
WRAP  .          NO                               :One line per depth step
~Well Information Block
#MNEM.UNIT       Data Type                        Information
#---------       ---------                        -------------------------------
STRT  .M         501.09100                        :START DEPTH
STOP  .M         2801.87400                       :STOP DEPTH
STEP  .M          0.15240                         :INCREMENT
NULL  .          -999.25                          :NULL DATA VALUE
COMP  .          PERTAMINA                        :COMPANY
WELL  .          CMS-005                          :WELL
WBN   .          CMS-005                          :WELLBORE
FLD   .          CEMARA SELATAN                   :FIELD
LOC   .                                           :LOCATION
PROV  .          INDONESIA                        :PROVINCE
STAT  .          INDONESIA                        :STATE
CNTY  .                                           :COUNTY
CTRY  .                                           :COUNTRY
DATE  .                                           :DATE
UWI   .          CEMARASELATAN-005                :UNIQUE WELL UWI
LIC   .                                           :LICENSE NUMBER
API   .                                           :API NUMBER
SRVC  .                                           :SERVICE COMPANY
~Parameter Information Block
#MNEM.UNIT       Value                            Description
#---------       ---------                        -------------
LONG  .DEG       108.170923                       :Well Surface Location
LATI  .DEG       -6.423032                        :Well Surface Location
XWELL .M         187032.670000                    :X-coordinate of Well Head
YWELL .M         9289167.261000                   :Y-coordinate of Well Head
~Curve Information Block
#MNEM.UNIT       API Code            Curve    Description
#--------        --------------      -----    -------------------
DEPT  .M                             :0       Index
KGAS  .MD                            :1       Permeability to Gas           
KINT  .MD                            :2       Intrinsic Permeability        
KOIL  .MD                            :3       Permeability to Oil           
KWTR  .MD                            :4       Permeability to Water         
PHIT  .V/V                           :5       Total Porosity_ includes all forms of porosity, including that occupied by bound fluids, and is independent of rock and fluid materials and of environmental effects
PHTT  .V/V                           :6       Theoretical PHIT Value        
PIGE  .V/V                           :7       Effective Porosity Less Irreducible Water
PIGN  .V/V                           :8       Effective Porosity, VISO, VPAR, and Bound Water Removed
SUWI  .V/V                           :9       Non-Clay Water Intergranular Water Saturation for Undisturbed Zone
VILL  .V/V                           :10      Volume of Illite (dry) Relative to Total Volume
~Ascii Data Section
# ...
   1253.94700    -999.25000    -999.25000    -999.25000    -999.25000    -999.25000    -999.25000    -999.25000    -999.25000    -999.25000    -999.25000 
   1254.09940    -999.25000    -999.25000    -999.25000    -999.25000    -999.25000    -999.25000    -999.25000    -999.25000    -999.25000    -999.25000 
   1254.25180    -999.25000    -999.25000    -999.25000    -999.25000    -999.25000    -999.25000    -999.25000    -999.25000    -999.25000    -999.25000 
   1254.40420    -999.25000    -999.25000    -999.25000    -999.25000    -999.25000    -999.25000    -999.25000    -999.25000    -999.25000    -999.25000 
   1254.55660       0.00100       0.01000       0.00100       0.01000       0.26549       0.30562       0.16500       0.16500       1.00000       0.54960 
   1254.70900       0.00100       0.01000       0.00100       0.01000       0.27486       0.31080       0.18486       0.18486       1.00000       0.49224 
   1254.86140       0.00100       0.04243       0.00100       0.04243       0.28884       0.32051       0.20952       0.20952       1.00000       0.43383 
   1255.01380       0.00100       0.24978       0.00100       0.24978       0.28325       0.30879       0.21791       0.21791       1.00000       0.35739 
   1255.16620       0.00100       0.29840       0.00100       0.29840       0.28219       0.30682       0.21828       0.21828       1.00000       0.34954 
   1255.31860       0.00100       0.30675       0.00100       0.30675       0.27952       0.30396       0.21600       0.21600       1.00000       0.34740 
   1255.47100       0.00100       0.18307       0.00100       0.18307       0.28194       0.30858       0.21429       0.21429       1.00000       0.36999 
   1255.62340       0.00100       0.05521       0.00100       0.05521       0.28508       0.31585       0.20799       0.20799       1.00000       0.42158 
   1255.77580       0.00100       0.04722       0.00100       0.04722       0.29762       0.32914       0.21870       0.21870       1.00000       0.43166 
   1255.92820       0.00100       0.04185       0.00100       0.04185       0.30494       0.33695       0.22478       0.22478       1.00000       0.43840 
   1256.08060       0.00100       0.02959       0.00100       0.02959       0.29853       0.33150       0.21597       0.21597       1.00000       0.45152 
   1256.23300       0.00100       0.03036       0.00100       0.03036       0.29537       0.32820       0.21315       0.21315       1.00000       0.44969 
   1256.38540       0.00100       0.05634       0.00100       0.05634       0.29850       0.32949       0.22089       0.22089       1.00000       0.42446 
   1256.53780       0.00100       0.12312       0.00100       0.12312       0.31501       0.34389       0.24267       0.24267       1.00000       0.39563 
   1256.69020       0.00100       0.04047       0.00100       0.04047       0.31080       0.34299       0.23017       0.23017       1.00000       0.44095 
   1256.84260       0.00100       0.21272       0.00100       0.01000       0.32484       0.35198       0.25625       0.25625       0.99815       0.37510 
   1256.99500       0.00100       0.19919       0.00100       0.19919       0.31551       0.34274       0.24677       0.24677       1.00000       0.37593 
   1257.14740       0.00100       0.11455       0.00100       0.11455       0.30494       0.33388       0.23246       0.23246       1.00000       0.39640 
   1257.29980       0.00100       0.08386       0.00100       0.08386       0.30364       0.33350       0.22884       0.22884       1.00000       0.40907 
   1257.45220       0.00100       0.13361       0.00100       0.13361       0.30581       0.33429       0.23446       0.23446       1.00000       0.39021 
   1257.60460       0.00370       0.24764       0.00100       0.01000       0.30952       0.33555       0.24268       0.24268       0.98507       0.36559 
   1257.75700       0.00210       0.21670       0.00100       0.01000       0.30000       0.32641       0.23260       0.23260       0.99032       0.36862 
   1257.90940       0.00100       0.12007       0.00100       0.12007       0.28675       0.31517       0.21556       0.21556       1.00000       0.38935 
   1258.06180       0.00100       0.04822       0.00100       0.04822       0.28468       0.31587       0.20657       0.20657       1.00000       0.42718 
   1258.21420       0.00100       0.05391       0.00100       0.05391       0.27497       0.30557       0.19831       0.19831       1.00000       0.41923 
   1258.36660       0.00100       0.02340       0.00100       0.02340       0.27581       0.30903       0.19260       0.19260       1.00000       0.45505 
   1258.51900       0.00100       0.02457       0.00100       0.02457       0.28001       0.31318       0.19693       0.19693       1.00000       0.45433 
   1258.67140       0.00100       0.01883       0.00100       0.01883       0.27771       0.31166       0.19270       0.19270       1.00000       0.46495 
   1258.82380       0.00100       0.02810       0.00100       0.02810       0.27783       0.31053       0.19593       0.19593       1.00000       0.44792 
   1258.97620       0.00100       0.02070       0.00100       0.02070       0.27198       0.30548       0.18806       0.18806       1.00000       0.45894 
   1259.12860       0.00100       0.01000       0.00100       0.01000       0.27505       0.31121       0.18447       0.18447       1.00000       0.49537 
   1259.28100       0.00100       0.01465       0.00100       0.01465       0.28013       0.31491       0.19302       0.19302       1.00000       0.47640 
   1259.43340       0.00100       0.01724       0.00100       0.01724       0.28160       0.31590       0.19568       0.19568       1.00000       0.46991 
   1259.58580       0.00100       0.01000       0.00100       0.01000       0.27872       0.31519       0.18739       0.18739       1.00000       0.49952 
   1259.73820       0.00100       0.01000       0.00100       0.01000       0.27579       0.31256       0.18367       0.18367       1.00000       0.50378 
   1259.89060       0.00100       0.03416       0.00100       0.03416       0.28567       0.31794       0.20484       0.20484       1.00000       0.44209 
   1260.04300       0.00100       0.06477       0.00100       0.06477       0.29630       0.32682       0.21986       0.21986       1.00000       0.41805 
   1260.19540       0.00100       0.03252       0.00100       0.03252       0.29250       0.32506       0.21094       0.21094       1.00000       0.44606 
   1260.34780       0.00100       0.01817       0.00100       0.01817       0.29324       0.32761       0.20715       0.20715       1.00000       0.47086 
   1260.50020       0.00100       0.01100       0.00100       0.01100       0.29121       0.32710       0.20131       0.20131       1.00000       0.49165 
   1260.65260       0.00100       0.01000       0.00100       0.01000       0.29087       0.32773       0.19856       0.19856       1.00000       0.50483 
   1260.80500       0.00100       0.01831       0.00100       0.01831       0.29319       0.32754       0.20716       0.20716       1.00000       0.47051 
   1260.95740       0.00100       0.02594       0.00100       0.02594       0.29454       0.32784       0.21114       0.21114       1.00000       0.45612 
   1261.10980       0.00100       0.01489       0.00100       0.01489       0.30021       0.33532       0.21230       0.21230       1.00000       0.48082 
   1261.26220       0.00100       0.01000       0.00100       0.01000       0.29504       0.33265       0.20085       0.20085       1.00000       0.51514 
   1261.41460       0.00100       0.01000       0.00100       0.01000       0.28132       0.31985       0.18480       0.18480       1.00000       0.52788 
   1261.56700       0.00100       0.01000       0.00100       0.01000       0.27332       0.31177       0.17703       0.17703       1.00000       0.52660 
   1261.71940       0.00100       0.01000       0.00100       0.01000       0.27100       0.30929       0.17509       0.17509       1.00000       0.52453 
