~VERSION INFORMATION
 VERS.               1.20:   CWLS LOG ASCII STANDARD - VERSION 1.20
 WRAP.                 NO:   ONE LINE PER DEPTH STEP
~WELL INFORMATION
#MNEM.UNIT      DATA TYPE    INFORMATION
#----------   ------------   ------------------------------
 STRT.M          500.1524:   START DEPTH
 STOP.M         2803.2212:   STOP DEPTH
 STEP.M            0.1524:   STEP LENGTH
 NULL.          -999.2500:   NO VALUE
 COMP.            COMPANY:   PERTAMINA
 WELL.               WELL:   CMS-005
 WBN .            CMS-005:   WELLBORE
 FLD .              FIELD:   CEMARA SELATAN
 LOC .           LOCATION:   X = - 15283.31  Y = + 8483.38
 PROV.           PROVINCE:   JAWA BARAT
 STAT.              STATE:   INDONESIA
 SRVC.    SERVICE COMPANY:   SCHLUMBERGER
 DATE.            LOGDATE:   01/24/78
 APIN.         API NUMBER:   -
 UWI .  CEMARASELATAN-005:   UNIQUE WELL ID 
~CURVE INFORMATION
#MNEM.UNIT       API CODE    CURVE DESCRIPTION
#----------   ------------   ------------------------------
 DEPT.M                  :
 CALI.inch   60 280 00 00:   Caliper
 GR  .GAPI   42 310 00 00:   Gamma Ray
 SP  .mV     60 010 01 00:   Spontaneous Potential
 ILD .ohmm   05 070 46 00:   Induction Laterolog, Deep
 SN  .ohmm   05 040 16 00:   Short Normal 16"
 PROX.ohmm   21 270 30 00:   Proximity Log
 NPHI.%      42 890 03 00:   Neu. Porosity, Ss [%]
 RHOB.kg/cm3 42 350 01 00:   Bulk Density
 CBL .mV     81 524 00 00:   Cement Bond Log
 DRHO.kg/m3  42 356 01 00:   Density Correction
~PARAMETER INFORMATION
#MNEM.UNIT          VALUE    DESCRIPTION
#----------   ------------   ------------------------------
 EKB .M            0.0000:   Kelly bushing
 EGL .M            4.7500:   Ground level
 EDF .M           10.0000:   Drilling floor
 EPD .M           10.0000:   Permanent datum
 TD  .M         2793.0000:   Total depth
 DF  .      CONGLONGMERAT:   Deepest formation
 PROJ.       SCHLUMBERGER:   Project
 DATE.           01/24/78:   Date logged
 DD  .Mtr            2793:   Depth driller
 DL  .Mtr          2762.3:   Depth logger
 BLI .Mtr            2762:   Bottom log interval
 TLI .Mtr             500:   Top log interval
 CSS .Inch             7":   Casing size
 CTD1.Mtr     7" @ 2581,7:   Casing driller 1
 CTL1.Mtr          2581,7:   Casing logger 1
 BS  .Inch          6 1/8:   Bit size
 DFT .           Spersene:   Type fluid in hole
 DFD .G/c3           1.18:   Density
 DFV .Sec              58:   Viscosity
 COL .Inch           6-16:   Column depth/dia.
 DFPH.                 10:   pH
 DFL .Ml             2.75:   Fluid loss
 WSS .           Flowline:   Source of sample
 RM  .Ohmm           1.07:   Rm
 EMT .Degf 1.07 ohmm @ 83:   Rm Meas. temp.
 RMF .Ohmm           0.57:   Rmf
 MFT .Degf 0.57 ohmm @ 83:   Rmf Meas. temp.
 RMC .Ohmm           1.78:   Rmc
 MCST.Degf 1.78 ohmm @ 83:   Rmc Meas. temp.
 MFSS.              Press:   Source Rmf.
 MCSS.              Press:   Source Rmc.
 RMB .Degf 0.4 ohmm @ 232:   Rm. at BHT
 BHT .Degf            232:   BHT.
 TCS .Hrs               7:   Time Circ. stopped
 MRT .Degf            232:   Maximum recorded temp.
 LUN .               4618:   Logging unit number
 LUL .                WJV:   Logging unit location
 ENGI.           M. Akbar:   Recorded By
 WITN.           M.Dasuki:   Witnessed by
 RE1 .       ILD  (6FF40):   Res. Electrode #1
 RE2 .      SN   (A-16"M):   Res. Electrode #2
 DATE.           02/16/78:   Date logged
 DATE.           03/13/78:   Date logged
 DD  .Mtr            1260:   Depth driller
 DD  .Mtr            2610:   Depth driller
 DL  .Mtr            1260:   Depth logger
 DL  .Mtr            2610:   Depth logger
 BLI .Mtr            1260:   Bottom log interval
 BLI .Mtr          2605.8:   Bottom log interval
 TLI .Mtr             500:   Top log interval
 TLI .Mtr          1254.5:   Top log interval
 CSS .Inch         13 3/8:   Casing size
 CSS .Inch          9 5/8:   Casing size
 CTD1.Mtr             500:   Casing driller 1
 CTD1.Mtr            1254:   Casing driller 1
 CTL1.Mtr             500:   Casing logger 1
 CTL1.Mtr          1254.5:   Casing logger 1
 BS  .Inch         12 1/4:   Bit size
 BS  .Inch          8 5/8:   Bit size
 DFT .           spersene:   Type fluid in hole
 DFT .           spersene:   Type fluid in hole
 DFD .G/c3           1.12:   Density
 DFD .G/c3           1.18:   Density
 DFV .Sec              47:   Viscosity
 DFV .Sec              58:   Viscosity
 DFPH.                  9:   pH
 DFPH.                 10:   pH
 DFL .Ml              5.5:   Fluid loss
 DFL .Ml             2.75:   Fluid loss
 WSS .           flowline:   Source of sample
 WSS .           flowline:   Source of sample
 RM  .Ohmm           1.19:   Rm
 RM  .Ohmm           1.07:   Rm
 EMT .Degf             80:   Rm Meas. temp.
 EMT .Degf             83:   Rm Meas. temp.
 RMF .Ohmm            0.8:   Rmf
 RMF .Ohmm           0.57:   Rmf
 MFT .Degf             80:   Rmf Meas. temp.
 MFT .Degf             83:   Rmf Meas. temp.
 RMC .Ohmm           1.52:   Rmc
 RMC .Ohmm           1.78:   Rmc
 MCST.Degf             80:   Rmc Meas. temp.
 MCST.Degf             83:   Rmc Meas. temp.
 MFSS.                  p:   Source Rmf.
 MFSS.                  p:   Source Rmf.
 MCSS.                  p:   Source Rmc.
 MCSS.                  p:   Source Rmc.
 RMB .Degf 0.63 ohmm @ 150:   Rm. at BHT
 RMB .Degf 0.4 ohmm @ 232:   Rm. at BHT
 BHT .Degf            150:   BHT.
 BHT .Degf            232:   BHT.
 TCS .Hrs               3:   Time Circ. stopped
 TCS .Hrs               7:   Time Circ. stopped
 MRT .Degf            150:   Maximum recorded temp.
 MRT .Degf            232:   Maximum recorded temp.
 LUN .               4618:   Logging unit number
 LUN .               4618:   Logging unit number
 LUL .                wjv:   Logging unit location
 LUL .                wjv:   Logging unit location
 ENGI.           M. Akbar:   Recorded By
 ENGI.           M. Akbar:   Recorded By
 WITN.            Y. Rais:   Witnessed by
 WITN.          M. Dasuki:   Witnessed by
 RE1 .                ILD:   Res. Electrode #1
 RE1 .                ILD:   Res. Electrode #1
 RE2 .                 SN:   Res. Electrode #2
 RE2 .                 SN:   Res. Electrode #2
 TLAB.hh:mm             3:   Time Logger At Bottom
 TLAB.hh:mm             7:   Time Logger At Bottom
 TLAB.hh:mm             7:   Time Logger At Bottom
 DGBY.            Sukarna:   Digitized By
 DGBY.            Sukarna:   Digitized By
 DGBY.            Sukarna:   Digitized By
~T 1 Tops
D1(1453-1455)                    1453.0
~OTHER INFORMATION
# Bridleless tool, Log was correlated with cs. run no.3 4M too deep compared with run.2
~A  DEPTH     CALI         GR         SP        ILD         SN       PROX       NPHI       RHOB        CBL       DRHO
# ...
 1265.9620    13.7432    57.6877   -11.2735     1.8815     1.6499     3.5648    28.5703     2.3706    34.6836    -0.1510
 1266.1150    14.0670    59.0879   -12.0431     1.7897     1.6155     1.3917    25.7376     2.3830    52.8186    -0.1182
 1266.2670    13.1882    60.2590   -12.6608     1.7266     1.5701     1.0767    25.2256     2.3846    26.1131    -0.0740
 1266.4200    13.6211    63.0420   -13.1228     1.5958     1.4728     1.1162    32.5801     2.2922    27.9239    -0.0886
 1266.5720    13.0203    63.9774   -12.5053     1.3825     1.3618     1.1008    36.1642     2.2619    27.4196    -0.1293
 1266.7240    12.7280    64.4479   -11.8861     1.2685     1.2411     1.0933    40.8190     2.2828    24.5705    -0.1509
 1266.8770    12.8677    63.2999   -11.2702     1.2596     1.1726     1.1017    39.6552     2.2751    23.0979    -0.1529
 1267.0290    14.4291    64.9318   -10.9613     1.2965     1.1645     1.1423    38.7706     2.2844    37.9296    -0.1530
 1267.1820    16.3725    65.1726   -10.9611     1.3345     1.1901     1.2272    38.5846     2.3030    21.4671    -0.1370
 1267.3340    15.2003    65.1820   -11.1152     1.3835     1.2162     1.2363    38.2587     2.3170    21.2662    -0.1309
 1267.4860    13.1932    64.7265   -11.2693     1.4448     1.2340     1.2192    38.0725     2.3052     9.2907    -0.1627
 1267.6390    12.5631    64.0416   -11.2690     1.4658     1.2431     1.3970    38.0725     2.2836     7.0965    -0.1656
 1267.7910    12.5179    63.5881   -11.2688     1.4661     1.2613     1.7438    37.8846     2.3138     5.5011    -0.1447
 1267.9440    12.4877    64.5254   -11.2686     1.4558     1.2707     1.3300    36.5363     2.3301     4.3632    -0.1362
 1268.0960    11.9789    66.8504   -11.2683     1.4250     1.2619     1.1783    36.8630     2.3356     3.4805    -0.1462
 1268.2480    10.8533    69.1779   -11.1131     1.3847     1.2006     1.1294    39.4688     2.3107     3.1725    -0.1350
 1268.4010    10.7310    71.0333   -10.8049     1.3362     1.1588     1.1543    39.4687     2.3231     3.4179    -0.1455
 1268.5530    10.3460    72.8956   -10.6502     1.2984     1.1426     1.0829    40.0756     2.3076     3.7094    -0.1470
 1268.7060    10.3623    73.5985   -10.4958     1.2619     1.1267     1.1719    41.3306     2.2944     4.1144    -0.1492
 1268.8580    10.4093    73.1450   -10.3413     1.2352     1.1190     1.1557    40.4457     2.2757     4.3634    -0.1691
 1269.0100    10.2867    73.1556   -10.1867     1.2265     1.1112     1.1397    40.0731     2.2951     4.5838    -0.1678
 1269.1630    10.1950    73.6268   -10.1865     1.2268     1.1035     1.1816    39.8410     2.2959     4.8753    -0.1632
 1269.3150    10.2423    74.3307   -10.0314     1.2269     1.0882     1.1822    39.2824     2.3013     5.1364    -0.1601
 1269.4680    10.1814    73.6457    -9.7230     1.2096     1.0885     1.2342    40.2133     2.2920     5.2972    -0.1729
 1269.6200    10.1204    74.3496    -9.5685     1.2011     1.0887     1.1745    41.0046     2.3075     5.3752    -0.1555
 1269.7720    10.0285    75.5171    -9.5682     1.1927     1.0812     1.1500    41.3304     2.3316     4.9403    -0.1424
 1269.9250     9.9984    75.7555    -9.5680     1.1929     1.0661     1.1754    41.2372     2.3075     4.0615    -0.1652
 1270.0770     9.9068    75.3018    -9.7221     1.1845     1.0513     1.1346    40.0724     2.2881     4.2201    -0.1745
 1270.2300     9.8150    75.0799    -9.7218     1.1763     1.0366     1.1432    39.1425     2.2756     4.1706    -0.1759
 1270.3820     9.8314    75.3227    -9.5673     1.1680     1.0295     1.1355    39.0960     2.2873     3.7414    -0.1694
 1270.5340     9.8786    72.5534    -9.5670     1.1597     1.0079     1.1360    40.2628     2.2919     3.1808    -0.1648
 1270.6870     9.8949    72.0971    -9.5668     1.1272     0.9938     1.1283    41.7026     2.2966     2.8353    -0.1635
 1270.8390     9.8647    72.5695    -9.5666     1.1113     0.9799     1.1207    41.5626     2.3136     2.9159    -0.1656
 1270.9920     9.7577    71.6530    -9.5664     1.0956     0.9594     1.0974    41.3767     2.3331     2.9191    -0.1562
 1271.1440     9.6351    73.5162    -9.5661     1.0724     0.9528     1.0822    41.7490     2.3222     2.9222    -0.1693
 1271.2960     9.5125    73.7572    -9.5659     1.0648     0.9396     1.0522    41.6559     2.3260     2.9257    -0.1551
 1271.4490     9.5596    73.5332    -9.5657     1.0727     0.9330     1.0754    41.7955     2.3291     2.9285    -0.1491
 1271.6010     9.6998    72.6179    -9.2561     1.0884     0.9333     1.0380    42.3104     2.3058     2.9601    -0.1531
 1271.7540    10.0550    72.1632    -8.7936     1.0964     0.9402     1.0164    44.1228     2.3105     3.1063    -0.1577
 1271.9060    10.1330    72.6375    -8.7933     1.1045     0.9540     1.0463    44.3090     2.2981     3.2490    -0.1498
 1272.0580    10.1815    71.7192    -8.9475     1.1047     0.9679     1.1245    43.7947     2.2957     3.4318    -0.1523
 1272.2110    10.7057    73.5823    -8.9472     1.1048     0.9682     1.2165    43.0056     2.3252     3.8195    -0.1498
 1272.3630    10.4442    73.3586    -8.6380     1.1050     0.9546     1.0625    42.6795     2.3190     4.1639    -0.1585
 1272.5160    10.6148    71.7494    -8.3294     1.0972     0.9346     0.9826    42.4935     2.3236     4.5040    -0.1474
 1272.6680    11.1712    71.5255    -8.3291     1.0974     0.9349     1.0261    42.1211     2.3376     4.6667    -0.1444
 1272.8200    11.2196    71.7683    -8.0194     1.0820     0.9555     1.0487    42.0280     2.3111     4.8203    -0.1547
 1272.9730    11.6204    71.7758    -7.7114     1.0667     0.9763     1.0196    43.3778     2.2895     4.8235    -0.1539
 1273.1250    11.6834    71.7853    -7.8658     1.0669     0.9765     1.0495    41.9331     2.2724     4.7111    -0.1654
 1273.2780    12.0543    71.7947    -8.0196     1.0442     0.9425     0.9987    40.6314     2.2832     4.5969    -0.1459
 1273.4300    12.2401    71.3393    -8.0194     1.0295     0.9293     1.0504    40.5849     2.2894     4.8843    -0.1560
 1273.5820    12.1791    70.6551    -8.0192     1.0297     0.9296     1.0967    40.2585     2.3104     5.0334    -0.1454
 1273.7350    12.3961    70.2008    -8.1733     1.0299     0.9298     1.0362    40.0728     2.3212     4.8864    -0.1381
 1273.8870    12.3507    69.9788    -8.3274     1.0153     0.9300     1.0292    40.4471     2.3228     5.0755    -0.1371
 1274.0400    13.4935    69.9901    -8.3271     1.0155     0.9369     1.0444    41.7484     2.3197     5.4800    -0.1473
 1274.1920    13.7876    69.0736    -8.3268     1.0083     0.9643     1.0599    42.6328     2.2948     5.3886    -0.1517
 1274.3440    12.4920    67.2312    -8.3262     1.0013     0.9576     1.0603    43.2844     2.2855     4.9614    -0.1528
 1274.4970    12.6935    69.0925    -8.1721     0.9942     0.9309     1.0760    43.2379     2.2886     5.0106    -0.1651
 1274.6490    12.3085    71.8811    -8.1718     0.9873     0.9245     1.0313    42.8655     2.2886     5.6525    -0.1558
 1274.8020    12.6027    73.2781    -8.1716     0.9875     0.9314     0.9954    42.8189     2.3080     6.3925    -0.1473
 1274.9540    12.7270    72.3616    -8.1713     1.0019     0.9316     1.0030    43.0050     2.3165     6.2625    -0.1422
 1275.1060    12.7433    73.2984    -7.8621     1.0021     0.9318     0.9822    42.9118     2.3321     5.6444    -0.1216
 1275.2590    12.5590    73.7694    -7.7079     1.0022     0.9320     1.0255    42.8653     2.3506     5.3135    -0.1129
 1275.4110    13.1778    73.3115    -7.7077     1.0024     0.9256     1.0406    42.9118     2.3413     4.9566    -0.1180
 1275.5640    13.8414    72.8586    -7.8618     0.9882     0.9192     0.9903    42.4929     2.3040     4.8421    -0.1561
 1275.7160    12.4841    72.8699    -8.0160     0.9743     0.9261     1.0340    41.7481     2.3118     5.0361    -0.1422
 1275.8680    12.9046    71.0259    -8.1700     0.9605     0.9330     1.0643    42.3552     2.3320     5.2876    -0.1358
 1276.0210    14.1372    70.3406    -8.0154     0.9538     0.9265     0.9985    43.1910     2.3374     6.4698    -0.1465
