~VERSION INFORMATION
 VERS.               1.20:   CWLS LOG ASCII STANDARD - VERSION 1.20
 WRAP.                 NO:   ONE LINE PER DEPTH STEP
~WELL INFORMATION
#MNEM.UNIT      DATA TYPE    INFORMATION
#----------   ------------   ------------------------------
 STRT.M          500.1524:   START DEPTH
 STOP.M         2803.2212:   STOP DEPTH
 STEP.M            0.1524:   STEP LENGTH
 NULL.          -999.2500:   NO VALUE
 COMP.            COMPANY:   PERTAMINA
 WELL.               WELL:   CMS-005
 WBN .            CMS-005:   WELLBORE
 FLD .              FIELD:   CEMARA SELATAN
 LOC .           LOCATION:   X = - 15283.31  Y = + 8483.38
 PROV.           PROVINCE:   JAWA BARAT
 STAT.              STATE:   INDONESIA
 SRVC.    SERVICE COMPANY:   SCHLUMBERGER
 DATE.            LOGDATE:   01/24/78
 APIN.         API NUMBER:   -
 UWI .  CEMARASELATAN-005:   UNIQUE WELL ID 
~CURVE INFORMATION
#MNEM.UNIT       API CODE    CURVE DESCRIPTION
#----------   ------------   ------------------------------
 DEPT.M                  :
 CALI.inch   60 280 00 00:   Caliper
 GR  .GAPI   42 310 00 00:   Gamma Ray
 SP  .mV     60 010 01 00:   Spontaneous Potential
 ILD .ohmm   05 070 46 00:   Induction Laterolog, Deep
 SN  .ohmm   05 040 16 00:   Short Normal 16"
 PROX.ohmm   21 270 30 00:   Proximity Log
 NPHI.%      42 890 03 00:   Neu. Porosity, Ss [%]
 RHOB.kg/cm3 42 350 01 00:   Bulk Density
 CBL .mV     81 524 00 00:   Cement Bond Log
 DRHO.kg/m3  42 356 01 00:   Density Correction
~PARAMETER INFORMATION
#MNEM.UNIT          VALUE    DESCRIPTION
#----------   ------------   ------------------------------
 EKB .M            0.0000:   Kelly bushing
 EGL .M            4.7500:   Ground level
 EDF .M           10.0000:   Drilling floor
 EPD .M           10.0000:   Permanent datum
 TD  .M         2793.0000:   Total depth
 DF  .      CONGLONGMERAT:   Deepest formation
 PROJ.       SCHLUMBERGER:   Project
 DATE.           01/24/78:   Date logged
 DD  .Mtr            2793:   Depth driller
 DL  .Mtr          2762.3:   Depth logger
 BLI .Mtr            2762:   Bottom log interval
 TLI .Mtr             500:   Top log interval
 CSS .Inch             7":   Casing size
 CTD1.Mtr     7" @ 2581,7:   Casing driller 1
 CTL1.Mtr          2581,7:   Casing logger 1
 BS  .Inch          6 1/8:   Bit size
 DFT .           Spersene:   Type fluid in hole
 DFD .G/c3           1.18:   Density
 DFV .Sec              58:   Viscosity
 COL .Inch           6-16:   Column depth/dia.
 DFPH.                 10:   pH
 DFL .Ml             2.75:   Fluid loss
 WSS .           Flowline:   Source of sample
 RM  .Ohmm           1.07:   Rm
 EMT .Degf 1.07 ohmm @ 83:   Rm Meas. temp.
 RMF .Ohmm           0.57:   Rmf
 MFT .Degf 0.57 ohmm @ 83:   Rmf Meas. temp.
 RMC .Ohmm           1.78:   Rmc
 MCST.Degf 1.78 ohmm @ 83:   Rmc Meas. temp.
 MFSS.              Press:   Source Rmf.
 MCSS.              Press:   Source Rmc.
 RMB .Degf 0.4 ohmm @ 232:   Rm. at BHT
 BHT .Degf            232:   BHT.
 TCS .Hrs               7:   Time Circ. stopped
 MRT .Degf            232:   Maximum recorded temp.
 LUN .               4618:   Logging unit number
 LUL .                WJV:   Logging unit location
 ENGI.           M. Akbar:   Recorded By
 WITN.           M.Dasuki:   Witnessed by
 RE1 .       ILD  (6FF40):   Res. Electrode #1
 RE2 .      SN   (A-16"M):   Res. Electrode #2
 DATE.           02/16/78:   Date logged
 DATE.           03/13/78:   Date logged
 DD  .Mtr            1260:   Depth driller
 DD  .Mtr            2610:   Depth driller
 DL  .Mtr            1260:   Depth logger
 DL  .Mtr            2610:   Depth logger
 BLI .Mtr            1260:   Bottom log interval
 BLI .Mtr          2605.8:   Bottom log interval
 TLI .Mtr             500:   Top log interval
 TLI .Mtr          1254.5:   Top log interval
 CSS .Inch         13 3/8:   Casing size
 CSS .Inch          9 5/8:   Casing size
 CTD1.Mtr             500:   Casing driller 1
 CTD1.Mtr            1254:   Casing driller 1
 CTL1.Mtr             500:   Casing logger 1
 CTL1.Mtr          1254.5:   Casing logger 1
 BS  .Inch         12 1/4:   Bit size
 BS  .Inch          8 5/8:   Bit size
 DFT .           spersene:   Type fluid in hole
 DFT .           spersene:   Type fluid in hole
 DFD .G/c3           1.12:   Density
 DFD .G/c3           1.18:   Density
 DFV .Sec              47:   Viscosity
 DFV .Sec              58:   Viscosity
 DFPH.                  9:   pH
 DFPH.                 10:   pH
 DFL .Ml              5.5:   Fluid loss
 DFL .Ml             2.75:   Fluid loss
 WSS .           flowline:   Source of sample
 WSS .           flowline:   Source of sample
 RM  .Ohmm           1.19:   Rm
 RM  .Ohmm           1.07:   Rm
 EMT .Degf             80:   Rm Meas. temp.
 EMT .Degf             83:   Rm Meas. temp.
 RMF .Ohmm            0.8:   Rmf
 RMF .Ohmm           0.57:   Rmf
 MFT .Degf             80:   Rmf Meas. temp.
 MFT .Degf             83:   Rmf Meas. temp.
 RMC .Ohmm           1.52:   Rmc
 RMC .Ohmm           1.78:   Rmc
 MCST.Degf             80:   Rmc Meas. temp.
 MCST.Degf             83:   Rmc Meas. temp.
 MFSS.                  p:   Source Rmf.
 MFSS.                  p:   Source Rmf.
 MCSS.                  p:   Source Rmc.
 MCSS.                  p:   Source Rmc.
 RMB .Degf 0.63 ohmm @ 150:   Rm. at BHT
 RMB .Degf 0.4 ohmm @ 232:   Rm. at BHT
 BHT .Degf            150:   BHT.
 BHT .Degf            232:   BHT.
 TCS .Hrs               3:   Time Circ. stopped
 TCS .Hrs               7:   Time Circ. stopped
 MRT .Degf            150:   Maximum recorded temp.
 MRT .Degf            232:   Maximum recorded temp.
 LUN .               4618:   Logging unit number
 LUN .               4618:   Logging unit number
 LUL .                wjv:   Logging unit location
 LUL .                wjv:   Logging unit location
 ENGI.           M. Akbar:   Recorded By
 ENGI.           M. Akbar:   Recorded By
 WITN.            Y. Rais:   Witnessed by
 WITN.          M. Dasuki:   Witnessed by
 RE1 .                ILD:   Res. Electrode #1
 RE1 .                ILD:   Res. Electrode #1
 RE2 .                 SN:   Res. Electrode #2
 RE2 .                 SN:   Res. Electrode #2
 TLAB.hh:mm             3:   Time Logger At Bottom
 TLAB.hh:mm             7:   Time Logger At Bottom
 TLAB.hh:mm             7:   Time Logger At Bottom
 DGBY.            Sukarna:   Digitized By
 DGBY.            Sukarna:   Digitized By
 DGBY.            Sukarna:   Digitized By
~T 1 Tops
D1(1453-1455)                    1453.0
~OTHER INFORMATION
# Bridleless tool, Log was correlated with cs. run no.3 4M too deep compared with run.2
~A  DEPTH     CALI         GR         SP        ILD         SN       PROX       NPHI       RHOB        CBL       DRHO
# ...
 1572.2860    17.9526    65.5651    -4.7018     1.1068     0.9642     0.9464    41.7233     2.3339     6.7463    -0.1789
 1572.4390    17.8918    65.5811    -4.5421     1.1072     0.9645     1.0093    40.8853     2.3300     7.9964    -0.1661
 1572.5910    18.0171    67.9244    -4.2288     1.1076     0.9443     0.9741    39.6252     2.3424    12.2376    -0.1646
 1572.7440    17.3678    68.8690    -4.2231     1.1159     0.9378     1.0169    38.6937     2.3362     8.0214    -0.1795
 1572.8960    17.0899    68.1874    -4.6803     1.1082     0.9314     1.0845    37.3423     2.3432     7.0717    -0.1739
 1573.0480    17.4489    67.9677    -4.5193     1.1087     0.9385     1.0924    37.1992     2.3494     5.5837    -0.1763
 1573.2010    17.6514    68.2195    -4.2058     1.1091     0.9659     0.9886    37.4298     2.3354     5.3124    -0.1779
 1573.3530    17.1878    68.2360    -4.2000     1.0937     0.9801     1.0102    37.7970     2.3059     5.9648    -0.1683
 1573.5060    17.2978    68.7167    -4.1942     1.0861     0.9734     0.8822    37.8869     2.3090     6.8103    -0.1690
 1573.6580    17.1908    68.2671    -4.0341     1.0944     0.9463     0.9613    38.0685     2.2911     7.7922    -0.1865
 1573.8100    17.3013    66.4206    -4.0280     1.1027     0.9331     1.0035    38.2057     2.2989     8.7733    -0.1942
 1573.9630    17.4729    65.2733    -3.8683     1.0952     0.9401     0.9547    38.8513     2.2958     9.4505    -0.1844
 1574.1150    17.4121    67.3868    -3.7082     1.0877     0.9404     0.9617    39.5463     2.3090     9.4639    -0.1733
 1574.2680    17.1969    68.3286    -3.8579     1.0803     0.9340     0.9827    40.6566     2.3129    10.1509    -0.1639
 1574.4200    16.9963    68.1089    -4.0064     1.0653     0.9276     0.9483    41.6290     2.3098    10.7585    -0.1588
 1574.5720    17.1066    67.8924    -4.1550     1.0504     0.9279     0.8831    42.5581     2.2989    11.0153    -0.1705
 1574.7250    16.9996    69.0712    -4.1481     1.0433     0.9349     0.9285    43.8526     2.2896    10.8780    -0.1817
 1574.8770    16.9078    68.1584    -4.1423     1.0287     0.9351     0.9353    44.5468     2.2849    10.4753    -0.1904
 1575.0300    17.0957    67.0135    -4.1377     1.0217     0.9354     0.9027    42.6370     2.2895    10.0939    -0.1968
 1575.1820    17.1747    65.6310    -4.1319     1.0002     0.9357     0.9356    41.5644     2.2965    10.1739    -0.1827
 1575.3340    17.0826    67.7432    -4.2816     0.9934     0.9359     0.9560    41.8400     2.3074    10.6424    -0.1674
 1575.4870    16.8677    67.7593    -4.2747     0.9939     0.9429     0.9426    41.9762     2.3160    10.4053    -0.1793
 1575.6390    16.5520    68.0089    -4.1146     0.9942     0.9432     0.9227    41.3675     2.3051    10.7277    -0.1847
 1575.7920    16.0624    68.9542    -4.1088     0.9946     0.9435     0.9033    40.4817     2.3129    10.7026    -0.1679
 1575.9440    15.7264    70.8309    -4.1031     1.0021     0.9506     0.9634    40.2929     2.3408     9.7734    -0.1604
 1576.0960    15.6185    71.7770    -4.0973     1.0170     0.9509     0.9364    40.7069     2.3478    10.4900    -0.1699
 1576.2490    15.5266    71.5572    -4.0915     1.0246     0.9511     0.9569    40.2850     2.3299    11.2167    -0.1804
 1576.4010    15.5587    70.1767    -3.9310     1.0324     0.9514     0.9367    40.0497     2.3292    11.9505    -0.1761
 1576.5540    15.5284    69.2605    -3.6170     1.0477     0.9517     0.9105    40.6030     2.3198    13.1800    -0.1806
 1576.7060    16.0721    69.5123    -3.4569     1.0633     0.9657     1.0281    40.4135     2.3253    14.4472    -0.1906
 1576.8580    16.2593    70.4586    -3.4512     1.0868     0.9729     1.0208    39.8962     2.3268    13.5032    -0.1919
 1577.0110    16.3218    68.6142    -3.4454     1.1029     0.9801     0.9508    38.8726     2.3338    13.6035    -0.1654
 1577.1630    15.9190    66.5361    -3.4396     1.1355     1.0017     1.0589    38.7283     2.3734    14.7654    -0.1521
 1577.3160    15.4091    65.8524    -3.4339     1.1606     1.0310     1.3786    37.9823     2.3913    14.7249    -0.1423
 1577.4680    15.4408    67.0344    -3.5836     1.1949     1.0537     1.2477    36.3520     2.4053    13.5487    -0.1325
 1577.6200    16.6052    65.8828    -3.5778     1.2214     1.0465     1.1131    36.0238     2.3842    12.4543    -0.1625
 1577.7730    16.8843    64.0432    -3.5720     1.2483     1.0468     1.1053    36.9954     2.3595    11.3628    -0.1573
 1577.9250    16.5753    62.1988    -3.5662     1.2398     1.0472     1.1055    36.8995     2.3462    10.4922    -0.1556
 1578.0780    17.6150    63.1435    -3.5605     1.2313     1.0400     1.0593    36.8038     2.3431    10.1051    -0.1609
 1578.2300    17.8483    65.4836    -3.5547     1.2056     1.0329     1.0223    37.4501     2.3494     9.0182    -0.1464
 1578.3820    17.6632    66.1972    -3.8587     1.1718     1.0332     1.0521    37.7272     2.3276     7.2223    -0.1551
 1578.5350    17.9278    65.7482    -3.8518     1.1638     1.0336     1.0154    38.3723     2.3183     5.9811    -0.1604
 1578.6870    17.0450    66.9290    -3.8460     1.1643     1.0339     0.9730    39.3448     2.3066     5.2407    -0.1666
 1578.8400    17.2785    68.5710    -3.8403     1.1647     1.0416     0.9662    39.4348     2.3260     4.7259    -0.1762
 1578.9920    17.4653    69.7502    -3.8345     1.1820     1.0419     0.9873    39.3375     2.3392     4.6366    -0.1859
 1579.1440    17.5437    70.6961    -3.8287     1.1909     1.0422     1.0380    39.6127     2.3315     4.3995    -0.1975
 1579.2970    17.3586    70.7121    -3.8230     1.1827     1.0575     1.0162    38.4937     2.3431     3.9332    -0.1702
 1579.4490    16.8787    69.3297    -3.6627     1.1832     1.0578     0.9948    36.3984     2.3532     3.4728    -0.1635
 1579.6020    17.0038    67.2558    -3.5028     1.1836     1.0657     1.0164    36.2556     2.3579     3.3246    -0.1729
 1579.7540    16.5241    66.8035    -3.4970     1.1926     1.0661     1.1155    36.2984     2.3602     3.2138    -0.1859
 1579.9060    15.4706    67.5173    -3.3377     1.1930     1.0740     1.2068    36.1554     2.3486     3.3977    -0.1855
 1580.0590    15.7506    67.5333    -3.1780     1.1934     1.0801     1.1158    37.3137     2.3680     3.7745    -0.1819
 1580.2110    15.5489    68.2479    -3.0178     1.2111     1.0961     1.1649    36.6596     2.3618     4.2710    -0.1908
 1580.3640    14.4501    69.1933    -2.8578     1.2290     1.1124     1.2334    36.0995     2.3781     4.7201    -0.1729
 1580.5160    13.5828    69.9070    -2.6977     1.2562     1.1208     1.0849    36.6993     2.3905     5.2249    -0.1548
 1580.6680    12.8705    68.9928    -2.6920     1.2658     1.1213     1.0248    36.5090     2.3835     5.8377    -0.1496
 1580.8210    13.6466    70.6368    -2.6862     1.2845     1.1298     1.0104    36.2273     2.3796     6.7819    -0.1538
 1580.9730    14.5787    71.5831    -2.8361     1.3036     1.1384     1.1657    36.2713     2.3897     7.1940    -0.1384
 1581.1260    15.3229    70.6657    -2.9844     1.3134     1.1553     1.1742    36.6384     2.3804     6.8602    -0.1585
 1581.2780    15.5561    70.4523    -3.1330     1.3329     1.1725     1.1092    37.1460     2.3858     7.3967    -0.1542
 1581.4300    15.4949    70.2326    -3.2804     1.3527     1.1984     1.0936    36.8136     2.3936     7.5738    -0.1443
 1581.5830    15.8836    70.7170    -3.2755     1.3728     1.2162     1.1336    35.3262     2.3897     6.5858    -0.1392
 1581.7350    15.9465    70.0309    -3.2689     1.3831     1.2342     1.1500    34.0674     2.3959     6.6247    -0.1408
 1581.8880    15.7148    69.1212    -3.4174     1.3936     1.2436     1.1258    33.8317     2.4115     8.9212    -0.1348
 1582.0400    14.5685    67.7387    -3.4116     1.4042     1.2620     1.2533    33.9211     2.4060     3.8881    -0.1509
 1582.1920    13.5454    68.4524    -3.5602     1.3945     1.2808     1.1506    34.1968     2.3967     4.5186    -0.1339
 1582.3450    13.2678    68.0033    -3.4013     1.3850     1.2813     1.1344    34.3793     2.4169     4.4097    -0.1224
