~Version Information
VERS  .          2.0                              :CWLS Log Ascii Standard - Version 2.0
WRAP  .          NO                               :One line per depth step
~Well Information Block
#MNEM.UNIT       Data Type                        Information
#---------       ---------                        -------------------------------
STRT  .M         1250.29000                       :START DEPTH
STOP  .M         2514.44800                       :STOP DEPTH
STEP  .M          0.15240                         :INCREMENT
NULL  .          -999.25                          :NULL DATA VALUE
COMP  .          PERTAMINA                        :COMPANY
WELL  .          CMS-008A                         :WELL
WBN   .          CMS-008A                         :WELLBORE
FLD   .          CEMARA SELATAN                   :FIELD
LOC   .                                           :LOCATION
PROV  .          INDONESIA                        :PROVINCE
STAT  .          INDONESIA                        :STATE
CNTY  .                                           :COUNTY
CTRY  .                                           :COUNTRY
DATE  .                                           :DATE
UWI   .          CEMARASELATAN-CMS-008A           :UNIQUE WELL UWI
LIC   .                                           :LICENSE NUMBER
API   .                                           :API NUMBER
SRVC  .                                           :SERVICE COMPANY
~Parameter Information Block
#MNEM.UNIT       Value                            Description
#---------       ---------                        -------------
LONG  .DEG       108.170925                       :Well Surface Location
LATI  .DEG       -6.422847                        :Well Surface Location
XWELL .M         187032.710000                    :X-coordinate of Well Head
YWELL .M         9289187.741000                   :Y-coordinate of Well Head
~Curve Information Block
#MNEM.UNIT       API Code            Curve    Description
#--------        --------------      -----    -------------------
DEPT  .M                             :0       Index
KGAS  .MD                            :1       Permeability to Gas           
KINT  .MD                            :2       Intrinsic Permeability        
KOIL  .MD                            :3       Permeability to Oil           
KWTR  .MD                            :4       Permeability to Water         
PHIT  .V/V                           :5       Total Porosity_ includes all forms of porosity, including that occupied by bound fluids, and is independent of rock and fluid materials and of environmental effects
PHTT  .V/V                           :6       Theoretical PHIT Value        
PIGE  .V/V                           :7       Effective Porosity Less Irreducible Water
PIGN  .V/V                           :8       Effective Porosity, VISO, VPAR, and Bound Water Removed
RHGA  .G/C3                          :9       Apparent Grain Density        
SUWI  .V/V                           :10      Non-Clay Water Intergranular Water Saturation for Undisturbed Zone
VCLC  .V/V                           :11      Volume of Calcite Relative to Total Volume
VCOA  .V/V                           :12      Volume of Coal Relative to Total Volume
VDOL  .V/V                           :13      Volume of Dolomite Relative to Total Volume
VFEL  .V/V                           :14      Volume of Feldspar Relative to Total Volume
VILL  .V/V                           :15      Volume of Illite (dry) Relative to Total Volume
VMHY  .V/V                           :16      Volume of Moved Hydrocarbon Relative to Total Volume
VORT  .V/V                           :17      Volume of Orthoclase Relative to Total Volume
VQUA  .V/V                           :18      Volume of Quartz Relative to Total Volume
VUGA  .V/V                           :19      Volume of Gas in Undisturbed Zone
VUOI  .V/V                           :20      Volume of Oil in Undisturbed Zone
VUWA  .V/V                           :21      Volume of Water in Undisturbed Zone
VXBW  .V/V                           :22      Volume of Bound Water in Flushed Zone
VXGA  .V/V                           :23      Volume of Gas in Flushed Zone 
VXOI  .V/V                           :24      Volume of Oil in Flushed Zone 
VXWA  .V/V                           :25      Volume of Water in Flushed Zone
~Ascii Data Section
# ...
   2252.77720       0.00100       0.01000       0.00100       0.01000       0.04415       0.04464       0.04170       0.04170       2.71411       0.94746       0.93162       0.00000       0.00000       0.00000       0.02423      -0.01772       0.00000       0.00000       0.00224       0.00000       0.03946       0.00245       0.01888       0.00107       0.02174 
   2252.92960       0.00100       0.01000       0.00100       0.01000       0.04443       0.04403       0.04259       0.04259       2.71308       0.99492       0.93746       0.00000       0.00000       0.00000       0.01811      -0.01983       0.00000       0.00000       0.00021       0.00000       0.04238       0.00184       0.01919       0.00085       0.02255 
   2253.08200       0.00100       0.01000       0.00100       0.01000       0.04666       0.04497       0.04570       0.04570       2.71161       1.00000       0.94388       0.00000       0.00000       0.00000       0.00946      -0.02073       0.00000       0.00000       0.00000       0.00000       0.04570       0.00096       0.01989       0.00084       0.02498 
   2253.23440       0.00100       0.01000       0.00100       0.01000       0.04851       0.04629       0.04787       0.04787       2.71108       1.00000       0.94518       0.00000       0.00000       0.00000       0.00631      -0.02149       0.00000       0.00000       0.00000       0.00000       0.04787       0.00064       0.02060       0.00089       0.02638 
   2253.38680       0.00100       0.01000       0.00100       0.01000       0.04855       0.04718       0.04727       0.04727       2.71215       1.00000       0.93886       0.00000       0.00000       0.00000       0.01259      -0.02153       0.00000       0.00000       0.00000       0.00000       0.04727       0.00128       0.02066       0.00088       0.02574 
   2253.53920       0.00100       0.01000       0.00100       0.01000       0.05182       0.05097       0.04984       0.04984       2.71334       1.00000       0.92865       0.00000       0.00000       0.00000       0.01953      -0.02461       0.00000       0.00000       0.00000       0.00000       0.04984       0.00198       0.02350       0.00111       0.02523 
   2253.69160       0.00100       0.01000       0.00100       0.01000       0.05335       0.05357       0.05032       0.05032       2.71511       1.00000       0.91682       0.00000       0.00000       0.00000       0.02983      -0.02693       0.00000       0.00000       0.00000       0.00000       0.05032       0.00302       0.02571       0.00122       0.02340 
   2253.84400       0.00100       0.01000       0.00100       0.01000       0.05238       0.05445       0.04806       0.04806       2.71731       1.00000       0.90489       0.00000       0.00000       0.00000       0.04273      -0.02629       0.00000       0.00000       0.00000       0.00000       0.04806       0.00433       0.02522       0.00107       0.02176 
   2253.99640       0.00100       0.01000       0.00100       0.01000       0.05215       0.05605       0.04636       0.04636       2.71978       1.00000       0.89068       0.00000       0.00000       0.00000       0.05717      -0.02716       0.00000       0.00000       0.00000       0.00000       0.04636       0.00579       0.02618       0.00097       0.01920 
   2254.14880       0.00100       0.01000       0.00100       0.01000       0.05369       0.05955       0.04658       0.04658       2.72204       1.00000       0.87608       0.00000       0.00000       0.00000       0.07023      -0.02589       0.00000       0.00000       0.00000       0.00000       0.04658       0.00711       0.02504       0.00085       0.02068 
   2254.30120       0.00100       0.01000       0.00100       0.01000       0.05118       0.05732       0.04435       0.04435       2.72151       1.00000       0.88148       0.00000       0.00000       0.00000       0.06734      -0.02102       0.00000       0.00000       0.00000       0.00000       0.04435       0.00682       0.02052       0.00050       0.02333 
   2254.45360       0.00100       0.01000       0.00100       0.01000       0.05251       0.05788       0.04653       0.04653       2.72010       1.00000       0.88851       0.00000       0.00000       0.00000       0.05898      -0.01838       0.00000       0.00000       0.00000       0.00000       0.04653       0.00598       0.01800       0.00038       0.02815 
   2254.60600       0.00100       0.01000       0.00100       0.01000       0.05611       0.06089       0.05065       0.05065       2.71926       1.00000       0.88999       0.00000       0.00000       0.00000       0.05390      -0.01773       0.00000       0.00000       0.00000       0.00000       0.05065       0.00546       0.01731       0.00042       0.03291 
   2254.75840       0.00100       0.01000       0.00100       0.01000       0.05926       0.06403       0.05393       0.05393       2.71907       1.00000       0.88815       0.00000       0.00000       0.00000       0.05259      -0.01659       0.00000       0.00000       0.00000       0.00000       0.05393       0.00533       0.01618       0.00041       0.03734 
   2254.91080       0.00100       0.01359       0.00100       0.01359       0.07231       0.07446       0.06858       0.06858       2.71643       1.00000       0.89091       0.00000       0.00000       0.00000       0.03678      -0.02012       0.00000       0.00000       0.00000       0.00000       0.06858       0.00373       0.01925       0.00087       0.04846 
   2255.06320       0.00100       0.01390       0.00100       0.01390       0.07520       0.07764       0.07132       0.07132       2.71672       1.00000       0.88648       0.00000       0.00000       0.00000       0.03832      -0.01954       0.00000       0.00000       0.00000       0.00000       0.07132       0.00388       0.01870       0.00083       0.05178 
   2255.21560       0.00100       0.01609       0.00100       0.01609       0.07932       0.08277       0.07502       0.07502       2.71747       1.00000       0.87828       0.00000       0.00000       0.00000       0.04241      -0.01629       0.00000       0.00000       0.00000       0.00000       0.07502       0.00430       0.01571       0.00058       0.05873 
   2255.36800       0.00100       0.02321       0.00100       0.02321       0.08643       0.08955       0.08232       0.08232       2.71722       1.00000       0.87293       0.00000       0.00000       0.00000       0.04064      -0.01688       0.00000       0.00000       0.00000       0.00000       0.08232       0.00412       0.01629       0.00060       0.06543 
   2255.52040       0.00100       0.02837       0.00100       0.02837       0.08977       0.09200       0.08606       0.08606       2.71653       1.00000       0.87358       0.00000       0.00000       0.00000       0.03665      -0.01940       0.00000       0.00000       0.00000       0.00000       0.08606       0.00371       0.01861       0.00079       0.06666 
   2255.67280       0.00100       0.02430       0.00100       0.02430       0.08833       0.09132       0.08397       0.08397       2.71765       1.00000       0.86869       0.00000       0.00000       0.00000       0.04298      -0.01990       0.00000       0.00000       0.00000       0.00000       0.08397       0.00435       0.01925       0.00065       0.06407 
   2255.82520       0.00100       0.01813       0.00100       0.01813       0.08556       0.09061       0.08003       0.08003       2.71969       1.00000       0.85979       0.00000       0.00000       0.00000       0.05465      -0.01662       0.00000       0.00000       0.00000       0.00000       0.08003       0.00554       0.01622       0.00040       0.06341 
   2255.97760       0.00100       0.01522       0.00100       0.01522       0.08645       0.09378       0.07946       0.07946       2.72224       1.00000       0.84465       0.00000       0.00000       0.00000       0.06891      -0.01405       0.00000       0.00000       0.00000       0.00000       0.07946       0.00698       0.01399       0.00005       0.06542 
