~Version Information
VERS  .          2.0                              :CWLS Log Ascii Standard - Version 2.0
WRAP  .          NO                               :One line per depth step
~Well Information Block
#MNEM.UNIT       Data Type                        Information
#---------       ---------                        -------------------------------
STRT  .M         1190.09200                       :START DEPTH
STOP  .M         2429.86500                       :STOP DEPTH
STEP  .M          0.15240                         :INCREMENT
NULL  .          -999.25                          :NULL DATA VALUE
COMP  .                                           :COMPANY
WELL  .          CMS-001                          :WELL
WBN   .          CMS-001                          :WELLBORE
FLD   .          CEMARA SELATAN                   :FIELD
LOC   .                                           :LOCATION
PROV  .                                           :PROVINCE
STAT  .                                           :STATE
CNTY  .                                           :COUNTY
CTRY  .                                           :COUNTRY
DATE  .                                           :DATE
UWI   .          CEMARASELATAN-001                :UNIQUE WELL UWI
LIC   .                                           :LICENSE NUMBER
API   .                                           :API NUMBER
SRVC  .                                           :SERVICE COMPANY
~Parameter Information Block
#MNEM.UNIT       Value                            Description
#---------       ---------                        -------------
LONG  .DEG       108.170925                       :Well Surface Location
LATI  .DEG       -6.422919                        :Well Surface Location
XWELL .M         187032.780005                    :X-coordinate of Well Head
YWELL .M         9289179.840752                   :Y-coordinate of Well Head
~Curve Information Block
#MNEM.UNIT       API Code            Curve    Description
#--------        --------------      -----    -------------------
DEPT  .M                             :0       Index
KGAS  .MD                            :1       Permeability to Gas           
KINT  .MD                            :2       Intrinsic Permeability        
KOIL  .MD                            :3       Permeability to Oil           
KWTR  .MD                            :4       Permeability to Water         
PHIT  .V/V                           :5       Total Porosity_ includes all forms of porosity, including that occupied by bound fluids, and is independent of rock and fluid materials and of environmental effects
PHTT  .V/V                           :6       Theoretical PHIT Value        
PIGE  .V/V                           :7       Effective Porosity Less Irreducible Water
PIGN  .V/V                           :8       Effective Porosity, VISO, VPAR, and Bound Water Removed
RHGA  .G/C3                          :9       Apparent Grain Density        
SUWI  .V/V                           :10      Non-Clay Water Intergranular Water Saturation for Undisturbed Zone
VCHL  .V/V                           :11      Volume of Chlorite Relative to Total Volume
VCL   .V/V                           :12      Volume of Clay Type Material Relative to Total Volume
VCLC  .V/V                           :13      Volume of Calcite Relative to Total Volume
VCOA  .V/V                           :14      Volume of Coal Relative to Total Volume
VDOL  .V/V                           :15      Volume of Dolomite Relative to Total Volume
VFEL  .V/V                           :16      Volume of Feldspar Relative to Total Volume
VIGN  .V/V                           :17      Volume of Igneous Rock Relative to Total Volume
VILL  .V/V                           :18      Volume of Illite (dry) Relative to Total Volume
VMHY  .V/V                           :19      Volume of Moved Hydrocarbon Relative to Total Volume
VQUA  .V/V                           :20      Volume of Quartz Relative to Total Volume
VUGA  .V/V                           :21      Volume of Gas in Undisturbed Zone
VUOI  .V/V                           :22      Volume of Oil in Undisturbed Zone
VUWA  .V/V                           :23      Volume of Water in Undisturbed Zone
VXBW  .V/V                           :24      Volume of Bound Water in Flushed Zone
VXGA  .V/V                           :25      Volume of Gas in Flushed Zone 
VXOI  .V/V                           :26      Volume of Oil in Flushed Zone 
VXWA  .V/V                           :27      Volume of Water in Flushed Zone
~Ascii Data Section
# ...
   1852.57480       0.00100       0.01000       0.00100       0.01000       0.02982       0.02958       0.02982       0.02982       2.71000       1.00000       0.00000       0.00001       0.97017       0.00000       0.00000       0.00000       0.00000       0.00001      -0.00164       0.00000       0.00000       0.00000       0.02982       0.00000       0.00164       0.00000       0.02818 
   1852.72720       0.00100       0.01000       0.00100       0.01000       0.04013       0.03956       0.04013       0.04013       2.71000       1.00000       0.00000       0.00001       0.95986       0.00000       0.00000       0.00000       0.00000       0.00001      -0.00383       0.00000       0.00000       0.00000       0.04013       0.00000       0.00383       0.00000       0.03631 
   1852.87960       0.00100       0.01000       0.00100       0.01000       0.04169       0.04119       0.04169       0.04169       2.71000       1.00000       0.00000       0.00001       0.95830       0.00000       0.00000       0.00000       0.00000       0.00001      -0.00333       0.00000       0.00000       0.00000       0.04169       0.00000       0.00333       0.00000       0.03836 
   1853.03200       0.00100       0.01000       0.00100       0.01000       0.03711       0.03673       0.03711       0.03711       2.71000       1.00000       0.00000       0.00001       0.96288       0.00000       0.00000       0.00000       0.00000       0.00001      -0.00257       0.00000       0.00000       0.00000       0.03711       0.00000       0.00257       0.00000       0.03454 
   1853.18440       0.00100       0.01000       0.00100       0.01000       0.03403       0.03371       0.03403       0.03403       2.71000       1.00000       0.00000       0.00001       0.96596       0.00000       0.00000       0.00000       0.00000       0.00001      -0.00220       0.00000       0.00000       0.00000       0.03403       0.00000       0.00220       0.00000       0.03183 
   1853.33680       0.00100       0.01000       0.00100       0.01000       0.03144       0.03116       0.03144       0.03144       2.71000       1.00000       0.00000       0.00001       0.96855       0.00000       0.00000       0.00000       0.00000       0.00001      -0.00189       0.00000       0.00000       0.00000       0.03144       0.00000       0.00189       0.00000       0.02956 
   1853.48920       0.00100       0.01000       0.00100       0.01000       0.02964       0.02940       0.02964       0.02964       2.71000       1.00000       0.00000       0.00001       0.97035       0.00000       0.00000       0.00000       0.00000       0.00001      -0.00155       0.00000       0.00000       0.00000       0.02964       0.00000       0.00155       0.00000       0.02808 
   1853.64160       0.00100       0.01000       0.00100       0.01000       0.03026       0.02998       0.03026       0.03026       2.71000       1.00000       0.00000       0.00001       0.96973       0.00000       0.00000       0.00000       0.00000       0.00001      -0.00188       0.00000       0.00000       0.00000       0.03026       0.00000       0.00188       0.00000       0.02838 
   1853.79400       0.00100       0.01000       0.00100       0.01000       0.02943       0.02913       0.02943       0.02943       2.71000       1.00000       0.00000       0.00001       0.97056       0.00000       0.00000       0.00000       0.00000       0.00001      -0.00200       0.00000       0.00000       0.00000       0.02943       0.00000       0.00200       0.00000       0.02743 
   1853.94640       0.00100       0.01000       0.00100       0.01000       0.02243       0.02232       0.02243       0.02243       2.71000       1.00000       0.00000       0.00001       0.97756       0.00000       0.00000       0.00000       0.00000       0.00001      -0.00076       0.00000       0.00000       0.00000       0.02243       0.00000       0.00076       0.00000       0.02167 
   1854.09880       0.00100       0.01000       0.00100       0.01000       0.02036       0.02022       0.02036       0.02036       2.71000       1.00000       0.00000       0.00001       0.97963       0.00000       0.00000       0.00000       0.00000       0.00001      -0.00092       0.00000       0.00000       0.00000       0.02036       0.00000       0.00092       0.00000       0.01944 
   1854.25120       0.00100       0.01000       0.00100       0.01000       0.02213       0.02207       0.02213       0.02213       2.71000       1.00000       0.00000       0.00001       0.97786       0.00000       0.00000       0.00000       0.00000       0.00001      -0.00042       0.00000       0.00000       0.00000       0.02213       0.00000       0.00042       0.00000       0.02171 
   1854.40360       0.00100       0.01000       0.00100       0.01000       0.03456       0.03413       0.03456       0.03456       2.71000       1.00000       0.00000       0.00001       0.96543       0.00000       0.00000       0.00000       0.00000       0.00001      -0.00284       0.00000       0.00000       0.00000       0.03456       0.00000       0.00284       0.00000       0.03172 
   1854.55600       0.00100       0.01000       0.00100       0.01000       0.03824       0.03781       0.03824       0.03824       2.71000       1.00000       0.00000       0.00001       0.96175       0.00000       0.00000       0.00000       0.00000       0.00001      -0.00286       0.00000       0.00000       0.00000       0.03824       0.00000       0.00286       0.00000       0.03538 
   1854.70840       0.00100       0.01000       0.00100       0.01000       0.03142       0.03104       0.03142       0.03142       2.71000       1.00000       0.00000       0.00001       0.96857       0.00000       0.00000       0.00000       0.00000       0.00001      -0.00260       0.00000       0.00000       0.00000       0.03142       0.00000       0.00260       0.00000       0.02882 
   1854.86080       0.00100       0.01000       0.00100       0.01000       0.01922       0.01970       0.01879       0.01879       2.71005       1.00000       0.00000       0.00435       0.97686       0.00000       0.00000       0.00000       0.00000       0.00392      -0.00023       0.00000       0.00000       0.00000       0.01879       0.00043       0.00023       0.00000       0.01856 
   1855.01320       0.00100       0.01000       0.00100       0.01000       0.01510       0.01711       0.01338       0.01338       2.71607       1.00000       0.00000       0.01725       0.92706       0.00000       0.04231       0.00000       0.00000       0.01553       0.00000       0.00000       0.00000       0.00000       0.01338       0.00172       0.00000       0.00000       0.01338 
   1855.16560       0.00100       0.01000       0.00100       0.01000       0.01798       0.02046       0.01586       0.01586       2.71023       1.00000       0.00000       0.02123       0.96290       0.00000       0.00000       0.00000       0.00000       0.01912       0.00000       0.00000       0.00000       0.00000       0.01586       0.00212       0.00000       0.00000       0.01586 
   1855.31800       0.00100       0.01000       0.00100       0.01000       0.02780       0.02944       0.02640       0.02640       2.71015       1.00000       0.00000       0.01406       0.95954       0.00000       0.00000       0.00000       0.00000       0.01266       0.00000       0.00000       0.00000       0.00000       0.02640       0.00140       0.00000       0.00000       0.02640 
   1855.47040       0.00100       0.01000       0.00100       0.01000       0.04349       0.04337       0.04319       0.04319       2.71003       1.00000       0.00000       0.00301       0.95379       0.00000       0.00000       0.00000       0.00000       0.00271      -0.00319       0.00000       0.00000       0.00000       0.04319       0.00030       0.00319       0.00000       0.04000 
   1855.62280       0.00100       0.01000       0.00100       0.01000       0.05178       0.05303       0.04950       0.04950       2.71025       1.00000       0.00000       0.02290       0.92760       0.00000       0.00000       0.00000       0.00000       0.02062      -0.00950       0.00000       0.00000       0.00000       0.04950       0.00228       0.00950       0.00000       0.04000 
