~Version Information
VERS  .          2.0                              :CWLS Log Ascii Standard - Version 2.0
WRAP  .          NO                               :One line per depth step
~Well Information Block
#MNEM.UNIT       Data Type                        Information
#---------       ---------                        -------------------------------
STRT  .M         501.09100                        :START DEPTH
STOP  .M         2801.87400                       :STOP DEPTH
STEP  .M          0.15240                         :INCREMENT
NULL  .          -999.25                          :NULL DATA VALUE
COMP  .          PERTAMINA                        :COMPANY
WELL  .          CMS-005                          :WELL
WBN   .          CMS-005                          :WELLBORE
FLD   .          CEMARA SELATAN                   :FIELD
LOC   .                                           :LOCATION
PROV  .          INDONESIA                        :PROVINCE
STAT  .          INDONESIA                        :STATE
CNTY  .                                           :COUNTY
CTRY  .                                           :COUNTRY
DATE  .                                           :DATE
UWI   .          CEMARASELATAN-005                :UNIQUE WELL UWI
LIC   .                                           :LICENSE NUMBER
API   .                                           :API NUMBER
SRVC  .                                           :SERVICE COMPANY
~Parameter Information Block
#MNEM.UNIT       Value                            Description
#---------       ---------                        -------------
LONG  .DEG       108.170923                       :Well Surface Location
LATI  .DEG       -6.423032                        :Well Surface Location
XWELL .M         187032.670000                    :X-coordinate of Well Head
YWELL .M         9289167.261000                   :Y-coordinate of Well Head
~Curve Information Block
#MNEM.UNIT       API Code            Curve    Description
#--------        --------------      -----    -------------------
DEPT  .M                             :0       Index
KGAS  .MD                            :1       Permeability to Gas           
KINT  .MD                            :2       Intrinsic Permeability        
KOIL  .MD                            :3       Permeability to Oil           
KWTR  .MD                            :4       Permeability to Water         
PHIT  .V/V                           :5       Total Porosity_ includes all forms of porosity, including that occupied by bound fluids, and is independent of rock and fluid materials and of environmental effects
PHTT  .V/V                           :6       Theoretical PHIT Value        
PIGE  .V/V                           :7       Effective Porosity Less Irreducible Water
PIGN  .V/V                           :8       Effective Porosity, VISO, VPAR, and Bound Water Removed
SUWI  .V/V                           :9       Non-Clay Water Intergranular Water Saturation for Undisturbed Zone
VILL  .V/V                           :10      Volume of Illite (dry) Relative to Total Volume
~Ascii Data Section
# ...
   2688.33580       0.00100       3.54912       0.00100       3.54912       0.14616       0.18331       0.12413       0.12413       1.00000       0.21041 
   2688.48820       0.16182       3.71214       0.00100       0.76453       0.16047       0.19780       0.13724       0.13724       0.83652       0.22187 
   2688.64060       0.11059       1.20845       0.00100       0.06312       0.15890       0.19990       0.13139       0.13139       0.83012       0.26281 
   2688.79300       0.02572       1.04385       0.00100       0.24942       0.15233       0.19276       0.12516       0.12516       0.89442       0.25960 
   2688.94540       0.02541       1.97735       0.00100       0.75125       0.15240       0.19100       0.12764       0.12764       0.90198       0.23648 
   2689.09780       0.23935       4.63092       0.00100       0.86771       0.16082       0.19409       0.13956       0.13956       0.82035       0.20318 
   2689.25020       0.07628       4.70175       0.00100       1.76236       0.15642       0.18649       0.13667       0.13667       0.87888       0.18863 
   2689.40260       0.06146       7.63190       0.00100       3.75549       0.15658       0.18129       0.14004       0.14004       0.89845       0.15801 
   2689.55500       0.00100       2.69378       0.00100       2.69378       0.14485       0.16807       0.12688       0.12688       1.00000       0.17166 
   2689.70740       0.00100       3.24279       0.00100       3.24279       0.13083       0.15002       0.11587       0.11587       1.00000       0.14292 
   2689.85980       0.00100       2.17539       0.00100       2.17539       0.12271       0.14285       0.10702       0.10702       1.00000       0.14995 
   2690.01220       0.00100       5.14805       0.00100       5.14805       0.13182       0.15039       0.11830       0.11830       1.00000       0.12911 
   2690.16460       0.00100       3.54724       0.00100       3.54724       0.12902       0.14749       0.11472       0.11472       1.00000       0.13663 
   2690.31700       0.00100       5.41126       0.00100       5.41126       0.13126       0.14889       0.11825       0.11825       1.00000       0.12426 
   2690.46940       0.00100      18.66464       0.00100      18.66464       0.14243       0.15740       0.13292       0.13292       1.00000       0.09089 
   2690.62180       0.00100       8.40986       0.00100       8.40986       0.14076       0.15770       0.12846       0.12846       1.00000       0.11750 
   2690.77420       0.00100       1.46836       0.00100       1.46836       0.11545       0.13657       0.09899       0.09899       1.00000       0.15727 
   2690.92660       0.00100       1.12932       0.00100       1.12932       0.09946       0.11845       0.08465       0.08465       1.00000       0.14143 
   2691.07900       0.00100       0.96099       0.00100       0.96099       0.09476       0.11353       0.08013       0.08013       1.00000       0.13978 
   2691.23140       0.00100       0.69994       0.00100       0.69994       0.09262       0.11279       0.07690       0.07690       1.00000       0.15022 
   2691.38380       0.00100       1.06267       0.00100       1.06267       0.10449       0.12514       0.08840       0.08840       1.00000       0.15380 
   2691.53620       0.00100       1.56967       0.00100       1.56967       0.11477       0.13533       0.09873       0.09873       1.00000       0.15318 
   2691.68860       0.00100       1.98765       0.00100       1.98765       0.12665       0.14821       0.10984       0.10984       1.00000       0.16055 
   2691.84100       0.00100       2.33677       0.00100       2.33677       0.13769       0.16033       0.12005       0.12005       1.00000       0.16860 
   2691.99340       0.00100       2.31591       0.00100       2.31591       0.14187       0.16537       0.12355       0.12355       1.00000       0.17499 
   2692.14580       0.00100       3.81228       0.00100       3.81228       0.15987       0.18310       0.14176       0.14176       1.00000       0.17301 
   2692.29820       0.00100       5.93005       0.00100       5.93005       0.16151       0.18218       0.14540       0.14540       1.00000       0.15393 
   2692.45060       0.00100       6.67328       0.00100       6.67328       0.16719       0.18794       0.15102       0.15102       1.00000       0.15453 
   2692.60300       0.00100       9.62397       0.00100       9.62397       0.17254       0.19170       0.15760       0.15760       1.00000       0.14268 
   2692.75540       0.00100      14.49467       0.00100      14.49467       0.17569       0.19266       0.16246       0.16246       1.00000       0.12637 
   2692.90780       0.00100      15.49552       0.00100      15.49552       0.17383       0.19011       0.16115       0.16115       1.00000       0.12121 
   2693.06020       0.00100      14.90356       0.00100      14.90356       0.17435       0.19093       0.16142       0.16142       1.00000       0.12351 
   2693.21260       0.00100      15.46211       0.00100      15.46211       0.18059       0.19780       0.16717       0.16717       1.00000       0.12819 
   2693.36500       0.00100      15.70577       0.00100      15.70577       0.18139       0.19860       0.16796       0.16796       1.00000       0.12823 
   2693.51740       0.00100      11.30443       0.00100      11.30443       0.17175       0.18976       0.15771       0.15771       1.00000       0.13414 
   2693.66980       0.00100       9.29429       0.00100       9.29429       0.16758       0.18626       0.15303       0.15303       1.00000       0.13907 
   2693.82220       0.00100       7.17559       0.00100       7.17559       0.16072       0.18003       0.14566       0.14566       1.00000       0.14387 
   2693.97460       0.00100       5.60506       0.00100       5.60506       0.15499       0.17500       0.13939       0.13939       1.00000       0.14906 
   2694.12700       0.00100       5.50503       0.00100       5.50503       0.14889       0.16803       0.13397       0.13397       1.00000       0.14255 
   2694.27940       0.00100       7.70293       0.00100       7.70293       0.15432       0.17217       0.14040       0.14040       1.00000       0.13299 
   2694.43180       0.00100       9.24121       0.00100       9.24121       0.15372       0.17031       0.14079       0.14079       1.00000       0.12352 
   2694.58420       0.00100       7.64885       0.00100       7.64885       0.14262       0.15857       0.13019       0.13019       1.00000       0.11878 
   2694.73660       0.00100       6.55447       0.00100       6.55447       0.13851       0.15473       0.12586       0.12586       1.00000       0.12082 
   2694.88900       0.00100       8.17694       0.00100       8.17694       0.14006       0.15514       0.12830       0.12830       1.00000       0.11232 
   2695.04140       0.00100       8.77242       0.00100       8.77242       0.13406       0.14759       0.12352       0.12352       1.00000       0.10076 
   2695.19380       0.00100       6.09756       0.00100       6.09756       0.12007       0.13317       0.10986       0.10986       1.00000       0.09754 
   2695.34620       0.00100       4.31219       0.00100       4.31219       0.11171       0.12520       0.10118       0.10118       1.00000       0.10051 
   2695.49860       0.00100       4.11811       0.00100       4.11811       0.11082       0.12440       0.10023       0.10023       1.00000       0.10116 
   2695.65100       0.00100       3.27428       0.00100       3.27428       0.10619       0.12017       0.09530       0.09530       1.00000       0.10406 
   2695.80340       0.00100       3.86823       0.00100       3.86823       0.11047       0.12437       0.09964       0.09964       1.00000       0.10352 
   2695.95580       0.00100       4.12671       0.00100       4.12671       0.10829       0.12126       0.09818       0.09818       1.00000       0.09659 
   2696.10820       0.00100       3.86165       0.00100       3.86165       0.10530       0.11799       0.09541       0.09541       1.00000       0.09447 
