~Version Information
VERS  .          2.0                              :CWLS Log Ascii Standard - Version 2.0
WRAP  .          NO                               :One line per depth step
~Well Information Block
#MNEM.UNIT       Data Type                        Information
#---------       ---------                        -------------------------------
STRT  .M         501.09100                        :START DEPTH
STOP  .M         2801.87400                       :STOP DEPTH
STEP  .M          0.15240                         :INCREMENT
NULL  .          -999.25                          :NULL DATA VALUE
COMP  .          PERTAMINA                        :COMPANY
WELL  .          CMS-005                          :WELL
WBN   .          CMS-005                          :WELLBORE
FLD   .          CEMARA SELATAN                   :FIELD
LOC   .                                           :LOCATION
PROV  .          INDONESIA                        :PROVINCE
STAT  .          INDONESIA                        :STATE
CNTY  .                                           :COUNTY
CTRY  .                                           :COUNTRY
DATE  .                                           :DATE
UWI   .          CEMARASELATAN-005                :UNIQUE WELL UWI
LIC   .                                           :LICENSE NUMBER
API   .                                           :API NUMBER
SRVC  .                                           :SERVICE COMPANY
~Parameter Information Block
#MNEM.UNIT       Value                            Description
#---------       ---------                        -------------
LONG  .DEG       108.170923                       :Well Surface Location
LATI  .DEG       -6.423032                        :Well Surface Location
XWELL .M         187032.670000                    :X-coordinate of Well Head
YWELL .M         9289167.261000                   :Y-coordinate of Well Head
~Curve Information Block
#MNEM.UNIT       API Code            Curve    Description
#--------        --------------      -----    -------------------
DEPT  .M                             :0       Index
KGAS  .MD                            :1       Permeability to Gas           
KINT  .MD                            :2       Intrinsic Permeability        
KOIL  .MD                            :3       Permeability to Oil           
KWTR  .MD                            :4       Permeability to Water         
PHIT  .V/V                           :5       Total Porosity_ includes all forms of porosity, including that occupied by bound fluids, and is independent of rock and fluid materials and of environmental effects
PHTT  .V/V                           :6       Theoretical PHIT Value        
PIGE  .V/V                           :7       Effective Porosity Less Irreducible Water
PIGN  .V/V                           :8       Effective Porosity, VISO, VPAR, and Bound Water Removed
SUWI  .V/V                           :9       Non-Clay Water Intergranular Water Saturation for Undisturbed Zone
VILL  .V/V                           :10      Volume of Illite (dry) Relative to Total Volume
~Ascii Data Section
# ...
   1769.05900       0.00100       0.05286       0.00100       0.05286       0.22730       0.25626       0.15476       0.15476       1.00000       0.39671 
   1769.21140       0.00100       0.04425       0.00100       0.04425       0.22280       0.25210       0.14940       0.14940       1.00000       0.40142 
   1769.36380       0.00100       0.09625       0.00100       0.09625       0.22850       0.25547       0.16053       0.16053       1.00000       0.37170 
   1769.51620       0.00100       0.09313       0.00100       0.09313       0.22794       0.25493       0.15978       0.15978       1.00000       0.37276 
   1769.66860       0.00100       0.06526       0.00100       0.06526       0.21994       0.24781       0.14995       0.14995       1.00000       0.38278 
   1769.82100       0.00100       0.06206       0.00100       0.06206       0.21526       0.24311       0.14548       0.14548       1.00000       0.38165 
   1769.97340       0.00100       0.05785       0.00100       0.05785       0.21030       0.23811       0.14063       0.14063       1.00000       0.38101 
   1770.12580       0.00100       0.07123       0.00100       0.07123       0.21034       0.23751       0.14230       0.14230       1.00000       0.37210 
   1770.27820       0.00100       0.05068       0.00100       0.05068       0.21071       0.23869       0.14063       0.14063       1.00000       0.38328 
   1770.43060       0.00100       0.05289       0.00100       0.05289       0.22240       0.25037       0.15234       0.15234       1.00000       0.38314 
   1770.58300       0.00100       0.02504       0.00100       0.02504       0.21387       0.24227       0.14274       0.14274       1.00000       0.38899 
   1770.73540       0.00100       0.02102       0.00100       0.02102       0.21188       0.24043       0.14038       0.14038       1.00000       0.39106 
   1770.88780       0.00100       0.02745       0.00100       0.02745       0.21886       0.24736       0.14749       0.14749       1.00000       0.39033 
   1771.04020       0.00100       0.10921       0.00100       0.10921       0.23247       0.25938       0.16507       0.16507       1.00000       0.36862 
   1771.19260       0.00100       0.12261       0.00100       0.12261       0.23293       0.25950       0.16637       0.16637       1.00000       0.36402 
   1771.34500       0.00100       0.07060       0.00100       0.07060       0.23133       0.25956       0.16061       0.16061       1.00000       0.38678 
   1771.49740       0.00100       0.02709       0.00100       0.02709       0.22696       0.25749       0.15050       0.15050       1.00000       0.41817 
   1771.64980       0.00100       0.01460       0.00100       0.01460       0.22824       0.26014       0.14834       0.14834       1.00000       0.43698 
   1771.80220       0.00100       0.02942       0.00100       0.02942       0.23890       0.27020       0.16049       0.16049       1.00000       0.42880 
   1771.95460       0.00100       0.04422       0.00100       0.04422       0.22958       0.25920       0.15538       0.15538       1.00000       0.40581 
   1772.10700       0.00100       0.08693       0.00100       0.08693       0.22097       0.24793       0.15310       0.15310       1.00000       0.37115 
   1772.25940       0.00100       0.05759       0.00100       0.05759       0.21706       0.24522       0.14646       0.14646       1.00000       0.38615 
   1772.41180       0.00100       0.05176       0.00100       0.05176       0.22128       0.25002       0.14930       0.14930       1.00000       0.39366 
   1772.56420       0.00100       0.03790       0.00100       0.03790       0.22500       0.25490       0.15012       0.15012       1.00000       0.40953 
   1772.71660       0.00100       0.01323       0.00100       0.01323       0.21569       0.24842       0.13372       0.13372       1.00000       0.44832 
   1772.86900       0.00100       0.01766       0.00100       0.01766       0.21631       0.24814       0.13658       0.13658       1.00000       0.43607 
   1773.02140       0.00100       0.06121       0.00100       0.06121       0.22642       0.25487       0.15514       0.15514       1.00000       0.38984 
   1773.17380       0.00100       0.10330       0.00100       0.10330       0.22415       0.25084       0.15725       0.15725       1.00000       0.36586 
   1773.32620       0.00100       0.07477       0.00100       0.07477       0.21683       0.24290       0.15155       0.15155       1.00000       0.35703 
   1773.47860       0.00100       0.07434       0.00100       0.07434       0.20934       0.23553       0.14374       0.14374       1.00000       0.35878 
   1773.63100       0.00100       0.10356       0.00100       0.10356       0.20782       0.23361       0.14308       0.14308       1.00000       0.35410 
   1773.78340       0.00100       0.26102       0.00100       0.26102       0.21244       0.23531       0.15432       0.15432       1.00000       0.31785 
   1773.93580       0.00100       0.20669       0.00100       0.20669       0.20999       0.23367       0.15037       0.15037       1.00000       0.32606 
   1774.08820       0.00100       0.17528       0.00100       0.17528       0.21875       0.24346       0.15668       0.15668       1.00000       0.33948 
   1774.24060       0.00100       0.14604       0.00100       0.14604       0.22751       0.25303       0.16294       0.16294       1.00000       0.35316 
   1774.39300       0.00100       0.15677       0.00100       0.15677       0.24103       0.26678       0.17554       0.17554       1.00000       0.35818 
   1774.54540       0.00100       0.10281       0.00100       0.10281       0.26400       0.29225       0.19315       0.19315       1.00000       0.38747 
   1774.69780       0.00100       0.04405       0.00100       0.04405       0.27394       0.30514       0.19578       0.19578       1.00000       0.42745 
   1774.85020       0.00100       0.03326       0.00100       0.03326       0.26963       0.30159       0.18957       0.18957       1.00000       0.43784 
   1775.00260       0.00100       0.04093       0.00100       0.04093       0.27141       0.30278       0.19285       0.19285       1.00000       0.42966 
   1775.15500       0.00100       0.03667       0.00100       0.03667       0.27118       0.30288       0.19178       0.19178       1.00000       0.43425 
   1775.30740       0.00100       0.03200       0.00100       0.03200       0.26557       0.29754       0.18550       0.18550       1.00000       0.43791 
   1775.45980       0.00100       0.02061       0.00100       0.02061       0.25923       0.29238       0.17619       0.17619       1.00000       0.45413 
   1775.61220       0.00100       0.02790       0.00100       0.02790       0.26257       0.29488       0.18165       0.18165       1.00000       0.44256 
   1775.76460       0.00100       0.04351       0.00100       0.04351       0.26891       0.30002       0.19100       0.19100       1.00000       0.42611 
   1775.91700       0.00100       0.02470       0.00100       0.02470       0.26414       0.29687       0.18215       0.18215       1.00000       0.44841 
   1776.06940       0.00100       0.02249       0.00100       0.02249       0.27342       0.30671       0.19006       0.19006       1.00000       0.45591 
   1776.22180       0.00100       0.01103       0.00100       0.01103       0.26681       0.30214       0.17831       0.17831       1.00000       0.48400 
   1776.37420       0.00100       0.01386       0.00100       0.01386       0.26413       0.29867       0.17761       0.17761       1.00000       0.47317 
   1776.52660       0.00100       0.01235       0.00100       0.01235       0.26290       0.29777       0.17557       0.17557       1.00000       0.47763 
   1776.67900       0.00100       0.01948       0.00100       0.01948       0.26421       0.29769       0.18035       0.18035       1.00000       0.45861 
   1776.83140       0.00100       0.01749       0.00100       0.01749       0.25773       0.29135       0.17353       0.17353       1.00000       0.46054 
