~Version Information
VERS  .          2.0                              :CWLS Log Ascii Standard - Version 2.0
WRAP  .          NO                               :One line per depth step
~Well Information Block
#MNEM.UNIT       Data Type                        Information
#---------       ---------                        -------------------------------
STRT  .M         1190.09200                       :START DEPTH
STOP  .M         2429.86500                       :STOP DEPTH
STEP  .M          0.15240                         :INCREMENT
NULL  .          -999.25                          :NULL DATA VALUE
COMP  .                                           :COMPANY
WELL  .          CMS-001                          :WELL
WBN   .          CMS-001                          :WELLBORE
FLD   .          CEMARA SELATAN                   :FIELD
LOC   .                                           :LOCATION
PROV  .                                           :PROVINCE
STAT  .                                           :STATE
CNTY  .                                           :COUNTY
CTRY  .                                           :COUNTRY
DATE  .                                           :DATE
UWI   .          CEMARASELATAN-001                :UNIQUE WELL UWI
LIC   .                                           :LICENSE NUMBER
API   .                                           :API NUMBER
SRVC  .                                           :SERVICE COMPANY
~Parameter Information Block
#MNEM.UNIT       Value                            Description
#---------       ---------                        -------------
LONG  .DEG       108.170925                       :Well Surface Location
LATI  .DEG       -6.422919                        :Well Surface Location
XWELL .M         187032.780005                    :X-coordinate of Well Head
YWELL .M         9289179.840752                   :Y-coordinate of Well Head
~Curve Information Block
#MNEM.UNIT       API Code            Curve    Description
#--------        --------------      -----    -------------------
DEPT  .M                             :0       Index
KGAS  .MD                            :1       Permeability to Gas           
KINT  .MD                            :2       Intrinsic Permeability        
KOIL  .MD                            :3       Permeability to Oil           
KWTR  .MD                            :4       Permeability to Water         
PHIT  .V/V                           :5       Total Porosity_ includes all forms of porosity, including that occupied by bound fluids, and is independent of rock and fluid materials and of environmental effects
PHTT  .V/V                           :6       Theoretical PHIT Value        
PIGE  .V/V                           :7       Effective Porosity Less Irreducible Water
PIGN  .V/V                           :8       Effective Porosity, VISO, VPAR, and Bound Water Removed
RHGA  .G/C3                          :9       Apparent Grain Density        
SUWI  .V/V                           :10      Non-Clay Water Intergranular Water Saturation for Undisturbed Zone
VCHL  .V/V                           :11      Volume of Chlorite Relative to Total Volume
VCL   .V/V                           :12      Volume of Clay Type Material Relative to Total Volume
VCLC  .V/V                           :13      Volume of Calcite Relative to Total Volume
VCOA  .V/V                           :14      Volume of Coal Relative to Total Volume
VDOL  .V/V                           :15      Volume of Dolomite Relative to Total Volume
VFEL  .V/V                           :16      Volume of Feldspar Relative to Total Volume
VIGN  .V/V                           :17      Volume of Igneous Rock Relative to Total Volume
VILL  .V/V                           :18      Volume of Illite (dry) Relative to Total Volume
VMHY  .V/V                           :19      Volume of Moved Hydrocarbon Relative to Total Volume
VQUA  .V/V                           :20      Volume of Quartz Relative to Total Volume
VUGA  .V/V                           :21      Volume of Gas in Undisturbed Zone
VUOI  .V/V                           :22      Volume of Oil in Undisturbed Zone
VUWA  .V/V                           :23      Volume of Water in Undisturbed Zone
VXBW  .V/V                           :24      Volume of Bound Water in Flushed Zone
VXGA  .V/V                           :25      Volume of Gas in Flushed Zone 
VXOI  .V/V                           :26      Volume of Oil in Flushed Zone 
VXWA  .V/V                           :27      Volume of Water in Flushed Zone
~Ascii Data Section
# ...
   2179.01560       0.00100       0.03903       0.00100       0.03903       0.10316       0.10777       0.09798       0.09798       2.71257       1.00000       0.00000       0.05956       0.84246       0.00000       0.00000       0.00000       0.00000       0.05438      -0.02056       0.00000       0.00000       0.00000       0.09798       0.00518       0.02056       0.00000       0.07741 
   2179.16800       0.00100       0.02357       0.00100       0.02357       0.09738       0.10414       0.09028       0.09028       2.71350       1.00000       0.00000       0.08154       0.82817       0.00000       0.00000       0.00000       0.00000       0.07445      -0.02522       0.00000       0.00000       0.00000       0.09028       0.00709       0.02522       0.00000       0.06506 
   2179.32040       0.00100       0.01456       0.00100       0.01456       0.09336       0.10201       0.08413       0.08413       2.71453       1.00000       0.00000       0.10610       0.80977       0.00000       0.00000       0.00000       0.00000       0.09687      -0.03383       0.00000       0.00000       0.00000       0.08413       0.00923       0.03383       0.00000       0.05030 
   2179.47280       0.00100       0.01267       0.00100       0.01267       0.09236       0.10066       0.08248       0.08248       2.71484       1.00000       0.00000       0.11352       0.80400       0.00000       0.00000       0.00000       0.00000       0.10365      -0.04248       0.00000       0.00000       0.00000       0.08248       0.00987       0.04248       0.00000       0.04000 
   2179.62520       0.00100       0.01507       0.00100       0.01507       0.09937       0.10799       0.08866       0.08866       2.71529       1.00000       0.00000       0.12311       0.78823       0.00000       0.00000       0.00000       0.00000       0.11241      -0.04866       0.00000       0.00000       0.00000       0.08866       0.01071       0.04866       0.00000       0.04000 
   2179.77760       0.00100       0.01000       0.00100       0.01000       0.10108       0.11518       0.08687       0.08687       2.71704       1.00000       0.00000       0.16339       0.74974       0.00000       0.00000       0.00000       0.00000       0.14918      -0.04687       0.00000       0.00000       0.00000       0.08687       0.01421       0.04687       0.00000       0.04000 
   2179.93000       0.00100       0.01000       0.00100       0.01000       0.10154       0.12432       0.08199       0.08199       2.71969       1.00000       0.00000       0.22484       0.69317       0.00000       0.00000       0.00000       0.00000       0.20528      -0.04199       0.00000       0.00000       0.00000       0.08199       0.01955       0.04199       0.00000       0.04000 
   2180.08240       0.00100       0.01000       0.00100       0.01000       0.11771       0.14860       0.09172       0.09172       2.72311       1.00000       0.00000       0.29881       0.60946       0.00000       0.00000       0.00000       0.00000       0.27282      -0.05172       0.00000       0.00000       0.00000       0.09172       0.02599       0.05172       0.00000       0.04000 
   2180.23480       0.00100       0.01000       0.00100       0.01000       0.13439       0.17941       0.09824       0.09824       2.72860       1.00000       0.00000       0.41566       0.48610       0.00000       0.00000       0.00000       0.00000       0.37951      -0.05824       0.00000       0.00000       0.00000       0.09824       0.03615       0.05824       0.00000       0.04000 
   2180.38720       0.00100       0.01000       0.00100       0.01000       0.14916       0.20463       0.10527       0.10527       2.73297       1.00000       0.00000       0.50460       0.39012       0.00000       0.00000       0.00000       0.00000       0.46072      -0.06527       0.00000       0.00000       0.00000       0.10527       0.04389       0.06527       0.00000       0.04000 
   2180.53960       0.00100       0.01000       0.00100       0.01000       0.15359       0.21925       0.10307       0.10307       2.73657       1.00000       0.00000       0.58084       0.31609       0.00000       0.00000       0.00000       0.00000       0.53032      -0.06307       0.00000       0.00000       0.00000       0.10307       0.05052       0.06307       0.00000       0.04000 
   2180.69200       0.00100       0.01000       0.00100       0.01000       0.15227       0.21985       0.10070       0.10070       2.73709       1.00000       0.00000       0.59296       0.30634       0.00000       0.00000       0.00000       0.00000       0.54138      -0.06070       0.00000       0.00000       0.00000       0.10070       0.05157       0.06070       0.00000       0.04000 
   2180.84440       0.00100       0.01000       0.00100       0.01000       0.14674       0.21602       0.09464       0.09464       2.73719       1.00000       0.00000       0.59905       0.30631       0.00000       0.00000       0.00000       0.00000       0.54695      -0.05464       0.00000       0.00000       0.00000       0.09464       0.05210       0.05464       0.00000       0.04000 
   2180.99680       0.00100       0.01000       0.00100       0.01000       0.14184       0.21197       0.08966       0.08966       2.73707       1.00000       0.00000       0.59990       0.31044       0.00000       0.00000       0.00000       0.00000       0.54772      -0.04966       0.00000       0.00000       0.00000       0.08966       0.05217       0.04966       0.00000       0.04000 
   2181.14920       0.00100       0.01000       0.00100       0.01000       0.13738       0.21014       0.08401       0.08401       2.73755       1.00000       0.00000       0.61365       0.30234       0.00000       0.00000       0.00000       0.00000       0.56028      -0.04401       0.00000       0.00000       0.00000       0.08401       0.05337       0.04401       0.00000       0.04000 
   2181.30160       0.00100       0.01000       0.00100       0.01000       0.13320       0.20795       0.07900       0.07900       2.73784       1.00000       0.00000       0.62321       0.29779       0.00000       0.00000       0.00000       0.00000       0.56901      -0.03900       0.00000       0.00000       0.00000       0.07900       0.05420       0.03900       0.00000       0.04000 
   2181.45400       0.00100       0.01000       0.00100       0.01000       0.13458       0.20882       0.08056       0.08056       2.73779       1.00000       0.00000       0.62111       0.29833       0.00000       0.00000       0.00000       0.00000       0.56709      -0.04056       0.00000       0.00000       0.00000       0.08056       0.05402       0.04056       0.00000       0.04000 
   2181.60640       0.00100       0.01000       0.00100       0.01000       0.14076       0.21454       0.08646       0.08646       2.73814       1.00000       0.00000       0.62434       0.28920       0.00000       0.00000       0.00000       0.00000       0.57004      -0.04646       0.00000       0.00000       0.00000       0.08646       0.05430       0.04646       0.00000       0.04000 
   2181.75880       0.00100       0.01000       0.00100       0.01000       0.14611       0.21990       0.09130       0.09130       2.73858       1.00000       0.00000       0.63011       0.27859       0.00000       0.00000       0.00000       0.00000       0.57531      -0.05130       0.00000       0.00000       0.00000       0.09130       0.05480       0.05130       0.00000       0.04000 
   2181.91120       0.00100       0.01000       0.00100       0.01000       0.15463       0.22925       0.09855       0.09855       2.73954       1.00000       0.00000       0.64487       0.25659       0.00000       0.00000       0.00000       0.00000       0.58878      -0.05855       0.00000       0.00000       0.00000       0.09855       0.05609       0.05855       0.00000       0.04000 
   2182.06360       0.00100       0.01000       0.00100       0.01000       0.17116       0.24534       0.11383       0.11383       2.74080       1.00000       0.00000       0.65920       0.22697       0.00000       0.00000       0.00000       0.00000       0.60187      -0.07383       0.00000       0.00000       0.00000       0.11383       0.05733       0.07383       0.00000       0.04000 
