~Version Information
VERS  .          2.0                              :CWLS Log Ascii Standard - Version 2.0
WRAP  .          NO                               :One line per depth step
~Well Information Block
#MNEM.UNIT       Data Type                        Information
#---------       ---------                        -------------------------------
STRT  .M         1190.09200                       :START DEPTH
STOP  .M         2429.86500                       :STOP DEPTH
STEP  .M          0.15240                         :INCREMENT
NULL  .          -999.25                          :NULL DATA VALUE
COMP  .                                           :COMPANY
WELL  .          CMS-001                          :WELL
WBN   .          CMS-001                          :WELLBORE
FLD   .          CEMARA SELATAN                   :FIELD
LOC   .                                           :LOCATION
PROV  .                                           :PROVINCE
STAT  .                                           :STATE
CNTY  .                                           :COUNTY
CTRY  .                                           :COUNTRY
DATE  .                                           :DATE
UWI   .          CEMARASELATAN-001                :UNIQUE WELL UWI
LIC   .                                           :LICENSE NUMBER
API   .                                           :API NUMBER
SRVC  .                                           :SERVICE COMPANY
~Parameter Information Block
#MNEM.UNIT       Value                            Description
#---------       ---------                        -------------
LONG  .DEG       108.170925                       :Well Surface Location
LATI  .DEG       -6.422919                        :Well Surface Location
XWELL .M         187032.780005                    :X-coordinate of Well Head
YWELL .M         9289179.840752                   :Y-coordinate of Well Head
~Curve Information Block
#MNEM.UNIT       API Code            Curve    Description
#--------        --------------      -----    -------------------
DEPT  .M                             :0       Index
KGAS  .MD                            :1       Permeability to Gas           
KINT  .MD                            :2       Intrinsic Permeability        
KOIL  .MD                            :3       Permeability to Oil           
KWTR  .MD                            :4       Permeability to Water         
PHIT  .V/V                           :5       Total Porosity_ includes all forms of porosity, including that occupied by bound fluids, and is independent of rock and fluid materials and of environmental effects
PHTT  .V/V                           :6       Theoretical PHIT Value        
PIGE  .V/V                           :7       Effective Porosity Less Irreducible Water
PIGN  .V/V                           :8       Effective Porosity, VISO, VPAR, and Bound Water Removed
RHGA  .G/C3                          :9       Apparent Grain Density        
SUWI  .V/V                           :10      Non-Clay Water Intergranular Water Saturation for Undisturbed Zone
VCHL  .V/V                           :11      Volume of Chlorite Relative to Total Volume
VCL   .V/V                           :12      Volume of Clay Type Material Relative to Total Volume
VCLC  .V/V                           :13      Volume of Calcite Relative to Total Volume
VCOA  .V/V                           :14      Volume of Coal Relative to Total Volume
VDOL  .V/V                           :15      Volume of Dolomite Relative to Total Volume
VFEL  .V/V                           :16      Volume of Feldspar Relative to Total Volume
VIGN  .V/V                           :17      Volume of Igneous Rock Relative to Total Volume
VILL  .V/V                           :18      Volume of Illite (dry) Relative to Total Volume
VMHY  .V/V                           :19      Volume of Moved Hydrocarbon Relative to Total Volume
VQUA  .V/V                           :20      Volume of Quartz Relative to Total Volume
VUGA  .V/V                           :21      Volume of Gas in Undisturbed Zone
VUOI  .V/V                           :22      Volume of Oil in Undisturbed Zone
VUWA  .V/V                           :23      Volume of Water in Undisturbed Zone
VXBW  .V/V                           :24      Volume of Bound Water in Flushed Zone
VXGA  .V/V                           :25      Volume of Gas in Flushed Zone 
VXOI  .V/V                           :26      Volume of Oil in Flushed Zone 
VXWA  .V/V                           :27      Volume of Water in Flushed Zone
~Ascii Data Section
# ...
   1689.35440       0.00100       0.01101       0.00100       0.01101       0.13049       0.16500       0.07959       0.07959       2.71131       1.00000       0.00000       0.39486       0.14692       0.00000       0.00000       0.00000       0.00000       0.34396       0.00000       0.37863       0.00000       0.00000       0.07959       0.05090       0.00000       0.00000       0.07959 
   1689.50680       0.00100       0.02293       0.00100       0.02293       0.13080       0.16427       0.08144       0.08144       2.70461       1.00000       0.00000       0.38294       0.07195       0.00000       0.00000       0.00000       0.00000       0.33358       0.00000       0.46367       0.00000       0.00000       0.08144       0.04936       0.00000       0.00000       0.08144 
   1689.65920       0.00100       0.04249       0.00100       0.04249       0.13524       0.16867       0.08583       0.08583       2.69995       1.00000       0.00000       0.38331       0.00000       0.00000       0.00000       0.00000       0.00000       0.33390      -0.00045       0.53086       0.00000       0.00000       0.08583       0.04941       0.00045       0.00000       0.08538 
   1689.81160       0.00100       0.04432       0.00100       0.04432       0.14584       0.17974       0.09445       0.09445       2.70260       1.00000       0.00000       0.39869       0.00000       0.00000       0.00000       0.00000       0.00000       0.34730      -0.00633       0.50686       0.00000       0.00000       0.09445       0.05139       0.00633       0.00000       0.08812 
   1689.96400       0.00100       0.06052       0.00100       0.06052       0.16870       0.20204       0.11524       0.11524       2.70622       1.00000       0.00000       0.41473       0.00000       0.00000       0.00000       0.00000       0.00000       0.36127      -0.01942       0.47003       0.00000       0.00000       0.11524       0.05346       0.01942       0.00000       0.09582 
   1690.11640       0.00363       0.10420       0.00100       0.01000       0.19199       0.22384       0.13882       0.13882       2.70752       0.96513       0.00000       0.41245       0.00000       0.00000       0.00000       0.00000       0.00000       0.35928      -0.02316       0.44873       0.00484       0.00000       0.13398       0.05317       0.02800       0.00000       0.11083 
   1690.26880       0.00789       0.11026       0.00100       0.01000       0.21013       0.24194       0.15524       0.15524       2.71075       0.92842       0.00000       0.42582       0.00000       0.00000       0.00000       0.00000       0.00000       0.37093      -0.02492       0.41894       0.01111       0.00000       0.14412       0.05489       0.03603       0.00000       0.11921 
   1690.42120       0.00429       0.08379       0.00100       0.01000       0.22580       0.25827       0.16757       0.16757       2.71575       0.94885       0.00000       0.45174       0.00000       0.00000       0.00000       0.00000       0.00000       0.39351      -0.03821       0.38069       0.00857       0.00000       0.15900       0.05823       0.04678       0.00000       0.12079 
   1690.57360       0.00274       0.10548       0.00100       0.01000       0.24432       0.27654       0.18612       0.18612       2.71733       0.97399       0.00000       0.45151       0.00000       0.00000       0.00000       0.00000       0.00000       0.39331      -0.04343       0.36237       0.00482       0.00002       0.18128       0.05820       0.04827       0.00000       0.13785 
   1690.72600       0.00711       0.09050       0.00100       0.01000       0.26354       0.29602       0.20311       0.20311       2.72173       0.92141       0.00000       0.46881       0.00000       0.00000       0.00000       0.00000       0.00000       0.40838      -0.04069       0.32808       0.01595       0.00001       0.18715       0.06043       0.05665       0.00000       0.14645 
   1690.87840       0.00316       0.04553       0.00100       0.01000       0.27180       0.30690       0.20651       0.20651       2.72839       0.93070       0.00000       0.50658       0.00000       0.00000       0.00000       0.00000       0.00000       0.44128      -0.04691       0.28691       0.01431       0.00000       0.19220       0.06530       0.06122       0.00000       0.14528 
   1691.03080       0.00100       0.01984       0.00100       0.01984       0.26931       0.30742       0.19875       0.19875       2.73441       1.00000       0.00000       0.54735       0.00000       0.00000       0.00000       0.00000       0.00000       0.47680      -0.06483       0.25389       0.00000       0.00000       0.19875       0.07055       0.06483       0.00000       0.13392 
   1691.18320       0.00100       0.01041       0.00100       0.01041       0.25950       0.30096       0.18523       0.18523       2.73769       1.00000       0.00000       0.57621       0.00000       0.00000       0.00000       0.00000       0.00000       0.50194      -0.05933       0.23856       0.00000       0.00000       0.18523       0.07427       0.05933       0.00000       0.12590 
   1691.33560       0.00100       0.01000       0.00100       0.01000       0.25327       0.29575       0.17904       0.17904       2.73690       1.00000       0.00000       0.57587       0.00000       0.00000       0.00000       0.00000       0.00000       0.50164      -0.05236       0.24509       0.00000       0.00000       0.17904       0.07423       0.05236       0.00000       0.12669 
   1691.48800       0.00100       0.01487       0.00100       0.01487       0.25355       0.29476       0.18193       0.18193       2.73389       1.00000       0.00000       0.55568       0.00000       0.00000       0.00000       0.00000       0.00000       0.48405      -0.04904       0.26239       0.00000       0.00000       0.18193       0.07163       0.04904       0.00000       0.13288 
   1691.64040       0.00100       0.02835       0.00100       0.02835       0.24660       0.28700       0.17963       0.17963       2.72771       1.00000       0.00000       0.51956       0.00000       0.00000       0.00000       0.00000       0.00000       0.45259      -0.03343       0.30081       0.00000       0.00000       0.17963       0.06697       0.03343       0.00000       0.14621 
   1691.79280       0.00100       0.03204       0.00100       0.03204       0.23310       0.27386       0.16791       0.16791       2.72431       1.00000       0.00000       0.50574       0.00000       0.00000       0.00000       0.00000       0.00000       0.44055      -0.02300       0.32635       0.00000       0.00000       0.16791       0.06519       0.02300       0.00000       0.14492 
   1691.94520       0.00100       0.02710       0.00100       0.02710       0.21485       0.25720       0.15016       0.15016       2.72202       1.00000       0.00000       0.50182       0.00000       0.00000       0.00000       0.00000       0.00000       0.43713      -0.01000       0.34802       0.00000       0.00000       0.15016       0.06468       0.01000       0.00000       0.14016 
   1692.09760       0.00100       0.01724       0.00100       0.01724       0.20170       0.24567       0.13541       0.13541       2.72260       1.00000       0.00000       0.51428       0.00000       0.00000       0.00000       0.00000       0.00000       0.44799      -0.00649       0.35031       0.00000       0.00000       0.13541       0.06629       0.00649       0.00000       0.12892 
   1692.25000       0.00100       0.01684       0.00100       0.01684       0.19666       0.24131       0.13080       0.13080       2.72166       1.00000       0.00000       0.51089       0.00000       0.00000       0.00000       0.00000       0.00000       0.44504       0.00000       0.35831       0.00000       0.00000       0.13080       0.06585       0.00000       0.00000       0.13080 
   1692.40240       0.00100       0.02960       0.00100       0.02960       0.20513       0.24791       0.14204       0.14204       2.71939       1.00000       0.00000       0.48943       0.00000       0.00000       0.00000       0.00000       0.00000       0.42634       0.00000       0.36853       0.00000       0.00000       0.14204       0.06309       0.00000       0.00000       0.14204 
