~VERSION INFORMATION
 VERS.               1.20:   CWLS LOG ASCII STANDARD - VERSION 1.20
 WRAP.                 NO:   ONE LINE PER DEPTH STEP
~WELL INFORMATION
#MNEM.UNIT      DATA TYPE    INFORMATION
#----------   ------------   ------------------------------
 STRT.M          630.6096:   START DEPTH
 STOP.M         3133.6272:   STOP DEPTH
 STEP.M            0.1524:   STEP LENGTH
 NULL.          -999.2500:   NO VALUE
 COMP.            COMPANY:   PERTAMINA
 WELL.               WELL:   CMS-004
 WBN .            CMS-004:   WELLBORE
 FLD .              FIELD:   CEMARA SELATAN
 LOC .           LOCATION:   X = + 149636.27  Y = - 719813.7
 PROV.           PROVINCE:   JAWA BARAT
 STAT.              STATE:   INDONESIA
 SRVC.    SERVICE COMPANY:   SCHLUMBERGER
 DATE.            LOGDATE:   11/24/77
 APIN.         API NUMBER:   -
 UWI .  CEMARASELATAN-004:   UNIQUE WELL ID 
~CURVE INFORMATION
#MNEM.UNIT       API CODE    CURVE DESCRIPTION
#----------   ------------   ------------------------------
 DEPT.M                  :
 CALI.inch   60 280 00 00:   Caliper
 GR  .GAPI   60 310 00 00:   Gamma Ray
 SP  .mV     60 010 01 00:   Spontaneous Potential
 ILD .ohmm   05 070 46 00:   Induction Laterolog, Deep
 SN  .ohmm   05 040 16 00:   Short Normal 16"
 NPHI.%      42 890 03 00:   Neu. Porosity, Ss [%]
 RHOB.kg/cm3 42 350 01 00:   Bulk Density
 DRHO.g/cc   42 356 01 00:   Density Correction
 PROX.ohmm   21 270 30 00:   Proximity Log
~PARAMETER INFORMATION
#MNEM.UNIT          VALUE    DESCRIPTION
#----------   ------------   ------------------------------
 EKB .M            0.0000:   Kelly bushing
 EGL .M            0.0000:   Ground level
 EDF .M           10.0000:   Drilling floor
 EPD .M           10.0000:   Permanent datum
 TD  .M         3129.0000:   Total depth
 DF  .      CONGLONGMERAT:   Deepest formation
 PROJ.       SCHLUMBERGER:   Project
 DATE.           11/24/77:   Date logged
 SRFX.M       185028.4000:   Surface X position
 SRFY.M      9281121.0000:   Surface Y position
 STUS.                  3:   1-18 API codes
 SLAT.DECIMAL DE  -6.4963:   Surface Latitude
 SLNG.DECIMAL DE 108.1521:   Surface Longitude
 BLAT.DECIMAL DE   0.0000:   Bottom Latitude
 BLNG.DECIMAL DE   0.0000:   Bottom Longitude
 SCTN.                  0:   Section Number
 NSFT.F            0.0000:   N-S Footage
 EWFT.F            0.0000:   E-F Footage
 BHT .Degf            100:   Bottom Hole Temperature
 MRT .Degf            100:   Max Recorded Temperature
 MST .Degf             87:   Mud Temperature
 RM  .Ohmm            3.0:   Mud Resistivity
 RMB .Degf  2.7 ohmm @100:   Mud BHT Resistivity
 RMC .Ohmm           4.72:   Mud Cake Resistivity
 RMF .Ohmm           1.93:   Mud Filtrate Resistivity
 DFD .G/c3           1.05:   Drilling Fluid Density
 DFV .Sec              43:   Drilling Fluid Viscosity
 DFPH.                  9:   Drilling Fluid pH
 DFL .Ml               14:   Drilling Fluid Loss
 DD  .Mtr          3129.0:   Depth driller
 DL  .Mtr          3129.8:   Depth logger
 BLI .Mtr          3129.5:   Bottom log interval
 TLI .Mtr            2767:   Top log interval
 CSS .Inch          9 5/8:   Casing size
 CTD1.Mtr   9 5/8" @ 1300:   Casing driller 1
 CTL1.Mtr          1299.7:   Casing logger 1
 BS  .Inch          8 5/8:   Bit size
 DFT . Bentonite / Q.Broxin:   Type fluid in hole
 WSS .           Flowline:   Source of sample
 EMT .Degf 0.48 ohmm @ 95:   Rm Meas. temp.
 MFT .Degf 0.31 ohmm @ 80:   Rmf Meas. temp.
 MCST.Degf 0.66 ohmm @ 26:   Rmc Meas. temp.
 MFSS.              Press:   Source Rmf.
 MCSS.              Press:   Source Rmc.
 TCS .HRS              12:   Time Circ. stopped
 LUN .               RS18:   Logging unit number
 LUL .                WJV:   Logging unit location
 ENGI.            M.Akbar:   Recorded By
 WITN.  Wardoyo / Sugipto:   Witnessed by
 RE1 .        ILD (6FF40):   Res. Electrode #1
 RE2 .      SN  (A-16" M):   Res. Electrode #2
 TLAB.Hrs              12:   Time logger at bottom
 DATE.           12/02/77:   Date logged
 DATE.           12/13/77:   Date logged
 DATE.           01/10/77:   Date logged
 DATE.           01/28/78:   Date logged
 BHT .Degf            110:   Bottom Hole Temperature
 BHT .Degf            155:   Bottom Hole Temperature
 BHT .Degf            250:   Bottom Hole Temperature
 BHT .Degf            270:   Bottom Hole Temperature
 MRT .Degf            110:   Max Recorded Temperature
 MRT .Degf            155:   Max Recorded Temperature
 MRT .Degf            250:   Max Recorded Temperature
 MRT .Degf            270:   Max Recorded Temperature
 MST .Degf             80:   Mud Temperature
 MST .Degf             85:   Mud Temperature
 MST .Degf             85:   Mud Temperature
 MST .Degf             95:   Mud Temperature
 RM  .Ohmm           2.05:   Mud Resistivity
 RM  .Ohmm           1.51:   Mud Resistivity
 RM  .Ohmm           0.71:   Mud Resistivity
 RM  .Ohmm           0.48:   Mud Resistivity
 RMB .Degf 1.6 ohmm @ 110:   Mud BHT Resistivity
 RMB .Degf 0.9 ohmm @ 155:   Mud BHT Resistivity
 RMB .Degf 0.24 ohmm @ 250:   Mud BHT Resistivity
 RMB .Degf 0.16 ohmm @ 270:   Mud BHT Resistivity
 RMC .Ohmm           2.12:   Mud Cake Resistivity
 RMC .Ohmm           1.62:   Mud Cake Resistivity
 RMC .Ohmm           1.11:   Mud Cake Resistivity
 RMC .Ohmm 0.66 ohmm @ 26:   Mud Cake Resistivity
 RMF .Ohmm           1.91:   Mud Filtrate Resistivity
 RMF .Ohmm           1.36:   Mud Filtrate Resistivity
 RMF .Ohmm           0.46:   Mud Filtrate Resistivity
 RMF .Ohmm 0.31 ohmm @ 80:   Mud Filtrate Resistivity
 DFD .G/c3           1.15:   Drilling Fluid Density
 DFD .G/c3           1.14:   Drilling Fluid Density
 DFD .G/c3           1.17:   Drilling Fluid Density
 DFD .G/c3           1.23:   Drilling Fluid Density
 DFV .Sec              42:   Drilling Fluid Viscosity
 DFV .Sec              55:   Drilling Fluid Viscosity
 DFV .Sec              65:   Drilling Fluid Viscosity
 DFV .Sec              65:   Drilling Fluid Viscosity
 DFPH.                  9:   Drilling Fluid pH
 DFPH.                  9:   Drilling Fluid pH
 DFPH.                9.5:   Drilling Fluid pH
 DFPH.                9.5:   Drilling Fluid pH
 DFL .Ml               10:   Drilling Fluid Loss
 DFL .Ml              6.5:   Drilling Fluid Loss
 DFL .Ml                5:   Drilling Fluid Loss
 DFL .Ml                5:   Drilling Fluid Loss
 DD  .Mtr             255:   Depth driller
 DD  .Mtr             635:   Depth driller
 DD  .Mtr            1305:   Depth driller
 DD  .Mtr            2798:   Depth driller
 DL  .Mtr             255:   Depth logger
 DL  .Mtr             635:   Depth logger
 DL  .Mtr            1303:   Depth logger
 DL  .Mtr          2799.3:   Depth logger
 BLI .Mtr           254.7:   Bottom log interval
 BLI .Mtr           634.7:   Bottom log interval
 BLI .Mtr            1302:   Bottom log interval
 BLI .Mtr          2799.0:   Bottom log interval
 TLI .Mtr            30.0:   Top log interval
 TLI .Mtr           259.3:   Top log interval
 TLI .Mtr           630.5:   Top log interval
 TLI .Mtr          1299.7:   Top log interval
 CSS .Inch             30:   Casing size
 CSS .Inch             20:   Casing size
 CSS .Inch         12 1/4:   Casing size
 CSS .Inch          9 5/8:   Casing size
 CTD1.Mtr              30:   Casing driller 1
 CTD1.Mtr           259.1:   Casing driller 1
 CTD1.Mtr             630:   Casing driller 1
 CTD1.Mtr            1300:   Casing driller 1
 CTL1.Mtr              30:   Casing logger 1
 CTL1.Mtr           250.5:   Casing logger 1
 CTL1.Mtr           630.5:   Casing logger 1
 CTL1.Mtr          1299.7:   Casing logger 1
 BS  .Inch          9 7/8:   Bit size
 BS  .Inch          9 7/8:   Bit size
 BS  .Inch             12:   Bit size
 BS  .Inch          8 5/8:   Bit size
 DFT .          bentonite:   Type fluid in hole
 DFT .          bentonite:   Type fluid in hole
 DFT .          bentonite:   Type fluid in hole
 DFT .          bentonite:   Type fluid in hole
 WSS .           flowline:   Source of sample
 WSS .           flowline:   Source of sample
 WSS .           flowline:   Source of sample
 WSS .           flowline:   Source of sample
 EMT .Degf  3.0 ohmm @ 87:   Rm Meas. temp.
 EMT .Degf 2.05 ohmm @ 80:   Rm Meas. temp.
 EMT .Degf 1.51 ohmm @ 85:   Rm Meas. temp.
 EMT .Degf 0.71 ohmm @ 85:   Rm Meas. temp.
 MFT .Degf 2.72 ohmm @ 87:   Rmf Meas. temp.
 MFT .Degf 1.91 ohmm @ 80:   Rmf Meas. temp.
 MFT .Degf 1.36 ohmm @ 85:   Rmf Meas. temp.
 MFT .Degf 0.46 ohmm @ 85:   Rmf Meas. temp.
 MCST.Degf 1.93 ohmm @ 87:   Rmc Meas. temp.
 MCST.Degf 2.12 ohmm @ 80:   Rmc Meas. temp.
 MCST.Degf 1.62 ohmm @ 85:   Rmc Meas. temp.
 MCST.Degf 1.11 ohmm @ 85:   Rmc Meas. temp.
 MFSS.                  p:   Source Rmf.
 MFSS.                  p:   Source Rmf.
 MFSS.                  p:   Source Rmf.
 MFSS.                  p:   Source Rmf.
 MCSS.                  p:   Source Rmc.
 MCSS.                  p:   Source Rmc.
 MCSS.                  p:   Source Rmc.
 MCSS.                  p:   Source Rmc.
 TCS .HRS             1.5:   Time Circ. stopped
 TCS .HRS               3:   Time Circ. stopped
 TCS .HRS               4:   Time Circ. stopped
 TCS .HRS               7:   Time Circ. stopped
 LUN .               4618:   Logging unit number
 LUN .               4618:   Logging unit number
 LUN .               4618:   Logging unit number
 LUL .                mjv:   Logging unit location
 LUL .                mjv:   Logging unit location
 LUL .                mjv:   Logging unit location
 LUL .                mjv:   Logging unit location
 WITN.            Sukarna:   Witnessed by
 RE1 .                ILD:   Res. Electrode #1
 RE1 .                ILD:   Res. Electrode #1
 RE1 .                ILD:   Res. Electrode #1
 RE1 .                ILD:   Res. Electrode #1
 RE2 .                 SN:   Res. Electrode #2
 RE2 .                 SN:   Res. Electrode #2
 RE2 .                 SN:   Res. Electrode #2
 RE2 .                 SN:   Res. Electrode #2
 TLAB.Hrs             1.5:   Time logger at bottom
 TLAB.Hrs               3:   Time logger at bottom
 TLAB.Hrs               4:   Time logger at bottom
 TLAB.Hrs               7:   Time logger at bottom
 DGBY.            Sukarna:   Digitized By
 DGBY.            Sukarna:   Digitized By
 DGBY.            Sukarna:   Digitized By
 DGBY.            Sukarna:   Digitized By
 DGBY.            Sukarna:   Digitized By
~A  DEPTH     CALI         GR         SP        ILD         SN       NPHI       RHOB       DRHO       PROX
# ...
 2266.0140     9.7918   104.9785     2.4302     4.0293     5.2172    41.0101     2.0506     0.0109     9.1337
 2266.1670     9.7019   107.4071     2.4906     4.5111     5.8173    38.5341     2.1791    -0.0155    11.7178
 2266.3190     9.6456   108.6003     2.4784     5.2917     6.6418    40.3038     2.2369     0.0155   197.1627
 2266.4710     9.5311   106.3413     2.3384     7.3352     7.8485    41.0152     2.2091     0.0698   133.4899
 2266.6240     9.5078    96.6150     2.3395     9.1494     8.7859    37.2262     2.2217     0.0440     6.8862
 2266.7760     9.5378    89.9126     2.1866    10.1814     9.5537    31.2162     2.2990     0.0175     6.2262
 2266.9280     9.5972    92.9678     2.1875    10.2545    10.2529    25.1007     2.4046     0.0079    24.8245
 2267.0810     9.6789    96.9773     2.1885     9.9005    11.0538    20.9217     2.4914     0.0193    77.6926
 2267.2330     9.7051   103.4374     2.2649     9.1733    11.5452    23.2494     2.5507     0.0157    30.3055
 2267.3850     9.7598   108.7800     2.3447     7.8744    11.9167    26.5456     2.5915     0.0007    28.3590
 2267.5380     9.7991   110.9974     2.3458     7.1125    11.9607    29.5933     2.5615    -0.0071    19.5637
 2267.6900     9.8243   108.1173     2.3468     6.6917    11.5730    32.7878     2.4906     0.0022     6.0130
 2267.8430     9.6705   103.3703     2.4132     6.5639    10.9824    34.3944     2.4345     0.0254     4.3548
 2267.9950     9.6496    98.5494     2.5030     6.5064    10.5251    35.4164     2.3740     0.0496     6.0424
 2268.1480     9.6910    99.8646     2.6582     6.4024    10.1357    33.1627     2.3420     0.0429     6.1313
 2268.3000     9.7364   103.8102     2.8204     6.2926     9.8263    27.8397     2.3687     0.0126    10.9263
 2268.4520     9.8323   104.4261     2.9683     6.1436     9.4617    22.4411     2.5003     0.0198    45.2722
 2268.6050     9.9454   100.5874     3.0608     5.9308     9.3955    22.2967     2.5807     0.0315    47.4101
 2268.7570    10.0013   101.3280     3.1247     5.7117     9.4897    23.4617     2.6034     0.0191    18.5995
 2268.9100     9.9462    98.5983     3.2796     5.5784     9.5330    25.5901     2.6091     0.0129    15.5371
 2269.0620     9.8545    93.3821     3.2807     5.4657     9.3328    27.6084     2.6374     0.0400     7.0847
 2269.2140     9.7541    89.9448     3.3567     5.3232     8.9857    26.8569     2.6407     0.0726     4.8571
 2269.3670     9.4778    82.1407     3.4371     5.1689     8.6768    25.5343     2.6028     0.0109     5.9430
 2269.5190     9.3290    81.6044     3.4379     5.0487     8.4771    24.4777     2.5971    -0.0157     3.6859
 2269.6720     9.2641    88.1054     3.5930     4.8825     8.4514    24.9125     2.5814    -0.0076    13.8272
 2269.8240     9.3339    93.3298     3.5941     4.4515     8.5769    27.2945     2.4756     0.0130    17.9563
 2269.9760     9.4044   105.0446     3.7026     3.9692     8.7306    31.2411     2.2984     0.0146    71.5968
 2270.1290     9.5083   107.3604     3.7503     4.2949     8.8553    37.8526     2.2101     0.0407    39.5703
 2270.2810     9.5835   102.7764     3.7513     4.5971     8.7503    43.0984     2.1441     0.0981     5.3000
 2270.4340     9.6718   103.6856     3.7523     4.8268     8.4570    39.7030     2.2171     0.0496    15.5648
 2270.5860     9.7251   106.1233     3.7534     4.8535     8.0923    33.3607     2.3972    -0.0152    88.2431
 2270.7380     9.7847   109.5723     3.7545     4.6357     7.7011    29.5365     2.4799    -0.0063   114.6508
 2270.8910     9.8466   116.4551     3.9095     4.4943     7.4058    28.3832     2.5027     0.0080    43.3098
 2271.0430     9.9079   118.5636     3.9106     4.5186     7.6041    29.5317     2.4670     0.0027     4.1771
 2271.1960     9.9697   116.5472     3.9992     4.8476     7.8496    31.4488     2.4139     0.0113     5.1349
 2271.3480    10.0485   113.9967     4.2210     5.0245     8.0168    32.8242     2.3688     0.0267     4.4959
 2271.5000    10.1296   105.1382     4.5300     5.1693     8.0531    33.4068     2.3547     0.0589     5.6685
 2271.6530    10.2153   100.2831     4.6144     5.1325     7.9971    31.3049     2.3534     0.0279     7.0758
 2271.8050    10.3275    98.7031     4.9957     5.1851     7.8093    27.3813     2.4021     0.0162    15.1727
 2271.9580    10.4385   100.1615     5.1495     5.3956     7.5578    23.6207     2.5540     0.0328    11.9352
 2272.1100    10.4223   100.4344     5.4587     5.5267     7.5101    24.3158     2.5404     0.0073     5.0166
 2272.2620    10.2394    97.5216     5.4598     5.5751     7.5582    25.5645     2.5001     0.0097     4.3592
 2272.4150    10.0375    95.5180     5.4608     5.5519     7.6131    27.3027     2.4788     0.0257     4.9332
 2272.5670     9.7464    92.3332     5.4619     5.5124     7.5854    29.0246     2.4270     0.0735     5.2448
 2272.7190     9.8865    89.3065     5.6171     5.4114     7.4275    26.7405     2.4052     0.0487    10.0545
 2272.8720    10.0732    90.0874     5.6399     5.1783     7.2349    21.1451     2.4686     0.0301     4.5896
 2273.0240    10.1752    94.7432     5.8310     4.9757     7.0431    18.4325     2.5634     0.0430    10.5219
 2273.1770    10.2978   104.1646     6.0221     5.0238     6.9237    18.1397     2.5890     0.0163    10.7291
 2273.3290    10.4040    98.2584     6.3917     5.2200     6.8254    17.7079     2.5966     0.0135     3.4255
 2273.4820    10.4963    91.3183     6.3926     5.4923     6.7665    16.3566     2.5774    -0.0041     3.3528
 2273.6340    10.5215    85.3174     6.2504     5.7180     6.8979    15.7484     2.5442    -0.0025     3.4824
 2273.7860    10.5595    84.8031     5.7646     5.9204     7.1215    16.2028     2.5121     0.0096     4.0296
 2273.9390    10.6352    88.0937     5.1633     6.0485     7.2926    17.3105     2.5108     0.0029     8.3481
 2274.0910    10.7002    92.5078     4.8526     6.1020     7.3249    18.5619     2.5315     0.0086     8.5689
 2274.2440    10.7725    95.6159     4.5108     6.1768     7.2544    20.5092     2.5497     0.0015     9.1810
 2274.3960    10.8042   101.2421     4.2478     6.1617     7.4120    21.9089     2.5698     0.0054    10.0691
 2274.5480    10.7954   107.4485     4.0887     5.8782     7.3612    23.9954     2.5925     0.0201     7.6612
 2274.7010    10.8151   110.4511     4.0898     5.4922     7.1136    26.1188     2.6134     0.0382     5.3315
 2274.8530    10.9077   107.1851     4.1747     5.0744     6.7113    27.8975     2.5983     0.0158     3.1042
 2275.0060    11.0519   104.2605     4.7464     4.5240     6.2233    28.8512     2.5838     0.0239     2.3149
 2275.1580    11.4645   107.4718     5.2176     3.7222     5.5234    29.7122     2.5416     0.0434     4.6552
 2275.3100    11.4304   110.3607     5.6348     3.3260     5.1218    31.0710     2.4845     0.0290     2.6100
 2275.4630    11.3494   106.2306     5.6358     3.1127     4.9328    33.4272     2.4169     0.0465     3.1539
 2275.6150    11.2897   100.4135     5.6910     3.0591     4.7732    35.8671     2.3587     0.0297     3.5963
 2275.7680    11.1267    91.0786     5.7919     3.3922     4.6317    39.1910     2.2334     0.0449     3.3420
 2275.9200    11.0451    86.4851     5.9472     3.7159     4.5980    41.1756     2.1763     0.0492     3.2669
 2276.0730    10.9102    84.2272     6.1022     4.2170     4.7098    43.1165     2.0858     0.1119    13.3572
 2276.2250    10.9246    89.2912     6.1474     4.8332     5.0487    40.4803     2.0658     0.1187    89.2803
 2276.3770    10.9127    95.5750     6.2584     5.3572     5.5439    31.7571     2.2285     0.0313   297.6332
 2276.5300    10.8069    99.6578     6.1055     5.7127     6.0538    28.2743     2.4062     0.0090   448.3868
 2276.6820    10.7021   109.9763     5.7982     6.5227     6.5798    27.4515     2.5301     0.0220    48.4870
 2276.8340    10.7043   111.9451     5.7992     7.0200     7.0062    27.5926     2.5310     0.0193     8.2566
 2276.9870    10.7232   112.6766     5.8704     7.0927     7.1910    27.2162     2.5445     0.0361     5.3826
