~Version Information
VERS  .          2.0                              :CWLS Log Ascii Standard - Version 2.0
WRAP  .          NO                               :One line per depth step
~Well Information Block
#MNEM.UNIT       Data Type                        Information
#---------       ---------                        -------------------------------
STRT  .M         501.09100                        :START DEPTH
STOP  .M         2801.87400                       :STOP DEPTH
STEP  .M          0.15240                         :INCREMENT
NULL  .          -999.25                          :NULL DATA VALUE
COMP  .          PERTAMINA                        :COMPANY
WELL  .          CMS-005                          :WELL
WBN   .          CMS-005                          :WELLBORE
FLD   .          CEMARA SELATAN                   :FIELD
LOC   .                                           :LOCATION
PROV  .          INDONESIA                        :PROVINCE
STAT  .          INDONESIA                        :STATE
CNTY  .                                           :COUNTY
CTRY  .                                           :COUNTRY
DATE  .                                           :DATE
UWI   .          CEMARASELATAN-005                :UNIQUE WELL UWI
LIC   .                                           :LICENSE NUMBER
API   .                                           :API NUMBER
SRVC  .                                           :SERVICE COMPANY
~Parameter Information Block
#MNEM.UNIT       Value                            Description
#---------       ---------                        -------------
LONG  .DEG       108.170923                       :Well Surface Location
LATI  .DEG       -6.423032                        :Well Surface Location
XWELL .M         187032.670000                    :X-coordinate of Well Head
YWELL .M         9289167.261000                   :Y-coordinate of Well Head
~Curve Information Block
#MNEM.UNIT       API Code            Curve    Description
#--------        --------------      -----    -------------------
DEPT  .M                             :0       Index
KGAS  .MD                            :1       Permeability to Gas           
KINT  .MD                            :2       Intrinsic Permeability        
KOIL  .MD                            :3       Permeability to Oil           
KWTR  .MD                            :4       Permeability to Water         
PHIT  .V/V                           :5       Total Porosity_ includes all forms of porosity, including that occupied by bound fluids, and is independent of rock and fluid materials and of environmental effects
PHTT  .V/V                           :6       Theoretical PHIT Value        
PIGE  .V/V                           :7       Effective Porosity Less Irreducible Water
PIGN  .V/V                           :8       Effective Porosity, VISO, VPAR, and Bound Water Removed
SUWI  .V/V                           :9       Non-Clay Water Intergranular Water Saturation for Undisturbed Zone
VILL  .V/V                           :10      Volume of Illite (dry) Relative to Total Volume
~Ascii Data Section
# ...
   2482.29100       0.00100       0.09250       0.00100       0.09250       0.09004       0.09565       0.08503       0.08503       1.00000       0.05019 
   2482.44340       0.00100       0.07009       0.00100       0.07009       0.09156       0.09971       0.08483       0.08483       1.00000       0.06753 
   2482.59580       0.00100       0.03056       0.00100       0.03056       0.09228       0.10295       0.08384       0.08384       1.00000       0.08462 
   2482.74820       0.00100       0.01079       0.00100       0.01079       0.08715       0.09908       0.07784       0.07784       1.00000       0.09342 
   2482.90060       0.00100       0.01000       0.00100       0.01000       0.07436       0.08635       0.06493       0.06493       1.00000       0.09451 
   2483.05300       0.00100       0.01000       0.00100       0.01000       0.06854       0.07929       0.05977       0.05977       1.00000       0.08791 
   2483.20540       0.00100       0.01000       0.00100       0.01000       0.05552       0.06649       0.04671       0.04671       1.00000       0.08839 
   2483.35780       0.00100       0.01000       0.00100       0.01000       0.05176       0.06006       0.04478       0.04478       1.00000       0.07000 
   2483.51020       0.00100       0.01000       0.00100       0.01000       0.04847       0.05299       0.04402       0.04402       1.00000       0.04459 
   2483.66260       0.00100       0.01000       0.00100       0.01000       0.03645       0.03845       0.03375       0.03375       1.00000       0.02704 
   2483.81500       0.00100       0.01000       0.00100       0.01000       0.02920       0.03013       0.02734       0.02734       1.00000       0.01868 
   2483.96740       0.00100       0.01000       0.00100       0.01000       0.03175       0.02970       0.03175       0.03175       1.00000       0.00001 
   2484.11980       0.00100       0.01000       0.00100       0.01000       0.02334       0.02300       0.02244       0.02244       1.00000       0.00905 
   2484.27220       0.00100       0.01000       0.00100       0.01000       0.01712       0.01868       0.01502       0.01502       1.00000       0.02097 
   2484.42460       0.00100       0.01000       0.00100       0.01000       0.01661       0.01839       0.01447       0.01447       1.00000       0.02152 
   2484.57700       0.00100       0.01000       0.00100       0.01000       0.02713       0.02554       0.02713       0.02713       1.00000       0.00001 
   2484.72940       0.00100       0.01000       0.00100       0.01000       0.02439       0.02331       0.02439       0.02439       1.00000       0.00001 
   2484.88180       0.00100       0.01000       0.00100       0.01000       0.02538       0.02437       0.02538       0.02538       1.00000       0.00001 
   2485.03420       0.00100       0.01000       0.00100       0.01000       0.02500       0.02429       0.02487       0.02487       1.00000       0.00126 
   2485.18660       0.00100       0.01000       0.00100       0.01000       0.02992       0.02925       0.02956       0.02956       1.00000       0.00362 
   2485.33900       0.00100       0.01000       0.00100       0.01000       0.04185       0.04066       0.04159       0.04159       1.00000       0.00254 
   2485.49140       0.00100       0.01000       0.00100       0.01000       0.04381       0.04528       0.04176       0.04176       1.00000       0.02057 
   2485.64380       0.00100       0.01000       0.00100       0.01000       0.04494       0.04731       0.04228       0.04228       1.00000       0.02665 
   2485.79620       0.00100       0.01797       0.00100       0.01798       0.04950       0.05132       0.04714       0.04714       1.00000       0.02362 
   2485.94860       0.00100       0.04445       0.00100       0.04445       0.05762       0.05879       0.05566       0.05566       1.00000       0.01964 
   2486.10100       0.00100       0.21629       0.00100       0.21629       0.05766       0.05764       0.05640       0.05640       1.00000       0.01265 
   2486.25340       0.00100       0.57229       0.00100       0.57229       0.06024       0.06021       0.05891       0.05891       1.00000       0.01331 
   2486.40580       0.00100       0.49727       0.00100       0.49727       0.06989       0.07276       0.06652       0.06652       1.00000       0.03383 
   2486.55820       0.00100       0.16993       0.00100       0.16993       0.07915       0.08382       0.07455       0.07455       1.00000       0.04615 
   2486.71060       0.00100       0.03134       0.00100       0.03134       0.08016       0.08812       0.07328       0.07328       1.00000       0.06900 
   2486.86300       0.00100       0.01000       0.00100       0.01000       0.07776       0.09071       0.06758       0.06758       1.00000       0.10204 
   2487.01540       0.00100       0.01000       0.00100       0.01000       0.08627       0.09892       0.07579       0.07579       1.00000       0.10506 
   2487.16780       0.00100       0.01000       0.00100       0.01000       0.07434       0.09386       0.05932       0.05932       1.00000       0.15055 
   2487.32020       0.00100       0.01000       0.00100       0.01000       0.07559       0.09588       0.05990       0.05990       1.00000       0.15727 
   2487.47260       0.00100       0.01000       0.00100       0.01000       0.07881       0.09230       0.06767       0.06767       1.00000       0.11170 
   2487.62500       0.00100       0.01000       0.00100       0.01000       0.05869       0.06678       0.05146       0.05146       1.00000       0.07246 
   2487.77740       0.00100       0.01000       0.00100       0.01000       0.03273       0.03947       0.02701       0.02701       1.00000       0.05732 
   2487.92980       0.00100       0.01000       0.00100       0.01000       0.02856       0.03401       0.02378       0.02378       1.00000       0.04801 
   2488.08220       0.00100       0.01000       0.00100       0.01000       0.04111       0.04466       0.03725       0.03725       1.00000       0.03870 
   2488.23460       0.00100       0.01000       0.00100       0.01000       0.04162       0.04883       0.03543       0.03543       1.00000       0.06203 
   2488.38700       0.00100       0.01000       0.00100       0.01000       0.06635       0.07261       0.06086       0.06086       1.00000       0.05506 
   2488.53940       0.00100       0.01000       0.00100       0.01000       0.07156       0.07897       0.06557       0.06557       1.00000       0.06007 
   2488.69180       0.00100       0.01823       0.00100       0.01823       0.07655       0.08392       0.07066       0.07066       1.00000       0.05901 
   2488.84420       0.00100       0.02215       0.00100       0.02215       0.08280       0.09038       0.07680       0.07680       1.00000       0.06025 
   2488.99660       0.00100       0.06926       0.00100       0.06926       0.08131       0.08782       0.07592       0.07592       1.00000       0.05402 
   2489.14900       0.00100       0.39350       0.00100       0.39350       0.09098       0.09358       0.08815       0.08815       1.00000       0.02835 
   2489.30140       0.00100       1.47522       0.00100       1.47522       0.10135       0.10071       0.10065       0.10065       1.00000       0.00700 
   2489.45380       0.00100       2.13065       0.00100       2.13065       0.10834       0.10722       0.10782       0.10782       1.00000       0.00523 
   2489.60620       0.00100       1.96467       0.00100       1.96467       0.10979       0.11116       0.10733       0.10733       1.00000       0.02471 
   2489.75860       0.00100       0.21435       0.00100       0.21435       0.11322       0.12570       0.10254       0.10254       1.00000       0.10709 
   2489.91100       0.00100       0.04365       0.00100       0.04365       0.13407       0.16258       0.11187       0.11187       1.00000       0.22267 
   2490.06340       0.00100       0.01000       0.00100       0.01000       0.15273       0.19744       0.11886       0.11886       1.00000       0.33966 
